%time,field.header.seq,field.header.stamp,field.header.frame_id,field.vector.x,field.vector.y,field.vector.z
1661303321545432443,4310,1661303321545432443,,0.856117129326,-0.537963867188,-0.0375668369234
1661303321550400146,4311,1661303321550400146,,0.88038110733,-0.351989746094,-0.0124434968457
1661303321555442784,4312,1661303321555442784,,1.03725242615,-0.357727050781,-0.0180473104119
1661303321560478089,4313,1661303321560478089,,0.982844173908,-0.497924804688,-0.0330502130091
1661303321565432314,4314,1661303321565432314,,0.942065298557,-0.615264892578,-0.00727914227173
1661303321570417686,4315,1661303321570417686,,1.00561141968,-0.519165039062,-0.00342284957878
1661303321577186271,4316,1661303321577186271,,0.96190983057,-0.448211669922,-0.0033139877487
1661303321580470837,4317,1661303321580470837,,1.09417176247,-0.410766601562,-0.0124732917175
1661303321585484073,4318,1661303321585484073,,1.02557325363,-0.580291748047,0.00699724722654
1661303321590482714,4319,1661303321590482714,,0.923430383205,-0.547424316406,-0.0124062551185
1661303321595499582,4320,1661303321595499582,,0.842125475407,-0.532012939453,-0.0431781001389
1661303321600388230,4321,1661303321600388230,,0.994157016277,-0.510040283203,-0.0623759105802
1661303321605373462,4322,1661303321605373462,,1.0272449255,-0.4326171875,-0.0480983778834
1661303321610485658,4323,1661303321610485658,,0.942344009876,-0.536987304688,-0.0378395617008
1661303321617467944,4324,1661303321617467944,,1.0080139637,-0.666839599609,-0.0324437357485
1661303321620419946,4325,1661303321620419946,,0.934330523014,-0.688385009766,-0.0130803389475
1661303321625657080,4326,1661303321625657080,,0.975903391838,-0.604553222656,0.00192657066509
1661303321630487344,4327,1661303321630487344,,1.07128787041,-0.497497558594,0.0372041538358
1661303321635390169,4328,1661303321635390169,,0.920230031013,-0.623321533203,-0.0326362475753
1661303321640560748,4329,1661303321640560748,,0.986443281174,-0.667877197266,-0.0128222219646
1661303321645464131,4330,1661303321645464131,,0.951347053051,-0.6640625,-0.0277887396514
1661303321650373450,4331,1661303321650373450,,1.10748267174,-0.611236572266,-0.0227779373527
1661303321657088471,4332,1661303321657088471,,0.992995977402,-0.633575439453,-0.0328972302377
1661303321660490572,4333,1661303321660490572,,1.04532694817,-0.568511962891,-0.0331831388175
1661303321665559259,4334,1661303321665559259,,0.909503102303,-0.886566162109,-0.00289400992915
1661303321670419972,4335,1661303321670419972,,0.983881592751,-0.636901855469,-0.0376052260399
1661303321675486564,4336,1661303321675486564,,1.05404663086,-0.543518066406,-0.0079704169184
1661303321680663847,4337,1661303321680663847,,1.01184165478,-0.636535644531,-0.00745847821236
1661303321685414078,4338,1661303321685414078,,1.04772758484,-0.652008056641,0.0322813019156
1661303321690518173,4339,1661303321690518173,,0.934852719307,-0.70068359375,-0.0324718095362
1661303321697242482,4340,1661303321697242482,,1.00288450718,-0.453399658203,0.00672938954085
1661303321700508890,4341,1661303321700508890,,1.0554330349,-0.304473876953,0.00157362862956
1661303321705482459,4342,1661303321705482459,,0.951498746872,-0.449188232422,-0.0378367006779
1661303321710545419,4343,1661303321710545419,,0.854191243649,-0.630737304688,-0.0428348965943
1661303321715418075,4344,1661303321715418075,,0.807282090187,-0.691497802734,0.00237576942891
1661303321720388711,4345,1661303321720388711,,0.981672465801,-0.376373291016,-0.0430583506823
1661303321725468432,4346,1661303321725468432,,0.921737670898,-0.409729003906,-0.0420356243849
1661303321740358342,4347,1661303321740358342,,0.939330756664,-0.468902587891,-0.0226733721793
1661303321740769122,4348,1661303321740769122,,0.925122320652,-0.623992919922,0.0270570721477
1661303321741072214,4349,1661303321741072214,,0.994000017643,-0.610626220703,0.00757478829473
1661303321745588352,4350,1661303321745588352,,1.02375388145,-0.369903564453,-0.00801367405802
1661303321750483076,4351,1661303321750483076,,1.0519374609,-0.508270263672,0.0173144973814
1661303321755399449,4352,1661303321755399449,,1.0205334425,-0.520172119141,-0.0131221655756
1661303321760515625,4353,1661303321760515625,,0.866800487041,-0.607971191406,-0.00796755123883
1661303321765395822,4354,1661303321765395822,,0.961384236813,-0.5849609375,-0.0581449009478
1661303321771685257,4355,1661303321771685257,,1.06305229664,-0.562316894531,-0.0231268685311
1661303321775510849,4356,1661303321775510849,,0.939443528652,-0.467956542969,-0.0077833449468
1661303321780440840,4357,1661303321780440840,,0.91197091341,-0.661834716797,0.00242475746199
1661303321785414200,4358,1661303321785414200,,0.887804329395,-0.681091308594,-0.0280216485262
1661303321790485191,4359,1661303321790485191,,1.0240983963,-0.703247070312,0.0322088226676
1661303321795453942,4360,1661303321795453942,,1.01752173901,-0.511108398438,0.0319756269455
1661303321800439174,4361,1661303321800439174,,0.945573508739,-0.468841552734,0.0220840852708
1661303321808190922,4362,1661303321808190922,,1.0018119812,-0.505218505859,-0.0130886482075
1661303321810497842,4363,1661303321810497842,,0.854937016964,-0.645080566406,-0.00770542304963
1661303321819048174,4364,1661303321819048174,,0.919958174229,-0.621826171875,0.0271616373211
1661303321820368091,4365,1661303321820368091,,0.993854641914,-0.520629882812,-0.0322414822876
1661303321825544955,4366,1661303321825544955,,1.09525001049,-0.468078613281,-0.0331384465098
1661303321830537659,4367,1661303321830537659,,0.785354435444,-0.525634765625,-0.017436824739
1661303321835378399,4368,1661303321835378399,,0.970164656639,-0.661193847656,-0.00316616473719
1661303321840387515,4369,1661303321840387515,,0.84622836113,-0.672729492188,-0.00243936781771
1661303321845467027,4370,1661303321845467027,,0.953657925129,-0.573455810547,0.00208413414657
1661303321850392479,4371,1661303321850392479,,0.961194694042,-0.475799560547,0.0226587615907
1661303321858932475,4372,1661303321858932475,,0.988295197487,-0.536804199219,-0.00261497916654
1661303321860519587,4373,1661303321860519587,,0.901497364044,-0.654266357422,-0.00319395330735
1661303321865665095,4374,1661303321865665095,,0.990087389946,-0.483184814453,-0.0280525851995
1661303321870490470,4375,1661303321870490470,,0.950873672962,-0.404205322266,-0.0428323186934
1661303321875375556,4376,1661303321875375556,,0.997872829437,-0.497161865234,-0.023125436157
1661303321881845729,4377,1661303321881845729,,0.852639198303,-0.5732421875,-0.0428432039917
1661303321886755188,4378,1661303321886755188,,1.04477250576,-0.732635498047,-0.0378576107323
1661303321890387681,4379,1661303321890387681,,0.923784792423,-0.590423583984,-0.0275976583362
1661303321897534502,4380,1661303321897534502,,1.07446181774,-0.49853515625,0.00226690736599
1661303321900449492,4381,1661303321900449492,,0.916298806667,-0.470397949219,0.0476692318916
1661303321905422991,4382,1661303321905422991,,0.83966088295,-0.6298828125,0.0323093757033
1661303321910487139,4383,1661303321910487139,,1.03892827034,-0.699859619141,0.0267376471311
1661303321915412591,4384,1661303321915412591,,1.06920194626,-0.530426025391,0.0119298407808
1661303321920377360,4385,1661303321920377360,,0.879672825336,-0.397735595703,0.0121504301205
1661303321925380261,4386,1661303321925380261,,0.995200276375,-0.428436279297,-0.047681260854
1661303321930432816,4387,1661303321930432816,,0.993110895157,-0.679931640625,-0.0428669862449
1661303321937482844,4388,1661303321937482844,,0.936508357525,-0.614929199219,-0.00824514869601
1661303321940395179,4389,1661303321940395179,,0.946444392204,-0.535552978516,-0.0125486347824
1661303321945557657,4390,1661303321945557657,,1.03054451942,-0.521179199219,0.0121573042125
1661303321950403076,4391,1661303321950403076,,0.99951261282,-0.526885986328,0.0125397546217
1661303321955388867,4392,1661303321955388867,,0.861107707024,-0.57080078125,0.0121183432639
1661303321960489399,4393,1661303321960489399,,0.984782636166,-0.663330078125,0.0170775800943
1661303321965434196,4394,1661303321965434196,,1.005687356,-0.498992919922,0.00697232317179
1661303321970360974,4395,1661303321970360974,,1.00069987774,-0.474151611328,0.0272384136915
1661303321978927160,4396,1661303321978927160,,0.997060656548,-0.502319335938,-0.0875897705555
1661303321980615884,4397,1661303321980615884,,0.848523855209,-0.692718505859,-0.0375255830586
1661303321985624023,4398,1661303321985624023,,0.88104480505,-0.660186767578,-0.0474941879511
1661303321990364337,4399,1661303321990364337,,1.00941050053,-0.46630859375,-0.0227040238678
1661303321995487636,4400,1661303321995487636,,0.994983255863,-0.454406738281,-0.0532191880047
1661303322000435157,4401,1661303322000435157,,0.98371297121,-0.711669921875,-0.00796611886472
1661303322005383096,4402,1661303322005383096,,0.948407948017,-0.641052246094,0.0372055843472
1661303322010511704,4403,1661303322010511704,,1.06206130981,-0.705474853516,0.00235342420638
1661303322018087535,4404,1661303322018087535,,0.996612668037,-0.464172363281,0.0270848609507
1661303322020384190,4405,1661303322020384190,,0.992021501064,-0.352722167969,-0.0128961335868
1661303322025363836,4406,1661303322025363836,,1.06355404854,-0.592163085938,-0.0078853322193
1661303322030461158,4407,1661303322030461158,,0.923548221588,-0.648040771484,-0.00735391257331
1661303322035392897,4408,1661303322035392897,,0.888213634491,-0.544311523438,-0.0426773354411
1661303322040359204,4409,1661303322040359204,,0.919685840607,-0.482757568359,-0.0226358436048
1661303322045438927,4410,1661303322045438927,,0.966728448868,-0.532745361328,-0.0572995059192
1661303322050426744,4411,1661303322050426744,,0.934570193291,-0.576354980469,-0.0127789638937
1661303322058859474,4412,1661303322058859474,,1.06476259232,-0.567260742188,-0.0178971961141
1661303322060528365,4413,1661303322060528365,,0.93552750349,-0.621246337891,-0.0130872158334
1661303322065475398,4414,1661303322065475398,,0.975106179714,-0.499938964844,0.0367827452719
1661303322070470339,4415,1661303322070470339,,1.03434431553,-0.453552246094,0.0269272979349
1661303322075369393,4416,1661303322075369393,,0.997162699699,-0.655395507812,-0.0120074767619
1661303322086183699,4417,1661303322086183699,,0.868435382843,-0.642639160156,-0.0125082414597
1661303322086403755,4418,1661303322086403755,,0.949671208858,-0.649749755859,-0.037985958159
1661303322090360082,4419,1661303322090360082,,1.04002177715,-0.474609375,-0.0679949074984
1661303322097087116,4420,1661303322097087116,,0.98768389225,-0.592651367188,-0.0577541477978
1661303322100422943,4421,1661303322100422943,,0.915777385235,-0.678894042969,-0.0474174134433
1661303322105464325,4422,1661303322105464325,,0.925106525421,-0.697174072266,-0.0184048376977
1661303322110339356,4423,1661303322110339356,,0.981153190136,-0.611511230469,0.0119215324521
1661303322115452950,4424,1661303322115452950,,1.07892000675,-0.386749267578,-0.002848173026
1661303322120375400,4425,1661303322120375400,,0.952732861042,-0.4638671875,0.0423180870712
1661303322125370690,4426,1661303322125370690,,0.860965192318,-0.509460449219,-0.0174116156995
1661303322130434071,4427,1661303322130434071,,1.02527678013,-0.585845947266,-0.00266253505833
1661303322137030441,4428,1661303322137030441,,1.0500895977,-0.439788818359,-0.0182068776339
1661303322140355163,4429,1661303322140355163,,0.987904369831,-0.445343017578,-0.0180129334331
1661303322145492152,4430,1661303322145492152,,0.914491891861,-0.491394042969,-0.0120853986591
1661303322150522012,4431,1661303322150522012,,0.906420528889,-0.679901123047,-0.0426369383931
1661303322155387195,4432,1661303322155387195,,0.980241537094,-0.567810058594,-0.0526834689081
1661303322164689324,4433,1661303322164689324,,0.998951256275,-0.464263916016,0.00726395891979
1661303322165505786,4434,1661303322165505786,,0.909081637859,-0.437530517578,0.0373617187142
1661303322170395693,4435,1661303322170395693,,0.949575603008,-0.549560546875,0.017465185374
1661303322178286069,4436,1661303322178286069,,0.958746314049,-0.726348876953,0.0323580764234
1661303322180741114,4437,1661303322180741114,,0.950377941132,-0.59375,0.00203256774694
1661303322185474096,4438,1661303322185474096,,1.01021981239,-0.519439697266,-0.0429520644248
1661303322190341864,4439,1661303322190341864,,0.910143196583,-0.432891845703,-0.0379386879504
1661303322195454480,4440,1661303322195454480,,0.956730306149,-0.593475341797,-0.052295576781
1661303322200424070,4441,1661303322200424070,,0.923511505127,-0.670288085938,-0.0575338378549
1661303322205403368,4442,1661303322205403368,,0.904049277306,-0.715911865234,-0.0275598429143
1661303322210342578,4443,1661303322210342578,,1.01321411133,-0.499389648438,-0.0331413112581
1661303322215530059,4444,1661303322215530059,,0.984243810177,-0.545776367188,-0.0328568406403
1661303322220384768,4445,1661303322220384768,,0.950253903866,-0.587310791016,0.0123148681596
1661303322225355126,4446,1661303322225355126,,1.02598285675,-0.646759033203,-0.00762578193098
1661303322230466834,4447,1661303322230466834,,1.08123469353,-0.546295166016,0.0273974090815
1661303322235618838,4448,1661303322235618838,,0.924420773983,-0.458892822266,-0.0281683243811
1661303322240365439,4449,1661303322240365439,,1.08989393711,-0.397247314453,0.00721497088671
1661303322245487832,4450,1661303322245487832,,0.939098954201,-0.463134765625,-0.0577332340181
1661303322255679193,4451,1661303322255679193,,0.912759184837,-0.631805419922,-0.0276354718953
1661303322255862026,4452,1661303322255862026,,0.983073830605,-0.576629638672,-0.0226329769939
1661303322260368179,4453,1661303322260368179,,1.02068078518,-0.516235351562,-0.0229357872158
1661303322265433026,4454,1661303322265433026,,1.05734932423,-0.612091064453,-0.0186575111002
1661303322270379360,4455,1661303322270379360,,0.881906032562,-0.608642578125,0.0223519429564
1661303322275364803,4456,1661303322275364803,,0.883679747581,-0.64697265625,-0.00258146133274
1661303322280670309,4457,1661303322280670309,,0.928289711475,-0.637390136719,-0.00813370943069
1661303322286598828,4458,1661303322286598828,,0.959343612194,-0.518585205078,0.00758051779121
1661303322290481687,4459,1661303322290481687,,1.00247943401,-0.379119873047,0.0225877147168
1661303322295655061,4460,1661303322295655061,,0.793348312378,-0.575531005859,0.00745647214353
1661303322300415979,4461,1661303322300415979,,0.845821499825,-0.662445068359,-0.0426495447755
1661303322305399396,4462,1661303322305399396,,0.983677744865,-0.715667724609,-0.00804432667792
1661303322310363260,4463,1661303322310363260,,1.08593320847,-0.507690429688,-0.0282757524401
1661303322315440119,4464,1661303322315440119,,0.951389670372,-0.563598632812,-0.0424876846373
1661303322320360404,4465,1661303322320360404,,0.930917859077,-0.604339599609,-0.0274469703436
1661303322325317913,4466,1661303322325317913,,0.993627548218,-0.710235595703,0.00173262425233
1661303322335008893,4467,1661303322335008893,,0.981326818466,-0.618621826172,0.0173104852438
1661303322335497192,4468,1661303322335497192,,0.965035736561,-0.439208984375,-0.00308652338572
1661303322340403789,4469,1661303322340403789,,0.888293206692,-0.368896484375,0.0121839474887
1661303322345400336,4470,1661303322345400336,,1.02176642418,-0.642791748047,-0.00292208464816
1661303322350411270,4471,1661303322350411270,,0.977377653122,-0.518249511719,-0.0230220165104
1661303322355340145,4472,1661303322355340145,,0.902853667736,-0.422760009766,-0.0476448759437
1661303322360341790,4473,1661303322360341790,,1.07001030445,-0.479766845703,-0.0677674412727
1661303322365477242,4474,1661303322365477242,,1.05952429771,-0.390930175781,-0.0275990907103
1661303322375604493,4475,1661303322375604493,,0.984888732433,-0.585815429688,-0.0230864752084
1661303322376065905,4476,1661303322376065905,,0.875449895859,-0.682464599609,-0.00258719082922
1661303322380614868,4477,1661303322380614868,,1.04169726372,-0.600158691406,-0.0377920083702
1661303322385423135,4478,1661303322385423135,,0.906169235706,-0.544311523438,-0.0125878825784
1661303322390403340,4479,1661303322390403340,,1.13320350647,-0.539886474609,-0.00796755123883
1661303322395349814,4480,1661303322395349814,,0.891385912895,-0.587188720703,-0.00265422696248
1661303322400393291,4481,1661303322400393291,,1.00115895271,-0.688781738281,0.0422845706344
1661303322405398708,4482,1661303322405398708,,0.952555179596,-0.427459716797,-0.0285238437355
1661303322410348813,4483,1661303322410348813,,1.01533639431,-0.349060058594,-0.0429076626897
1661303322420997186,4484,1661303322420997186,,1.06709206104,-0.386932373047,-0.0127775315195
1661303322421299720,4485,1661303322421299720,,0.958947598934,-0.661193847656,-0.0628738030791
1661303322425430639,4486,1661303322425430639,,0.860538959503,-0.738006591797,-0.0175943877548
1661303322430478656,4487,1661303322430478656,,0.970094025135,-0.536712646484,-0.0184704400599
1661303322435394471,4488,1661303322435394471,,1.01100873947,-0.591735839844,-0.0379372537136
1661303322440389412,4489,1661303322440389412,,0.927977144718,-0.547515869141,0.00196008849889
1661303322445340426,4490,1661303322445340426,,0.950544536114,-0.506988525391,0.0366976596415
1661303322450429018,4491,1661303322450429018,,0.898329854012,-0.546539306641,0.0321962162852
1661303322455378704,4492,1661303322455378704,,0.975612282753,-0.491027832031,0.0268170014024
1661303322460866274,4493,1661303322460866274,,0.986211538315,-0.462005615234,-0.0473366267979
1661303322465512799,4494,1661303322465512799,,1.02929866314,-0.531158447266,-0.0177785940468
1661303322470509486,4495,1661303322470509486,,0.943859159946,-0.597351074219,-0.0177155677229
1661303322475334444,4496,1661303322475334444,,0.931877732277,-0.713684082031,-0.0627915933728
1661303322480326731,4497,1661303322480326731,,0.998370587826,-0.589782714844,-0.0478749200702
1661303322485585236,4498,1661303322485585236,,0.990401983261,-0.519958496094,0.00211077649146
1661303322490917768,4499,1661303322490917768,,0.987320959568,-0.612365722656,0.0318977087736
1661303322495325032,4500,1661303322495325032,,0.997574090958,-0.687133789062,0.0123750278726
1661303322501205783,4501,1661303322501205783,,0.859227538109,-0.642730712891,-0.0124328974634
1661303322505426163,4502,1661303322505426163,,1.05205571651,-0.518127441406,0.052522469312
1661303322510370542,4503,1661303322510370542,,1.14587652683,-0.513977050781,-0.0376344434917
1661303322515263381,4504,1661303322515263381,,0.911530792713,-0.477691650391,-0.0128207895905
1661303322520365173,4505,1661303322520365173,,0.874699175358,-0.584991455078,-0.0224837232381
1661303322525340210,4506,1661303322525340210,,0.849958062172,-0.743316650391,-0.0273716263473
1661303322530326002,4507,1661303322530326002,,1.01531291008,-0.557861328125,0.00200048205443
1661303322541593619,4508,1661303322541593619,,1.01216709614,-0.442626953125,-0.0527212806046
1661303322541909351,4509,1661303322541909351,,0.914824903011,-0.698791503906,-0.0321409255266
1661303322545456434,4510,1661303322545456434,,0.891898453236,-0.790985107422,-0.017629051581
1661303322550539789,4511,1661303322550539789,,1.09674525261,-0.741088867188,0.0320567041636
1661303322555399805,4512,1661303322555399805,,1.06127476692,-0.467254638672,0.0122787719592
1661303322560308078,4513,1661303322560308078,,0.936673700809,-0.49853515625,0.01750443317
1661303322569039430,4514,1661303322569039430,,0.897136688232,-0.581268310547,-0.0426787659526
1661303322570383859,4515,1661303322570383859,,0.996326625347,-0.62158203125,-0.00812253542244
1661303322579634378,4516,1661303322579634378,,1.08721852303,-0.629211425781,-0.0681412965059
1661303322580329394,4517,1661303322580329394,,0.966367483139,-0.416595458984,-0.0531088896096
1661303322585425947,4518,1661303322585425947,,1.05746877193,-0.603057861328,-0.0472569838166
1661303322590346791,4519,1661303322590346791,,0.96296030283,-0.559844970703,-0.0231351759285
1661303322595311632,4520,1661303322595311632,,0.891173243523,-0.666351318359,-0.013357937336
1661303322600412516,4521,1661303322600412516,,1.04486441612,-0.501525878906,-0.00800794456154
1661303322605359269,4522,1661303322605359269,,1.14553713799,-0.466064453125,-0.00348988594487
1661303322610324110,4523,1661303322610324110,,0.946518957615,-0.427795410156,0.027316622436
1661303322621805288,4524,1661303322621805288,,0.877064943314,-0.598754882812,-0.00204030261375
1661303322622030931,4525,1661303322622030931,,0.94100767374,-0.584594726562,-0.00296792131849
1661303322625365291,4526,1661303322625365291,,0.964798569679,-0.527862548828,-0.0382901988924
1661303322630404997,4527,1661303322630404997,,0.994749069214,-0.498107910156,-0.0176668670028
1661303322635404617,4528,1661303322635404617,,0.958846628666,-0.4111328125,-0.017509303987
1661303322640373928,4529,1661303322640373928,,0.910644590855,-0.586151123047,-0.00762291718274
1661303322645324662,4530,1661303322645324662,,0.960163235664,-0.681243896484,-0.0379512943327
1661303322650474850,4531,1661303322650474850,,0.997038185596,-0.547943115234,-0.00804432667792
1661303322655366223,4532,1661303322655366223,,1.00226354599,-0.506072998047,0.0220448356122
1661303322660432467,4533,1661303322660432467,,0.97577226162,-0.360382080078,0.0469006076455
1661303322665437255,4534,1661303322665437255,,1.03492414951,-0.627044677734,0.0219683460891
1661303322670478916,4535,1661303322670478916,,1.05298221111,-0.639007568359,0.0173537451774
1661303322675348989,4536,1661303322675348989,,0.929617702961,-0.576080322266,0.00715509662405
1661303322680323887,4537,1661303322680323887,,1.04369986057,-0.448699951172,-0.0623813532293
1661303322685408917,4538,1661303322685408917,,1.02492010593,-0.469299316406,0.0322394743562
1661303322690377040,4539,1661303322690377040,,0.898184299469,-0.7294921875,-0.00751290889457
1661303322697637488,4540,1661303322697637488,,1.01540565491,-0.697265625,-0.0327144563198
1661303322700446676,4541,1661303322700446676,,1.07369530201,-0.689849853516,-0.0330857336521
1661303322705409631,4542,1661303322705409631,,0.91317486763,-0.576141357422,0.0367924831808
1661303322710401220,4543,1661303322710401220,,0.999119102955,-0.504211425781,0.0367423482239
1661303322715331003,4544,1661303322715331003,,0.969613134861,-0.686981201172,0.0318613238633
1661303322724825182,4545,1661303322724825182,,0.976936042309,-0.730682373047,0.0319409668446
1661303322725451759,4546,1661303322725451759,,1.02499961853,-0.505401611328,-0.013050833717
1661303322730308143,4547,1661303322730308143,,1.06056928635,-0.456604003906,0.00238006655127
1661303322735427114,4548,1661303322735427114,,0.881562709808,-0.485626220703,-0.0478806495667
1661303322740373239,4549,1661303322740373239,,0.938570857048,-0.516662597656,-0.0176279060543
1661303322745287029,4550,1661303322745287029,,0.940961897373,-0.716705322266,-0.012511106208
1661303322750272612,4551,1661303322750272612,,0.92685508728,-0.557342529297,-0.00796611886472
1661303322755366163,4552,1661303322755366163,,0.915620684624,-0.531494140625,-0.0371434241533
1661303322761088384,4553,1661303322761088384,,0.945959985256,-0.614410400391,0.00723301945254
1661303322765307787,4554,1661303322765307787,,0.838961780071,-0.679626464844,-0.0127357058227
1661303322776996450,4555,1661303322776996450,,0.953972220421,-0.633239746094,0.00230758730322
1661303322777274121,4556,1661303322777274121,,1.05458569527,-0.543426513672,0.00192112743389
1661303322780453793,4557,1661303322780453793,,1.0275696516,-0.370819091797,0.0472048446536
1661303322785437769,4558,1661303322785437769,,0.939358174801,-0.468872070312,-0.00277684000321
1661303322790351210,4559,1661303322790351210,,1.01732814312,-0.662689208984,-0.0176794715226
1661303322795324781,4560,1661303322795324781,,1.03404736519,-0.616119384766,-0.0425979830325
1661303322800426433,4561,1661303322800426433,,1.03010678291,-0.573974609375,-0.0474873185158
1661303322805354539,4562,1661303322805354539,,1.0027410984,-0.376770019531,-0.0225965958089
1661303322810325247,4563,1661303322810325247,,1.0749771595,-0.583251953125,-0.0126225464046
1661303322816123521,4564,1661303322816123521,,0.887926399708,-0.697357177734,-0.00277139688842
1661303322820531972,4565,1661303322820531972,,0.991697251797,-0.687835693359,-0.00789363961667
1661303322825376275,4566,1661303322825376275,,0.98812186718,-0.523162841797,0.0215483698994
1661303322830319676,4567,1661303322830319676,,0.979096233845,-0.385467529297,0.00203686510213
1661303322835423073,4568,1661303322835423073,,1.03641462326,-0.448699951172,0.00195178075228
1661303322840354323,4569,1661303322840354323,,0.934953153133,-0.556793212891,-0.0378341190517
1661303322845306593,4570,1661303322845306593,,0.849225282669,-0.697418212891,-0.0275947917253
1661303322855717102,4571,1661303322855717102,,1.07378327847,-0.409057617188,-0.0382094085217
1661303322856204703,4572,1661303322856204703,,1.02950274944,-0.509155273438,-0.0225115120411
1661303322860374172,4573,1661303322860374172,,0.910959720612,-0.617431640625,-0.00311746331863
1661303322865333985,4574,1661303322865333985,,0.942100942135,-0.754974365234,-0.0124328974634
1661303322870433262,4575,1661303322870433262,,0.983158171177,-0.553894042969,-0.0177797395736
1661303322875436234,4576,1661303322875436234,,0.892932593822,-0.491577148438,0.00233680824749
1661303322880297577,4577,1661303322880297577,,0.999897897243,-0.371398925781,0.0370156504214
1661303322885422904,4578,1661303322885422904,,0.903043866158,-0.509368896484,0.0366724506021
1661303322890354363,4579,1661303322890354363,,0.984333574772,-0.707061767578,-0.00269748526625
1661303322895359779,4580,1661303322895359779,,0.959385871887,-0.557525634766,0.00741722527891
1661303322900360796,4581,1661303322900360796,,1.03652131557,-0.437652587891,-0.0227083228528
1661303322905387372,4582,1661303322905387372,,0.983341574669,-0.460235595703,-0.0328651480377
1661303322910364854,4583,1661303322910364854,,0.926334500313,-0.6455078125,-0.0425335243344
1661303322915297850,4584,1661303322915297850,,0.945577800274,-0.633239746094,-0.0274426732212
1661303322920396777,4585,1661303322920396777,,0.913303434849,-0.617156982422,-0.00804432667792
1661303322925357987,4586,1661303322925357987,,0.982647895813,-0.564544677734,0.0424435660243
1661303322933282584,4587,1661303322933282584,,1.08776843548,-0.542358398438,-0.0135226631537
1661303322935480489,4588,1661303322935480489,,1.04731488228,-0.640747070312,-0.022506069392
1661303322940432620,4589,1661303322940432620,,0.929305434227,-0.679168701172,0.0224272869527
1661303322945318196,4590,1661303322945318196,,1.0539509058,-0.548217773438,0.0068494239822
1661303322950289253,4591,1661303322950289253,,1.12638688087,-0.376342773438,0.0217045005411
1661303322955492377,4592,1661303322955492377,,0.879254758358,-0.434692382812,-0.00789793673903
1661303322960354558,4593,1661303322960354558,,0.876418471336,-0.689788818359,-0.042332701385
1661303322965299915,4594,1661303322965299915,,1.08463227749,-0.712860107422,-0.04290336743
1661303322972042802,4595,1661303322972042802,,1.02405762672,-0.637939453125,-0.0382036790252
1661303322975345456,4596,1661303322975345456,,0.939524948597,-0.545471191406,-0.0025035389699
1661303322980316792,4597,1661303322980316792,,1.00967419147,-0.540924072266,0.00245942128822
1661303322985409295,4598,1661303322985409295,,1.00022995472,-0.681457519531,0.0168864987791
1661303322990366594,4599,1661303322990366594,,0.921002030373,-0.70068359375,0.0174193494022
1661303322995363350,4600,1661303322995363350,,1.101739645,-0.515747070312,-0.00323176872917
1661303323000461510,4601,1661303323000461510,,0.90287643671,-0.436645507812,0.0123833362013
1661303323005536414,4602,1661303323005536414,,0.988497316837,-0.522827148438,0.017996892333
1661303323012224551,4603,1661303323012224551,,0.971906781197,-0.589111328125,-0.0482934676111
1661303323015449058,4604,1661303323015449058,,0.946382164955,-0.693511962891,-0.072956725955
1661303323020388620,4605,1661303323020388620,,1.00720274448,-0.596038818359,-0.0328622832894
1661303323025394596,4606,1661303323025394596,,0.951458394527,-0.532501220703,0.00784407835454
1661303323030395544,4607,1661303323030395544,,1.01550030708,-0.562072753906,-0.0179736837745
1661303323038126625,4608,1661303323038126625,,0.921258509159,-0.730743408203,-0.0227793697268
1661303323040681886,4609,1661303323040681886,,0.972185432911,-0.721710205078,0.0274294950068
1661303323048464437,4610,1661303323048464437,,0.963247478008,-0.5029296875,0.031773660332
1661303323050309038,4611,1661303323050309038,,1.10850250721,-0.408325195312,-0.0430652275681
1661303323055406291,4612,1661303323055406291,,0.972506463528,-0.495788574219,-0.0223943404853
1661303323060326717,4613,1661303323060326717,,0.903883457184,-0.600891113281,0.047369286418
1661303323065299102,4614,1661303323065299102,,0.957372486591,-0.682983398438,-0.0329026728868
1661303323070390000,4615,1661303323070390000,,0.97132229805,-0.526733398438,-0.00788389891386
1661303323075337593,4616,1661303323075337593,,1.04636776447,-0.390625,-0.0679192766547
1661303323080315914,4617,1661303323080315914,,0.923351109028,-0.577423095703,-0.0524923838675
1661303323089338069,4618,1661303323089338069,,0.88653922081,-0.696411132812,-0.0226762369275
1661303323090415512,4619,1661303323090415512,,0.951518237591,-0.610534667969,0.0220350977033
1661303323095329862,4620,1661303323095329862,,0.914973974228,-0.480712890625,0.0217744018883
1661303323100298616,4621,1661303323100298616,,1.01680898666,-0.441345214844,0.0419806167483
1661303323105374429,4622,1661303323105374429,,0.995214939117,-0.388458251953,0.00225602136925
1661303323110355753,4623,1661303323110355753,,0.959605395794,-0.621246337891,-0.027208333835
1661303323115286305,4624,1661303323115286305,,0.949337899685,-0.648620605469,-0.0130912261084
1661303323120416103,4625,1661303323120416103,,1.16896009445,-0.601898193359,0.0173508804291
1661303323129097942,4626,1661303323129097942,,1.05457890034,-0.407897949219,-0.0231686960906
1661303323130401308,4627,1661303323130401308,,0.956266820431,-0.596466064453,-0.0374837592244
1661303323135298409,4628,1661303323135298409,,1.02780330181,-0.642120361328,-0.0678064003587
1661303323140414937,4629,1661303323140414937,,0.841892242432,-0.686553955078,-0.0175216216594
1661303323145296883,4630,1661303323145296883,,0.960163354874,-0.484832763672,-0.0126978904009
1661303323150277648,4631,1661303323150277648,,1.11409413815,-0.525604248047,0.0469828285277
1661303323155387402,4632,1661303323155387402,,1.00923287868,-0.580993652344,0.031938098371
1661303323160335903,4633,1661303323160335903,,0.994458496571,-0.583160400391,-0.00297622941434
1661303323169202321,4634,1661303323169202321,,0.965173721313,-0.581207275391,-0.0181048940867
1661303323170558763,4635,1661303323170558763,,1.05316615105,-0.485382080078,0.00276079727337
1661303323175462638,4636,1661303323175462638,,1.02789950371,-0.465454101562,-0.0530616231263
1661303323180312319,4637,1661303323180312319,,0.917551279068,-0.53955078125,-0.0374127104878
1661303323185282749,4638,1661303323185282749,,0.938749194145,-0.693298339844,-0.0326740629971
1661303323190356257,4639,1661303323190356257,,0.866844058037,-0.655853271484,-0.0178161226213
1661303323195313976,4640,1661303323195313976,,1.06854891777,-0.564178466797,0.00708376336843
1661303323200297884,4641,1661303323200297884,,0.975427865982,-0.527984619141,0.0171875879169
1661303323208145942,4642,1661303323208145942,,0.918135821819,-0.608062744141,0.0273876674473
1661303323210458101,4643,1661303323210458101,,0.89408069849,-0.650299072266,-0.0124426381662
1661303323215564712,4644,1661303323215564712,,1.02955830097,-0.597137451172,0.0317762382329
1661303323220280446,4645,1661303323220280446,,0.985077559948,-0.469177246094,-0.0330172665417
1661303323225345295,4646,1661303323225345295,,0.93142169714,-0.352355957031,-0.0128583190963
1661303323234789265,4647,1661303323234789265,,1.02034783363,-0.45947265625,-0.0128222219646
1661303323236260728,4648,1661303323236260728,,0.960567593575,-0.616119384766,-0.038217715919
1661303323240368951,4649,1661303323240368951,,0.921058833599,-0.730682373047,-0.0277818646282
1661303323246870484,4650,1661303323246870484,,1.07394433022,-0.617156982422,-0.0323629491031
1661303323250347382,4651,1661303323250347382,,0.954286158085,-0.616363525391,-0.0425183400512
1661303323255441562,4652,1661303323255441562,,0.951669037342,-0.681091308594,0.00727770989761
1661303323260362617,4653,1661303323260362617,,1.0405677557,-0.652465820312,0.0424409881234
1661303323265378161,4654,1661303323265378161,,1.05338191986,-0.699798583984,0.0122773395851
1661303323270343353,4655,1661303323270343353,,0.820114195347,-0.634185791016,0.0575304031372
1661303323275396050,4656,1661303323275396050,,1.2635011673,-0.274230957031,0.0317080579698
1661303323280285818,4657,1661303323280285818,,0.88622379303,-0.579254150391,0.00229641469195
1661303323285300594,4658,1661303323285300594,,0.884805977345,-0.600128173828,-0.0223287381232
1661303323290351755,4659,1661303323290351755,,0.909705758095,-0.652008056641,-0.0124343307689
1661303323295305214,4660,1661303323295305214,,0.993250370026,-0.430816650391,-0.0322847403586
1661303323300285071,4661,1661303323300285071,,1.04276967049,-0.487670898438,-0.0529163777828
1661303323306790375,4662,1661303323306790375,,0.896138429642,-0.628784179688,-0.0025035389699
1661303323310459883,4663,1661303323310459883,,1.00326478481,-0.666625976562,-0.0271023362875
1661303323315308308,4664,1661303323315308308,,0.859799325466,-0.571014404297,-0.00266253505833
1661303323323125288,4665,1661303323323125288,,0.968789696693,-0.385223388672,0.0322394743562
1661303323325371730,4666,1661303323325371730,,1.02749764919,-0.414337158203,0.0371331088245
1661303323330343557,4667,1661303323330343557,,1.02148997784,-0.533233642578,-0.0182415451854
1661303323335312938,4668,1661303323335312938,,0.971788764,-0.575500488281,0.00203543249518
1661303323340387285,4669,1661303323340387285,,1.03232777119,-0.522155761719,-0.0129631701857
1661303323345313717,4670,1661303323345313717,,1.07445430756,-0.399932861328,-0.0480619892478
1661303323351004723,4671,1661303323351004723,,0.905450999737,-0.507476806641,-0.0174379702657
1661303323355437549,4672,1661303323355437549,,0.981940567493,-0.606689453125,-0.0582635104656
1661303323365244949,4673,1661303323365244949,,0.973675370216,-0.763336181641,-0.0429423227906
1661303323365522411,4674,1661303323365522411,,0.964211821556,-0.636352539062,-0.0226733721793
1661303323370351281,4675,1661303323370351281,,0.952301681042,-0.444152832031,-0.00786155369133
1661303323375499376,4676,1661303323375499376,,0.927928507328,-0.483551025391,0.0376602299511
1661303323380320354,4677,1661303323380320354,,0.760477900505,-0.671661376953,0.0426948107779
1661303323385274442,4678,1661303323385274442,,0.86305975914,-0.749664306641,0.00761260371655
1661303323390205343,4679,1661303323390205343,,1.04920315742,-0.539398193359,-0.0179722514004
1661303323395306577,4680,1661303323395306577,,0.926425874233,-0.601226806641,-0.00761890597641
1661303323403860476,4681,1661303323403860476,,0.979334115982,-0.529968261719,-0.0376413241029
1661303323405363156,4682,1661303323405363156,,0.923305928707,-0.710998535156,-0.077773578465
1661303323410421510,4683,1661303323410421510,,0.864956140518,-0.797912597656,-0.017464613542
1661303323415314979,4684,1661303323415314979,,1.02117943764,-0.659912109375,-0.0381340645254
1661303323420268229,4685,1661303323420268229,,1.10175549984,-0.468017578125,-0.0183950979263
1661303323425359546,4686,1661303323425359546,,1.06529080868,-0.536773681641,0.0119914337993
1661303323430313563,4687,1661303323430313563,,0.970852077007,-0.577026367188,0.0365469716489
1661303323435277009,4688,1661303323435277009,,1.01343274117,-0.633911132812,-0.017513314262
1661303323443954030,4689,1661303323443954030,,1.14382517338,-0.562805175781,0.021818805486
1661303323445409780,4690,1661303323445409780,,1.06362700462,-0.564300537109,0.00764898676425
1661303323450329647,4691,1661303323450329647,,1.00401127338,-0.454406738281,-0.00285648112185
1661303323455298261,4692,1661303323455298261,,0.944169282913,-0.642333984375,-0.0126629397273
1661303323460350399,4693,1661303323460350399,,0.933869659901,-0.711456298828,-0.0178161226213
1661303323465289891,4694,1661303323465289891,,1.06248581409,-0.608978271484,-0.0277887396514
1661303323470299010,4695,1661303323470299010,,0.97649616003,-0.516937255859,-0.0480187311769
1661303323475375801,4696,1661303323475375801,,1.02007484436,-0.533294677734,-0.0277191251516
1661303323484542937,4697,1661303323484542937,,0.936296343803,-0.673248291016,0.0074146464467
1661303323485297595,4698,1661303323485297595,,0.929656744003,-0.618194580078,0.00226576137356
1661303323492219266,4699,1661303323492219266,,0.980603456497,-0.537536621094,0.0323678180575
1661303323495417585,4700,1661303323495417585,,1.03174495697,-0.314605712891,0.0170775800943
1661303323500253509,4701,1661303323500253509,,0.996551156044,-0.424194335938,0.00200621178374
1661303323505265421,4702,1661303323505265421,,0.930530786514,-0.524658203125,0.0173076223582
1661303323510367423,4703,1661303323510367423,,0.945920884609,-0.607299804688,-0.0322108305991
1661303323515279958,4704,1661303323515279958,,0.926013052464,-0.434173583984,-0.0680811330676
1661303323522097852,4705,1661303323522097852,,0.971459209919,-0.466186523438,-0.0676502734423
1661303323525354834,4706,1661303323525354834,,0.795116364956,-0.512969970703,-0.0476546175778
1661303323530362975,4707,1661303323530362975,,0.968090295792,-0.802734375,-0.00757564790547
1661303323535259168,4708,1661303323535259168,,0.902496814728,-0.683654785156,0.00723301945254
1661303323540372344,4709,1661303323540372344,,0.965873301029,-0.580505371094,0.0473595447838
1661303323545329364,4710,1661303323545329364,,0.93085193634,-0.502502441406,0.0374734438956
1661303323550279332,4711,1661303323550279332,,1.05302321911,-0.576385498047,-0.00793145503849
1661303323555283003,4712,1661303323555283003,,0.853127658367,-0.656799316406,-0.0175299309194
1661303323561178352,4713,1661303323561178352,,1.10409247875,-0.637359619141,0.00703907292336
1661303323565362558,4714,1661303323565362558,,1.00694644451,-0.548156738281,-0.0527267307043
1661303323570302748,4715,1661303323570302748,,0.967264711857,-0.408660888672,-0.0479233376682
1661303323575405728,4716,1661303323575405728,,1.02417194843,-0.509826660156,-0.0481187142432
1661303323580306740,4717,1661303323580306740,,1.08354067802,-0.706176757812,-0.0181378368288
1661303323585258732,4718,1661303323585258732,,0.937530994415,-0.739410400391,-0.00271066324785
1661303323590266874,4719,1661303323590266874,,0.956375598907,-0.591522216797,0.0224192664027
1661303323601388744,4720,1661303323601388744,,1.01181209087,-0.451538085938,0.0274174641818
1661303323601678986,4721,1661303323601678986,,0.969987511635,-0.518310546875,0.0117576671764
1661303323605310852,4722,1661303323605310852,,0.97949463129,-0.692749023438,-0.00775211909786
1661303323610387294,4723,1661303323610387294,,1.10241448879,-0.608917236328,-0.00835916772485
1661303323615328741,4724,1661303323615328741,,0.912564098835,-0.414184570312,-0.0178659707308
1661303323620289044,4725,1661303323620289044,,1.02711796761,-0.423828125,-0.0377261154354
1661303323625361226,4726,1661303323625361226,,0.893155813217,-0.467956542969,-0.0429615229368
1661303323630324671,4727,1661303323630324671,,0.918331980705,-0.627777099609,-0.0386508740485
1661303323635261788,4728,1661303323635261788,,0.856552004814,-0.676696777344,0.00245569716208
1661303323641932396,4729,1661303323641932396,,0.892456948757,-0.578094482422,0.00737883709371
1661303323645385899,4730,1661303323645385899,,0.947610318661,-0.504974365234,0.0267310589552
1661303323650333911,4731,1661303323650333911,,0.789798676968,-0.669036865234,-0.0274547040462
1661303323655244141,4732,1661303323655244141,,0.910551726818,-0.735107421875,-0.00774810835719
1661303323660356409,4733,1661303323660356409,,0.926307141781,-0.556823730469,0.0016466807574
1661303323665306307,4734,1661303323665306307,,1.00518727303,-0.489440917969,-0.0327961035073
1661303323670246985,4735,1661303323670246985,,0.985540807247,-0.432006835938,-0.00750546064228
1661303323675308761,4736,1661303323675308761,,0.981605529785,-0.619201660156,-0.0628133639693
1661303323681448609,4737,1661303323681448609,,0.895188391209,-0.690765380859,-0.0328854843974
1661303323685295154,4738,1661303323685295154,,0.961354255676,-0.613800048828,-0.0378028936684
1661303323690313003,4739,1661303323690313003,,0.909109055996,-0.516662597656,-0.0125984828919
1661303323695326172,4740,1661303323695326172,,1.05000627041,-0.611175537109,-0.0280548781157
1661303323700266781,4741,1661303323700266781,,0.893277287483,-0.694549560547,0.0123071335256
1661303323705252575,4742,1661303323705252575,,1.08964812756,-0.684448242188,0.0471243485808
1661303323710382791,4743,1661303323710382791,,1.12450957298,-0.545043945312,-0.00304985418916
1661303323720607118,4744,1661303323720607118,,1.09024095535,-0.379333496094,-0.0135177923366
1661303323721033262,4745,1661303323721033262,,1.10631895065,-0.447021484375,-0.00342657417059
1661303323725231645,4746,1661303323725231645,,0.981844723225,-0.628814697266,-0.0174124743789
1661303323730398875,4747,1661303323730398875,,0.977820575237,-0.712463378906,-0.0626219958067
1661303323735236125,4748,1661303323735236125,,1.05561411381,-0.593505859375,-0.0532716102898
1661303323740249923,4749,1661303323740249923,,1.02287995815,-0.527404785156,-0.0526522397995
1661303323745336212,4750,1661303323745336212,,0.978565394878,-0.524383544922,-0.0732016637921
1661303323750289113,4751,1661303323750289113,,1.00355041027,-0.659057617188,-0.0179885849357
1661303323759377473,4752,1661303323759377473,,0.944157660007,-0.680725097656,0.00679155532271
1661303323760495910,4753,1661303323760495910,,0.991804659367,-0.568328857422,0.0216437671334
1661303323765298033,4754,1661303323765298033,,0.996611058712,-0.433349609375,0.0223049595952
1661303323770261199,4755,1661303323770261199,,0.881673038006,-0.443023681641,-0.00795179419219
1661303323775297694,4756,1661303323775297694,,1.01012706757,-0.544189453125,0.00206522643566
1661303323780347388,4757,1661303323780347388,,0.895541250706,-0.573638916016,0.0166845321655
1661303323785265370,4758,1661303323785265370,,1.06197965145,-0.560485839844,-0.0126695288345
1661303323790258148,4759,1661303323790258148,,1.01651239395,-0.46875,-0.0632723048329
1661303323806106228,4760,1661303323806106228,,0.94324606657,-0.490264892578,-0.0330751352012
1661303323806957469,4761,1661303323806957469,,0.973567903042,-0.65234375,-0.0376075170934
1661303323807554993,4762,1661303323807554993,,0.998270869255,-0.728668212891,-0.0480780340731
1661303323810396795,4763,1661303323810396795,,0.991834282875,-0.601898193359,0.00233738147654
1661303323815371554,4764,1661303323815371554,,0.988594889641,-0.489532470703,0.00159797933884
1661303323820237089,4765,1661303323820237089,,0.954532623291,-0.411468505859,-0.0030971232336
1661303323825251795,4766,1661303323825251795,,1.09420263767,-0.465454101562,-0.023872571066
1661303323830318529,4767,1661303323830318529,,0.961801409721,-0.572906494141,-0.0426879376173
1661303323835429610,4768,1661303323835429610,,0.988574504852,-0.417602539062,-0.0231010839343
1661303323840244513,4769,1661303323840244513,,0.994500219822,-0.545104980469,-0.0277185495943
1661303323845553721,4770,1661303323845553721,,0.891617119312,-0.553558349609,-0.0226046182215
1661303323850328537,4771,1661303323850328537,,0.948315322399,-0.612701416016,-0.0430354364216
1661303323855289609,4772,1661303323855289609,,0.98338842392,-0.664489746094,0.00721697602421
1661303323860332040,4773,1661303323860332040,,0.989018321037,-0.457580566406,-0.0131425056607
1661303323865304844,4774,1661303323865304844,,1.09763324261,-0.410034179688,0.00699380924925
1661303323870225200,4775,1661303323870225200,,0.882460474968,-0.462860107422,-0.0129107441753
1661303323875268330,4776,1661303323875268330,,0.972359955311,-0.615386962891,0.00682621868327
1661303323887447041,4777,1661303323887447041,,1.00824546814,-0.577209472656,0.0170360393822
1661303323888023963,4778,1661303323888023963,,0.954872488976,-0.471008300781,0.0172678027302
1661303323890328161,4779,1661303323890328161,,1.05428433418,-0.442840576172,-0.00297164544463
1661303323895367729,4780,1661303323895367729,,0.912238895893,-0.497924804688,-0.0678894817829
1661303323900270207,4781,1661303323900270207,,0.834750056267,-0.708374023438,-0.0474950484931
1661303323905248458,4782,1661303323905248458,,1.00797867775,-0.587005615234,-0.0227160584182
1661303323910184179,4783,1661303323910184179,,0.943961262703,-0.533905029297,-0.0580787248909
1661303323915339606,4784,1661303323915339606,,1.05148386955,-0.464782714844,0.00668813614175
1661303323920298163,4785,1661303323920298163,,0.952631235123,-0.622528076172,0.012143840082
1661303323925291569,4786,1661303323925291569,,0.967527985573,-0.655731201172,0.0271902848035
1661303323930308440,4787,1661303323930308440,,0.913618385792,-0.717193603516,0.00210848473944
1661303323935272305,4788,1661303323935272305,,0.927352309227,-0.606414794922,0.012343515642
1661303323940250835,4789,1661303323940250835,,0.974096953869,-0.408599853516,-0.0330668278039
1661303323945341035,4790,1661303323945341035,,0.953156530857,-0.492218017578,-0.0332175157964
1661303323950299662,4791,1661303323950299662,,0.828755199909,-0.614593505859,-0.0074034743011
1661303323955236849,4792,1661303323955236849,,0.867910146713,-0.644989013672,-0.0529258288443
1661303323965009331,4793,1661303323965009331,,1.02157151699,-0.564270019531,-0.0626961961389
1661303323965566559,4794,1661303323965566559,,0.96380674839,-0.588653564453,-0.0326749198139
1661303323970267628,4795,1661303323970267628,,0.9523255229,-0.565887451172,0.0171420369297
1661303323975250209,4796,1661303323975250209,,0.867629349232,-0.677398681641,0.00224799988791
1661303323980298437,4797,1661303323980298437,,0.821746170521,-0.653503417969,0.032772898674
1661303323985253223,4798,1661303323985253223,,1.01736080647,-0.451110839844,-0.00238866079599
1661303323990229588,4799,1661303323990229588,,1.01308190823,-0.388610839844,-0.0227469969541
1661303323995314410,4800,1661303323995314410,,0.965227305889,-0.572875976562,0.00252158730291
1661303324006147994,4801,1661303324006147994,,0.936239242554,-0.655639648438,-0.0376143939793
1661303324006465472,4802,1661303324006465472,,0.955894291401,-0.564697265625,0.00222565443255
1661303324010287086,4803,1661303324010287086,,0.920417189598,-0.506774902344,-0.0178671162575
1661303324015399286,4804,1661303324015399286,,0.925300121307,-0.578674316406,-0.0382268801332
1661303324020296039,4805,1661303324020296039,,0.981364667416,-0.695587158203,-0.047645740211
1661303324025231411,4806,1661303324025231411,,0.770009040833,-0.790771484375,-0.0276403427124
1661303324030325942,4807,1661303324030325942,,0.927754878998,-0.609527587891,-0.00755960540846
1661303324035281079,4808,1661303324035281079,,0.870890855789,-0.593200683594,-0.0224427562207
1661303324044354496,4809,1661303324044354496,,0.94634950161,-0.537658691406,-0.0125887412578
1661303324045414271,4810,1661303324045414271,,0.94688129425,-0.560577392578,0.012383909896
1661303324050282321,4811,1661303324050282321,,0.829066097736,-0.637786865234,0.00226060510613
1661303324055260294,4812,1661303324055260294,,0.959284842014,-0.529174804688,-0.0581176877022
1661303324060243155,4813,1661303324060243155,,0.992595434189,-0.486602783203,-0.042851228267
1661303324065306329,4814,1661303324065306329,,1.11574566364,-0.491088867188,-0.0376814268529
1661303324070237442,4815,1661303324070237442,,1.01491308212,-0.612335205078,-0.0432279482484
1661303324075241394,4816,1661303324075241394,,0.90031594038,-0.716461181641,0.0277231354266
1661303324084029738,4817,1661303324084029738,,1.12172424793,-0.617309570312,0.027315761894
1661303324085326120,4818,1661303324085326120,,0.804150223732,-0.516906738281,0.00790481176227
1661303324090324416,4819,1661303324090324416,,0.962061524391,-0.546722412109,0.0125721264631
1661303324095313702,4820,1661303324095313702,,1.01253378391,-0.600280761719,0.00236660195515
1661303324100275124,4821,1661303324100275124,,0.970107913017,-0.557006835938,0.011839886196
1661303324105230959,4822,1661303324105230959,,0.882133603096,-0.489440917969,0.0127563318238
1661303324110236029,4823,1661303324110236029,,1.1272674799,-0.490997314453,0.00226203724742
1661303324115287261,4824,1661303324115287261,,1.02454948425,-0.529174804688,-0.0123988073319
1661303324124096695,4825,1661303324124096695,,0.981547176838,-0.539154052734,-0.0375782959163
1661303324125315558,4826,1661303324125315558,,0.997305691242,-0.664642333984,-0.0177946351469
1661303324130348912,4827,1661303324130348912,,0.898800492287,-0.63232421875,-0.0028977340553
1661303324135311800,4828,1661303324135311800,,0.960578918457,-0.539825439453,0.0525439530611
1661303324140221682,4829,1661303324140221682,,0.949171125889,-0.523864746094,0.0319610163569
1661303324145242535,4830,1661303324145242535,,0.872696399689,-0.602386474609,0.0079466374591
1661303324150426318,4831,1661303324150426318,,0.874027013779,-0.748718261719,0.0372353829443
1661303324155246180,4832,1661303324155246180,,0.952486634254,-0.489807128906,0.0172314178199
1661303324164574991,4833,1661303324164574991,,0.982000291348,-0.400573730469,-0.0227553043514
1661303324165321617,4834,1661303324165321617,,0.953886628151,-0.460266113281,-0.0174164865166
1661303324170248330,4835,1661303324170248330,,0.96782040596,-0.580047607422,-0.0531169101596
1661303324175313110,4836,1661303324175313110,,0.892775654793,-0.547515869141,-0.0179842859507
1661303324180504086,4837,1661303324180504086,,0.951538741589,-0.453308105469,-0.0375671237707
1661303324185294128,4838,1661303324185294128,,1.07709634304,-0.569641113281,-0.0428357571363
1661303324190218047,4839,1661303324190218047,,0.972627580166,-0.612365722656,-0.027915077284
1661303324195220463,4840,1661303324195220463,,0.88513481617,-0.589752197266,-0.0279139317572
1661303324208114517,4841,1661303324208114517,,0.779960751534,-0.618347167969,0.00737453997135
1661303324208366000,4842,1661303324208366000,,1.14089155197,-0.390258789062,-0.00805636029691
1661303324210292590,4843,1661303324210292590,,0.844336986542,-0.354949951172,0.0117966271937
1661303324215387121,4844,1661303324215387121,,1.01941251755,-0.578277587891,-0.0373451001942
1661303324220250841,4845,1661303324220250841,,0.843486487865,-0.617950439453,-0.0176035556942
1661303324225202485,4846,1661303324225202485,,0.907447218895,-0.679473876953,-0.0374233089387
1661303324230318666,4847,1661303324230318666,,0.921808302402,-0.549743652344,-0.0624701566994
1661303324235270101,4848,1661303324235270101,,1.04372537136,-0.534545898438,-0.038182195276
1661303324240222304,4849,1661303324240222304,,1.00171601772,-0.511383056641,-0.0180206689984
1661303324247392946,4850,1661303324247392946,,0.944446563721,-0.862243652344,0.0308532062918
1661303324250319181,4851,1661303324250319181,,0.701490283012,-0.647399902344,0.04009129107
1661303324255324740,4852,1661303324255324740,,1.25650370121,-0.341003417969,0.000201394665055
1661303324260228756,4853,1661303324260228756,,0.740635871887,-0.537414550781,0.00851730443537
1661303324265399618,4854,1661303324265399618,,1.22148454189,-0.539581298828,0.00122670270503
1661303324270267109,4855,1661303324270267109,,0.625864028931,-0.773284912109,-0.0368205606937
1661303324275210094,4856,1661303324275210094,,1.13430666924,-0.662719726562,-0.0230913460255
1661303324280325786,4857,1661303324280325786,,1.0003734827,-0.459777832031,-0.0731248855591
1661303324289218675,4858,1661303324289218675,,1.00164151192,-0.499420166016,-0.0476122200489
1661303324290263993,4859,1661303324290263993,,0.959523141384,-0.673248291016,-0.0533025451005
1661303324295457413,4860,1661303324295457413,,0.907941222191,-0.705413818359,-0.0427730157971
1661303324300293198,4861,1661303324300293198,,1.1120775938,-0.632843017578,-0.0233635008335
1661303324305237231,4862,1661303324305237231,,0.955549478531,-0.518737792969,0.0124214384705
1661303324310227495,4863,1661303324310227495,,1.0215960741,-0.458679199219,0.0271819774061
1661303324317466437,4864,1661303324317466437,,0.97536200285,-0.480438232422,0.0166441369802
1661303324320948993,4865,1661303324320948993,,0.957571089268,-0.616546630859,0.0126099409536
1661303324330310697,4866,1661303324330310697,,0.943255960941,-0.489013671875,-0.0227538719773
1661303324330753533,4867,1661303324330753533,,0.876157879829,-0.464904785156,-0.0676648840308
1661303324335421710,4868,1661303324335421710,,0.974027454853,-0.501342773438,-0.0481129847467
1661303324340321326,4869,1661303324340321326,,0.856287658215,-0.618835449219,-0.0220743436366
1661303324345185046,4870,1661303324345185046,,1.00858712196,-0.597106933594,-0.0129345227033
1661303324350315752,4871,1661303324350315752,,0.935669660568,-0.597412109375,-0.0177066884935
1661303324355318098,4872,1661303324355318098,,0.999559998512,-0.437103271484,-0.0424828156829
1661303324360741212,4873,1661303324360741212,,0.825806558132,-0.486358642578,0.00698807928711
1661303324365361201,4874,1661303324365361201,,0.955848991871,-0.664886474609,0.0320403724909
1661303324370254462,4875,1661303324370254462,,0.954121172428,-0.637512207031,0.00714564276859
1661303324375234530,4876,1661303324375234530,,1.04234147072,-0.490539550781,0.00726424576715
1661303324380210408,4877,1661303324380210408,,1.06028306484,-0.406066894531,-0.0330974794924
1661303324385285245,4878,1661303324385285245,,0.956616461277,-0.608581542969,-0.0279124993831
1661303324390216288,4879,1661303324390216288,,1.05213665962,-0.588500976562,-0.0433812141418
1661303324395196985,4880,1661303324395196985,,0.870008230209,-0.619354248047,-0.0283393524587
1661303324400303877,4881,1661303324400303877,,0.942188084126,-0.646026611328,-0.0631565675139
1661303324412199263,4882,1661303324412199263,,1.00630140305,-0.430694580078,0.0118734044954
1661303324413042892,4883,1661303324413042892,,0.932948768139,-0.505004882812,0.0118370214477
1661303324415420489,4884,1661303324415420489,,0.925001859665,-0.686798095703,0.0221055727452
1661303324420332047,4885,1661303324420332047,,1.03063988686,-0.717529296875,0.0323864407837
1661303324425261274,4886,1661303324425261274,,1.17810165882,-0.494476318359,-0.0382157079875
1661303324430241622,4887,1661303324430241622,,0.990957021713,-0.472259521484,-0.00800336059183
1661303324438693910,4888,1661303324438693910,,1.08747053146,-0.552642822266,-0.0624240413308
1661303324441069272,4889,1661303324441069272,,0.985212028027,-0.772369384766,-0.0629640519619
1661303324445272126,4890,1661303324445272126,,1.02255344391,-0.631988525391,-0.0380315035582
1661303324450290115,4891,1661303324450290115,,1.16690456867,-0.548156738281,-0.0428303144872
1661303324455227374,4892,1661303324455227374,,0.982324123383,-0.390594482422,-0.0128285251558
1661303324460216171,4893,1661303324460216171,,1.00957202911,-0.580047607422,-0.0224427562207
1661303324465301973,4894,1661303324465301973,,0.918060660362,-0.628448486328,0.00214486755431
1661303324470255573,4895,1661303324470255573,,0.964516401291,-0.547973632812,0.0320389419794
1661303324475214620,4896,1661303324475214620,,1.02829802036,-0.466369628906,0.0270075108856
1661303324480186098,4897,1661303324480186098,,0.928122162819,-0.428283691406,-0.0226799603552
1661303324490015710,4898,1661303324490015710,,1.09312605858,-0.457000732422,0.00184205942787
1661303324490321176,4899,1661303324490321176,,0.842149853706,-0.6728515625,-0.0180221013725
1661303324495293423,4900,1661303324495293423,,0.935014486313,-0.663146972656,-0.0426406636834
1661303324500278449,4901,1661303324500278449,,1.01950228214,-0.4228515625,-0.0429961830378
1661303324505237776,4902,1661303324505237776,,0.932885050774,-0.446136474609,-0.0529983080924
1661303324510193611,4903,1661303324510193611,,0.819077372551,-0.700866699219,-0.0626666843891
1661303324515154125,4904,1661303324515154125,,0.970350146294,-0.672637939453,0.0120630534366
1661303324520266743,4905,1661303324520266743,,0.989700734615,-0.629669189453,0.0124549567699
1661303324525234730,4906,1661303324525234730,,0.953090786934,-0.420440673828,0.00698120426387
1661303324530720207,4907,1661303324530720207,,1.01018154621,-0.438598632812,0.00722385151312
1661303324535276436,4908,1661303324535276436,,0.94040876627,-0.515106201172,-0.0476609170437
1661303324540298476,4909,1661303324540298476,,1.10059690475,-0.673065185547,0.02757932432
1661303324545265065,4910,1661303324545265065,,1.03053367138,-0.472747802734,-0.0234442856163
1661303324550344721,4911,1661303324550344721,,1.00554788113,-0.391723632812,-0.0576951354742
1661303324555244058,4912,1661303324555244058,,1.03840625286,-0.500762939453,-0.0331854298711
1661303324560206457,4913,1661303324560206457,,1.00824058056,-0.659942626953,-0.0179089419544
1661303324569079652,4914,1661303324569079652,,1.02227044106,-0.772064208984,-0.0279139317572
1661303324570340697,4915,1661303324570340697,,1.00566601753,-0.632934570312,-0.0279849767685
1661303324575289688,4916,1661303324575289688,,0.997964918613,-0.487182617188,0.0226928535849
1661303324580196567,4917,1661303324580196567,,1.00598311424,-0.433471679688,0.0118103781715
1661303324585287397,4918,1661303324585287397,,0.986654222012,-0.571166992188,-0.0129835093394
1661303324590467827,4919,1661303324590467827,,0.988193273544,-0.614074707031,-0.0581136792898
1661303324595214291,4920,1661303324595214291,,1.07121884823,-0.493743896484,0.00229269056581
1661303324600121589,4921,1661303324600121589,,0.964761376381,-0.47021484375,-0.0328353494406
1661303324608815652,4922,1661303324608815652,,0.885086536407,-0.57470703125,-0.0477391257882
1661303324610197235,4923,1661303324610197235,,0.995414495468,-0.706268310547,-0.0371442809701
1661303324615214527,4924,1661303324615214527,,0.934067547321,-0.666076660156,0.00730062788352
1661303324620346420,4925,1661303324620346420,,0.858800828457,-0.587188720703,-0.0278274137527
1661303324625197081,4926,1661303324625197081,,0.969587624073,-0.426422119141,0.0119137978181
1661303324630184552,4927,1661303324630184552,,0.925773561001,-0.42822265625,0.0311210602522
1661303324635283971,4928,1661303324635283971,,0.835588037968,-0.659027099609,0.00725307315588
1661303324640209287,4929,1661303324640209287,,0.937434613705,-0.713134765625,0.0275374967605
1661303324649131298,4930,1661303324649131298,,1.00208556652,-0.393737792969,-0.00805922411382
1661303324650305396,4931,1661303324650305396,,0.845327794552,-0.502380371094,-0.0326457023621
1661303324655252292,4932,1661303324655252292,,0.964269161224,-0.444122314453,-0.00758911250159
1661303324660213783,4933,1661303324660213783,,0.953931212425,-0.640686035156,-0.013058854267
1661303324665189242,4934,1661303324665189242,,0.907944202423,-0.679168701172,-0.0279460158199
1661303324670325117,4935,1661303324670325117,,0.908885478973,-0.58251953125,-0.0378335490823
1661303324675216352,4936,1661303324675216352,,1.10200703144,-0.506103515625,-0.0229910779744
1661303324680196490,4937,1661303324680196490,,0.94952082634,-0.661437988281,0.0222685765475
1661303324690636057,4938,1661303324690636057,,0.957018554211,-0.596038818359,-0.0036316930782
1661303324690862608,4939,1661303324690862608,,0.971774756908,-0.675109863281,0.0224152561277
1661303324695203808,4940,1661303324695203808,,1.07180082798,-0.575531005859,0.041436880827
1661303324700187159,4941,1661303324700187159,,0.972250878811,-0.460327148438,-0.0123389326036
1661303324705257526,4942,1661303324705257526,,1.08361768723,-0.539001464844,-0.0433379560709
1661303324710202676,4943,1661303324710202676,,0.984498560429,-0.670013427734,-0.0627769827843
1661303324715297067,4944,1661303324715297067,,0.961609244347,-0.621917724609,-0.0429615229368
1661303324720243753,4945,1661303324720243753,,1.13857221603,-0.48828125,-0.0285178273916
1661303324725188554,4946,1661303324725188554,,1.10840439796,-0.448455810547,-0.0133711155504
1661303324733620171,4947,1661303324733620171,,0.87462002039,-0.650054931641,-0.0430325716734
1661303324735365534,4948,1661303324735365534,,0.950702667236,-0.706390380859,-0.017757108435
1661303324740290012,4949,1661303324740290012,,0.89147657156,-0.596466064453,0.0469988696277
1661303324745209182,4950,1661303324745209182,,0.978156089783,-0.395324707031,0.0372717641294
1661303324750126188,4951,1661303324750126188,,1.0818823576,-0.395904541016,0.00721984123811
