%time,field.header.seq,field.header.stamp,field.header.frame_id,field.vector.x,field.vector.y,field.vector.z
1661137920120544785,1058,1661137920120544785,,-40.070526123,-0.151275634766,0.0
1661137920125483479,1059,1661137920125483479,,-40.1469116211,-0.150543212891,0.0
1661137920130422521,1060,1661137920130422521,,-40.1026611328,-0.192749023438,0.0
1661137920135383075,1061,1661137920135383075,,-40.0895690918,-0.151153564453,0.0
1661137920147079035,1062,1661137920147079035,,-40.1829223633,-0.0943298339844,0.0
1661137920147378302,1063,1661137920147378302,,-40.0216064453,0.0156934447587,0.0
1661137920150413565,1064,1661137920150413565,,-40.0180664062,-0.040283203125,0.0
1661137920155571348,1065,1661137920155571348,,-40.2066345215,-0.0661010742188,0.0
1661137920160476867,1066,1661137920160476867,,-40.1738891602,-0.0944213867188,0.0
1661137920165429179,1067,1661137920165429179,,-40.1796569824,-0.0803833007812,0.0
1661137920170537096,1068,1661137920170537096,,-40.2046813965,-0.163879394531,0.0
1661137920175496671,1069,1661137920175496671,,-40.1992797852,-0.0801696777344,0.0
1661137920180462114,1070,1661137920180462114,,-40.174041748,-0.150299072266,0.0
1661137920187184391,1071,1661137920187184391,,-40.2657470703,-0.0656433105469,0.0
1661137920190517174,1072,1661137920190517174,,-40.228729248,-0.135711669922,0.0
1661137920195484642,1073,1661137920195484642,,-40.2581176758,-0.233001708984,0.0
1661137920200407621,1074,1661137920200407621,,-40.28515625,-0.218811035156,0.0
1661137920205561423,1075,1661137920205561423,,-40.2181396484,-0.163787841797,0.0
1661137920210485520,1076,1661137920210485520,,-40.2652893066,-0.176971435547,0.0
1661137920215426239,1077,1661137920215426239,,-40.2628479004,-0.260772705078,0.0
1661137920220573336,1078,1661137920220573336,,-40.2122802734,-0.16357421875,0.0
1661137920234504119,1079,1661137920234504119,,-40.266998291,-0.218963623047,0.0
1661137920234857092,1080,1661137920234857092,,-40.3739318848,-0.175842285156,0.0
1661137920235392349,1081,1661137920235392349,,-40.3315429688,-0.162353515625,0.0
1661137920240678010,1082,1661137920240678010,,-40.3743286133,-0.217895507812,0.0
1661137920245461378,1083,1661137920245461378,,-40.2681884766,-0.177032470703,0.0
1661137920250400141,1084,1661137920250400141,,-40.251159668,-0.121307373047,0.0
1661137920255534457,1085,1661137920255534457,,-40.3592834473,-0.231903076172,0.0
1661137920260487957,1086,1661137920260487957,,-40.3271179199,-0.176391601562,0.0
1661137920265432587,1087,1661137920265432587,,-40.3266601562,-0.120513916016,0.0
1661137920276661734,1088,1661137920276661734,,-40.2376098633,-0.135406494141,0.0
1661137920277220178,1089,1661137920277220178,,-40.2981567383,-0.134796142578,0.0
1661137920280445826,1090,1661137920280445826,,-40.2239379883,-0.107666015625,0.0
1661137920285497731,1091,1661137920285497731,,-40.0868835449,-0.136962890625,0.0
1661137920290519604,1092,1661137920290519604,,-40.3167724609,-0.204467773438,0.0
1661137920295498246,1093,1661137920295498246,,-40.2002258301,-0.177703857422,0.0
1661137920300422553,1094,1661137920300422553,,-39.0633544922,-0.939514160156,0.0
1661137920305533822,1095,1661137920305533822,,-39.5249023438,-0.837707519531,0.0
1661137920310509950,1096,1661137920310509950,,-39.9556884766,0.460850596428,0.0
1661137920315448852,1097,1661137920315448852,,-40.2214355469,0.51922917366,0.0
1661137920320430777,1098,1661137920320430777,,-39.697052002,0.165970951319,0.0
1661137920325533665,1099,1661137920325533665,,-39.8044433594,-0.0562438964844,0.0
1661137920330459717,1100,1661137920330459717,,-40.109161377,-0.136749267578,0.0
1661137920335411541,1101,1661137920335411541,,-40.3442993164,-0.246185302734,0.0
1661137920340522181,1102,1661137920340522181,,-40.5083618164,-0.132629394531,0.0
1661137920345468557,1103,1661137920345468557,,-40.7961730957,-0.171630859375,0.0
1661137920354146854,1104,1661137920354146854,,-40.8316345215,-0.185333251953,0.0
1661137920355626074,1105,1661137920355626074,,-41.1107177734,-0.112426757812,0.0
1661137920360613795,1106,1661137920360613795,,-41.238067627,-0.251129150391,0.0
1661137920365422236,1107,1661137920365422236,,-41.4225158691,-0.109191894531,0.0
1661137920370380135,1108,1661137920370380135,,-41.4612731934,-0.0104064941406,0.0
1661137920375497062,1109,1661137920375497062,,-41.7024841309,-0.176513671875,0.0
1661137920380447837,1110,1661137920380447837,,-41.2058410645,-0.237213134766,0.0
1661137920385385972,1111,1661137920385385972,,-40.9667663574,-0.365631103516,0.0
1661137920394393986,1112,1661137920394393986,,-40.7652282715,-0.255950927734,0.0
1661137920395526448,1113,1661137920395526448,,-40.4480895996,-0.161254882812,0.0
1661137920400434341,1114,1661137920400434341,,-40.0358886719,-0.109619140625,0.0
1661137920405530106,1115,1661137920405530106,,-39.7382202148,-0.22412109375,0.0
1661137920410523135,1116,1661137920410523135,,-39.6322631836,-0.11376953125,0.0
1661137920415428445,1117,1661137920415428445,,-39.4607849121,-0.198913574219,0.0
1661137920420404991,1118,1661137920420404991,,-39.422668457,-0.115966796875,0.0
1661137920425524851,1119,1661137920425524851,,-39.3400268555,-0.186279296875,0.0
1661137920438579137,1120,1661137920438579137,,-39.3380432129,-0.172424316406,0.0
1661137920439119632,1121,1661137920439119632,,-39.2969360352,-0.200775146484,0.0
1661137920440589004,1122,1661137920440589004,,-39.5336914062,-0.031494140625,0.0
1661137920445500320,1123,1661137920445500320,,-39.5387268066,-0.00326538085938,0.0
1661137920450414499,1124,1661137920450414499,,-39.8729248047,-0.13916015625,0.0
1661137920455354520,1125,1661137920455354520,,-39.9874572754,-0.165863037109,0.0
1661137920460499172,1126,1661137920460499172,,-40.1045227051,-0.0949401855469,0.0
1661137920465443383,1127,1661137920465443383,,-40.3010253906,-0.134796142578,0.0
1661137920470379423,1128,1661137920470379423,,-40.387878418,-0.0359497070312,0.0
1661137920481916008,1129,1661137920481916008,,-40.6068725586,-0.145599365234,0.0
1661137920482227077,1130,1661137920482227077,,-40.6781311035,-0.0888671875,0.0
1661137920485474515,1131,1661137920485474515,,-40.7593688965,-0.102142333984,0.0
1661137920490629155,1132,1661137920490629155,,-40.5760192871,-0.0759582519531,0.0
1661137920495468396,1133,1661137920495468396,,-40.6461486816,-0.131195068359,0.0
1661137920500423152,1134,1661137920500423152,,-40.6413269043,-0.145233154297,0.0
1661137920505363941,1135,1661137920505363941,,-40.5796203613,-0.159881591797,0.0
1661137920510486734,1136,1661137920510486734,,-40.5352478027,-0.258392333984,0.0
1661137920526123019,1137,1661137920526123019,,-40.4374084473,-0.175262451172,0.0
1661137920526698784,1138,1661137920526698784,,-40.3137207031,-0.204559326172,0.0
1661137920527211202,1139,1661137920527211202,,-40.3797607422,-0.147888183594,0.0
1661137920530573040,1140,1661137920530573040,,-40.1627502441,-0.205993652344,0.0
1661137920535528634,1141,1661137920535528634,,-40.0394592285,-0.235076904297,0.0
1661137920540380167,1142,1661137920540380167,,-40.1578674316,-0.13623046875,0.0
1661137920545492344,1143,1661137920545492344,,-40.0213623047,-0.221282958984,0.0
1661137920550438091,1144,1661137920550438091,,-40.0068359375,-0.137786865234,0.0
1661137920555392079,1145,1661137920555392079,,-40.0534362793,-0.137329101562,0.0
1661137920560543716,1146,1661137920560543716,,-40.0148925781,-0.221466064453,0.0
1661137920568721188,1147,1661137920568721188,,-39.9914550781,-0.151916503906,0.0
1661137920570532079,1148,1661137920570532079,,-40.0475463867,-0.123413085938,0.0
1661137920575704109,1149,1661137920575704109,,-40.1296081543,-0.178344726562,0.0
1661137920580476234,1150,1661137920580476234,,-40.0683898926,-0.151153564453,0.0
1661137920585421911,1151,1661137920585421911,,-40.1149291992,0.0310314204544,0.0
1661137920590533878,1152,1661137920590533878,,-40.2816467285,0.00454592052847,0.0
1661137920595486191,1153,1661137920595486191,,-40.377746582,-0.0920715332031,0.0
1661137920600426141,1154,1661137920600426141,,-40.2524719238,0.0324775874615,0.0
1661137920606367393,1155,1661137920606367393,,-40.2060546875,-0.163696289062,0.0
1661137920610499290,1156,1661137920610499290,,-40.3195800781,-0.176452636719,0.0
1661137920615441755,1157,1661137920615441755,,-40.2791748047,-0.0512084960938,0.0
1661137920620396093,1158,1661137920620396093,,-40.2129211426,-0.0937194824219,0.0
1661137920625505406,1159,1661137920625505406,,-40.2590332031,-0.163116455078,0.0
1661137920630474899,1160,1661137920630474899,,-40.2560424805,0.00416238512844,0.0
1661137920635414221,1161,1661137920635414221,,-40.3384399414,-0.273742675781,0.0
1661137920648015104,1162,1661137920648015104,,-40.2730102539,-0.204833984375,0.0
1661137920648327640,1163,1661137920648327640,,-40.1840515137,-0.219696044922,0.0
1661137920650502819,1164,1661137920650502819,,-40.2593688965,-0.205017089844,0.0
1661137920655437112,1165,1661137920655437112,,-40.13671875,-0.1923828125,0.0
1661137920660538603,1166,1661137920660538603,,-40.1585388184,-0.219879150391,0.0
1661137920665443983,1167,1661137920665443983,,-40.2053527832,-0.2333984375,0.0
1661137920670383095,1168,1661137920670383095,,-40.1634521484,-0.303680419922,0.0
1661137920675508821,1169,1661137920675508821,,-40.0826721191,-0.206817626953,0.0
1661137920680465394,1170,1661137920680465394,,-40.195892334,-0.2197265625,0.0
1661137920690363384,1171,1661137920690363384,,-40.2668762207,-0.204986572266,0.0
1661137920690710909,1172,1661137920690710909,,-40.1538391113,-0.220031738281,0.0
1661137920696318534,1173,1661137920696318534,,-40.2487792969,-0.205139160156,0.0
1661137920700483326,1174,1661137920700483326,,-40.1035461426,-0.164703369141,0.0
1661137920705400299,1175,1661137920705400299,,-40.1628723145,-0.219940185547,0.0
1661137920710524349,1176,1661137920710524349,,-40.1409912109,-0.136413574219,0.0
1661137920715449004,1177,1661137920715449004,,-40.0841674805,-0.192840576172,0.0
1661137920720416332,1178,1661137920720416332,,-40.030090332,-0.0816650390625,0.0
1661137920732411000,1179,1661137920732411000,,-40.1846923828,-0.108062744141,0.0
1661137920732883680,1180,1661137920732883680,,-40.1855163574,-0.0660705566406,0.0
1661137920735513660,1181,1661137920735513660,,-40.2226257324,-0.135589599609,0.0
1661137920740748267,1182,1661137920740748267,,-40.28125,-0.107055664062,0.0
1661137920745487915,1183,1661137920745487915,,-40.2901611328,-0.0929870605469,0.0
1661137920750441135,1184,1661137920750441135,,-40.262878418,-0.079345703125,0.0
1661137920755378990,1185,1661137920755378990,,-40.2951660156,0.00487410882488,0.0
1661137920760504228,1186,1661137920760504228,,-40.2143249512,-0.0519409179688,0.0
1661137920765466178,1187,1661137920765466178,,-40.2794494629,-0.0791320800781,0.0
1661137920775217922,1188,1661137920775217922,,-40.1825866699,-0.05224609375,0.0
1661137920775517537,1189,1661137920775517537,,-40.1600952148,-0.0803527832031,0.0
1661137920780545556,1190,1661137920780545556,,-40.2077941895,-0.149658203125,0.0
1661137920785417971,1191,1661137920785417971,,-40.2425842285,-0.17724609375,0.0
1661137920790378734,1192,1661137920790378734,,-40.2222290039,-0.289154052734,0.0
1661137920795491190,1193,1661137920795491190,,-40.2327270508,-0.275054931641,0.0
1661137920800437706,1194,1661137920800437706,,-40.2177734375,-0.275054931641,0.0
1661137920805564130,1195,1661137920805564130,,-40.2052307129,-0.219451904297,0.0
1661137920815890241,1196,1661137920815890241,,-40.2113647461,-0.247406005859,0.0
1661137920816421098,1197,1661137920816421098,,-40.2295532227,-0.26123046875,0.0
1661137920820483015,1198,1661137920820483015,,-40.2733154297,-0.246704101562,0.0
1661137920825425620,1199,1661137920825425620,,-40.3001708984,-0.20458984375,0.0
1661137920830476617,1200,1661137920830476617,,-40.1859130859,-0.261505126953,0.0
1661137920835421526,1201,1661137920835421526,,-40.2563781738,-0.219085693359,0.0
1661137920840382568,1202,1661137920840382568,,-40.4096069336,-0.0917053222656,0.0
1661137920845493627,1203,1661137920845493627,,-40.3116760254,-0.134643554688,0.0
1661137920856668998,1204,1661137920856668998,,-40.3330688477,-0.162322998047,0.0
1661137920856989286,1205,1661137920856989286,,-40.3262634277,-0.07861328125,0.0
1661137920862154821,1206,1661137920862154821,,-40.2552490234,-0.0654907226562,0.0
1661137920865530626,1207,1661137920865530626,,-40.2108154297,-0.0100708007812,0.0
1661137920870422806,1208,1661137920870422806,,-40.3399963379,-0.0924987792969,0.0
1661137920875364293,1209,1661137920875364293,,-40.2582397461,-0.0932312011719,0.0
1661137920880485898,1210,1661137920880485898,,-40.2272644043,-0.135528564453,0.0
1661137920885431575,1211,1661137920885431575,,-39.7612915039,0.477249711752,0.0
1661137920890452960,1212,1661137920890452960,,-40.182434082,9.00265407562,0.0
1661137920896026502,1213,1661137920896026502,,-43.2284240723,0.288703083992,0.0
1661137920900526808,1214,1661137920900526808,,-40.7928161621,0.789295136929,0.0
1661137920905428206,1215,1661137920905428206,,-41.1838989258,-0.112060546875,0.0
1661137920910537171,1216,1661137920910537171,,-41.0090026855,-1.24423217773,0.0
1661137920915496118,1217,1661137920915496118,,-41.1026916504,-0.55712890625,0.0
1661137920920433414,1218,1661137920920433414,,-41.5572814941,-1.13714599609,0.0
1661137920925240039,1219,1661137920925240039,,-37.8339233398,0.707386016846,0.0
1661137920935679292,1220,1661137920935679292,,-36.3817443848,6.8516626358,0.0
1661137920935952228,1221,1661137920935952228,,-36.1358642578,5.91614770889,0.0
1661137920940557713,1222,1661137920940557713,,-35.0504150391,9.36225605011,0.0
1661137920945263768,1223,1661137920945263768,,-38.7866210938,2.67677426338,0.0
1661137920950355831,1224,1661137920950355831,,-39.1862487793,-1.8645324707,0.0
1661137920955242843,1225,1661137920955242843,,-41.6696166992,-2.00396728516,0.0
1661137920960246488,1226,1661137920960246488,,-39.6910095215,-2.12393188477,0.0
1661137920965298951,1227,1661137920965298951,,-40.1528625488,0.899660468102,0.0
1661137920973793568,1228,1661137920973793568,,-41.8957519531,6.44995450974,0.0
1661137920975357574,1229,1661137920975357574,,-39.5097351074,2.25816941261,0.0
1661137920980351301,1230,1661137920980351301,,-44.1384887695,5.25961971283,0.0
1661137920985312553,1231,1661137920985312553,,-45.6888427734,4.0122256279,0.0
1661137920990276459,1232,1661137920990276459,,-47.427520752,2.16855692863,0.0
1661137920995174784,1233,1661137920995174784,,-48.7541809082,0.818947017193,0.0
1661137921000310567,1234,1661137921000310567,,-49.482635498,0.107908442616,0.0
1661137921005247724,1235,1661137921005247724,,-49.7168273926,0.283080846071,0.0
1661137921017860968,1236,1661137921017860968,,-49.2741394043,1.5580675602,0.0
1661137921018411660,1237,1661137921018411660,,-48.1803588867,2.69046878815,0.0
1661137921020633841,1238,1661137921020633841,,-47.490020752,3.9420363903,0.0
1661137921025436206,1239,1661137921025436206,,-47.0862731934,4.31929016113,0.0
1661137921030158324,1240,1661137921030158324,,-47.7037963867,3.58350753784,0.0
1661137921035277415,1241,1661137921035277415,,-48.5051269531,2.9499578476,0.0
1661137921040254381,1242,1661137921040254381,,-49.5243225098,1.55940341949,0.0
1661137921045176313,1243,1661137921045176313,,-50.4658203125,0.302966445684,0.0
1661137921050287372,1244,1661137921050287372,,-51.6393127441,-0.342010498047,0.0
1661137921057818331,1245,1661137921057818331,,-48.1304016113,0.070740096271,0.0
1661137921060274268,1246,1661137921060274268,,-48.5546875,-10.6612548828,0.0
1661137921065379391,1247,1661137921065379391,,-50.4787597656,-4.97863769531,0.0
1661137921070321088,1248,1661137921070321088,,-47.0343933105,-6.53067016602,0.0
1661137921075245953,1249,1661137921075245953,,-46.9483032227,-0.760681152344,0.0
1661137921080255255,1250,1661137921080255255,,-44.103515625,-0.560180664062,0.0
1661137921085267839,1251,1661137921085267839,,-42.8767700195,4.26457452774,0.0
1661137921090222526,1252,1661137921090222526,,-43.7449035645,7.67134332657,0.0
1661137921098727758,1253,1661137921098727758,,-42.7345275879,9.09395599365,0.0
1661137921100382696,1254,1661137921100382696,,-47.5030517578,10.2336139679,0.0
1661137921105472524,1255,1661137921105472524,,-47.9984436035,9.76062965393,0.0
1661137921110295352,1256,1661137921110295352,,-48.0287475586,10.0491724014,0.0
1661137921115336361,1257,1661137921115336361,,-49.6553344727,9.97674751282,0.0
1661137921120276801,1258,1661137921120276801,,-52.7261352539,7.03649806976,0.0
1661137921125257189,1259,1661137921125257189,,-55.0904541016,6.11971092224,0.0
1661137921130164314,1260,1661137921130164314,,-57.6424255371,16.7458572388,0.0
1661137921137981968,1261,1661137921137981968,,-60.165435791,3.62756299973,0.0
1661137921140335310,1262,1661137921140335310,,-58.9851989746,3.24404168129,0.0
1661137921145329037,1263,1661137921145329037,,-58.5704345703,14.9971523285,0.0
1661137921150319901,1264,1661137921150319901,,-63.6053466797,4.08445119858,0.0
1661137921155262994,1265,1661137921155262994,,-66.2853088379,-1.1047668457,0.0
1661137921160257211,1266,1661137921160257211,,-68.1838989258,-4.88052368164,0.0
1661137921165322734,1267,1661137921165322734,,-70.8267211914,5.61899375916,0.0
1661137921170288525,1268,1661137921170288525,,-71.4764709473,6.32667636871,0.0
1661137921177084414,1269,1661137921177084414,,-71.3932495117,7.51625442505,0.0
1661137921180194756,1270,1661137921180194756,,-72.6242370605,10.1207752228,0.0
1661137921185352259,1271,1661137921185352259,,-75.5282897949,7.9786157608,0.0
1661137921190311416,1272,1661137921190311416,,-78.0745239258,-0.843505859375,0.0
1661137921195286636,1273,1661137921195286636,,-78.3690185547,0.231194511056,0.0
1661137921200372273,1274,1661137921200372273,,-78.9243469238,1.92545366287,0.0
1661137921205258796,1275,1661137921205258796,,-79.3209533691,3.34549880028,0.0
1661137921210246377,1276,1661137921210246377,,-79.8486022949,2.82372713089,0.0
1661137921215323215,1277,1661137921215323215,,-79.8489379883,1.39931821823,0.0
1661137921220319387,1278,1661137921220319387,,-78.0391845703,-1.87387084961,0.0
1661137921225313603,1279,1661137921225313603,,-85.9985961914,1.45837605,0.0
1661137921230162342,1280,1661137921230162342,,-78.9771118164,8.99040699005,0.0
1661137921235281084,1281,1661137921235281084,,-121.415527344,148.675735474,0.0
1661137921240248342,1282,1661137921240248342,,-56.8186340332,29.4530296326,0.0
1661137921245268748,1283,1661137921245268748,,-95.4620666504,174.55015564,0.0
1661137921253767974,1284,1661137921253767974,,-83.7005004883,5.68805503845,0.0
1661137921255346786,1285,1661137921255346786,,-99.7640380859,-176.199905396,0.0
1661137921260286597,1286,1661137921260286597,,-99.5293579102,-179.95539856,0.0
1661137921265343041,1287,1661137921265343041,,-105.113235474,175.313034058,0.0
1661137921270278033,1288,1661137921270278033,,-50.7415771484,38.7203483582,0.0
1661137921275234046,1289,1661137921275234046,,-128.188323975,-174.948776245,0.0
1661137921280232453,1290,1661137921280232453,,-113.39642334,179.566558838,0.0
1661137921285291481,1291,1661137921285291481,,-117.27986145,170.978561401,0.0
1661137921292733534,1292,1661137921292733534,,-119.022781372,173.905044556,0.0
1661137921295260010,1293,1661137921295260010,,-121.928863525,176.553909302,0.0
1661137921300362968,1294,1661137921300362968,,-125.213577271,174.817520142,0.0
1661137921305258011,1295,1661137921305258011,,-125.358139038,171.323165894,0.0
1661137921310234208,1296,1661137921310234208,,-121.980010986,171.417922974,0.0
1661137921315375299,1297,1661137921315375299,,-114.007736206,-177.091842651,0.0
1661137921320282145,1298,1661137921320282145,,-109.416427612,-175.692199707,0.0
1661137921325239765,1299,1661137921325239765,,-106.759643555,-175.318954468,0.0
1661137921331594752,1300,1661137921331594752,,-96.3248291016,175.173583984,0.0
1661137921335336590,1301,1661137921335336590,,-100.015075684,174.671676636,0.0
1661137921340331714,1302,1661137921340331714,,-115.36100769,175.434753418,0.0
1661137921345270617,1303,1661137921345270617,,-130.898590088,143.218597412,0.0
1661137921350324338,1304,1661137921350324338,,-139.420913696,-131.728790283,0.0
1661137921355257094,1305,1661137921355257094,,-76.9782104492,11.274479866,0.0
1661137921360232663,1306,1661137921360232663,,-103.332183838,-168.717010498,0.0
1661137921371969271,1307,1661137921371969271,,-112.787796021,-162.055999756,0.0
1661137921372362333,1308,1661137921372362333,,-95.198425293,177.9737854,0.0
1661137921375284524,1309,1661137921375284524,,-102.545074463,-179.76725769,0.0
1661137921380335521,1310,1661137921380335521,,-71.0848999023,17.0630378723,0.0
1661137921385308017,1311,1661137921385308017,,-81.3346252441,8.66509246826,0.0
1661137921390248805,1312,1661137921390248805,,-101.605743408,-173.559829712,0.0
1661137921395256292,1313,1661137921395256292,,-108.130950928,-176.119369507,0.0
1661137921400324469,1314,1661137921400324469,,-111.194076538,-174.293106079,0.0
1661137921405263511,1315,1661137921405263511,,-110.23588562,-172.190963745,0.0
1661137921414809296,1316,1661137921414809296,,-110.91859436,-176.426345825,0.0
1661137921415172186,1317,1661137921415172186,,-113.365631104,-171.135818481,0.0
1661137921424494342,1318,1661137921424494342,,-121.394927979,-174.026885986,0.0
1661137921425309379,1319,1661137921425309379,,-120.213088989,-169.196838379,0.0
1661137921430277475,1320,1661137921430277475,,-120.172439575,-169.77394104,0.0
1661137921435223921,1321,1661137921435223921,,-118.412765503,-172.36340332,0.0
1661137921440312771,1322,1661137921440312771,,-118.073272705,-174.76184082,0.0
1661137921445239242,1323,1661137921445239242,,-114.087020874,179.406356812,0.0
1661137921453866625,1324,1661137921453866625,,-123.260284424,171.920349121,0.0
1661137921455283827,1325,1661137921455283827,,-129.84552002,163.241226196,0.0
1661137921460314081,1326,1661137921460314081,,-121.169296265,163.393051147,0.0
1661137921465179232,1327,1661137921465179232,,-107.065231323,170.940750122,0.0
1661137921470283866,1328,1661137921470283866,,-94.7325439453,178.004852295,0.0
1661137921475235200,1329,1661137921475235200,,-86.455291748,-2.54895019531,0.0
1661137921480234306,1330,1661137921480234306,,-80.952545166,-5.21075439453,0.0
1661137921485310026,1331,1661137921485310026,,-77.5427246094,-6.55224609375,0.0
1661137921496487840,1332,1661137921496487840,,-74.7717590332,-7.73275756836,0.0
1661137921496713983,1333,1661137921496713983,,-73.2180786133,-7.91201782227,0.0
1661137921500216828,1334,1661137921500216828,,-72.9375915527,-6.3835144043,0.0
1661137921505335989,1335,1661137921505335989,,-74.1238098145,-3.90927124023,0.0
1661137921510252822,1336,1661137921510252822,,-76.2559204102,-2.34832763672,0.0
1661137921515216728,1337,1661137921515216728,,-79.3708496094,-2.3720703125,0.0
1661137921520300549,1338,1661137921520300549,,-82.4885253906,-4.12326049805,0.0
1661137921525236589,1339,1661137921525236589,,-84.3930664062,-5.33596801758,0.0
1661137921539398264,1340,1661137921539398264,,-95.8087158203,-174.654037476,0.0
1661137921539622731,1341,1661137921539622731,,-98.5005187988,-174.595657349,0.0
1661137921540317713,1342,1661137921540317713,,-102.225006104,-174.870910645,0.0
1661137921545312837,1343,1661137921545312837,,-105.851989746,-174.908218384,0.0
1661137921550215493,1344,1661137921550215493,,-109.648864746,-174.942474365,0.0
1661137921555324806,1345,1661137921555324806,,-112.847885132,-174.633361816,0.0
1661137921560348565,1346,1661137921560348565,,-115.863250732,-174.450378418,0.0
1661137921565229919,1347,1661137921565229919,,-117.720779419,-175.549743652,0.0
1661137921570279729,1348,1661137921570279729,,-118.979812622,-177.412414551,0.0
1661137921579800650,1349,1661137921579800650,,-120.04850769,-178.474395752,0.0
1661137921580360281,1350,1661137921580360281,,-120.623016357,-179.576538086,0.0
1661137921585389208,1351,1661137921585389208,,-120.764282227,178.654266357,0.0
1661137921590370644,1352,1661137921590370644,,-119.462402344,177.249649048,0.0
1661137921595304727,1353,1661137921595304727,,-117.636306763,176.746139526,0.0
1661137921600207802,1354,1661137921600207802,,-114.897293091,177.729187012,0.0
1661137921605291135,1355,1661137921605291135,,-112.051071167,178.386108398,0.0
1661137921610238488,1356,1661137921610238488,,-109.904647827,173.913787842,0.0
1661137921618945699,1357,1661137921618945699,,-109.800079346,-177.210159302,0.0
1661137921620387973,1358,1661137921620387973,,-100.060516357,-174.07170105,0.0
1661137921625257734,1359,1661137921625257734,,-97.2793579102,-174.634033203,0.0
1661137921630222478,1360,1661137921630222478,,-94.2204589844,-178.494049072,0.0
1661137921635307766,1361,1661137921635307766,,-92.9406433105,-178.066513062,0.0
1661137921640257214,1362,1661137921640257214,,-92.1697998047,-177.864227295,0.0
1661137921645235996,1363,1661137921645235996,,-89.5771179199,-0.392761230469,0.0
1661137921650151223,1364,1661137921650151223,,-89.1944580078,0.774418771267,0.0
1661137921662748753,1365,1661137921662748753,,-89.5276184082,0.450091689825,0.0
1661137921662915392,1366,1661137921662915392,,-90.3602600098,179.72769165,0.0
1661137921665227877,1367,1661137921665227877,,-90.5628967285,179.776489258,0.0
1661137921670138704,1368,1661137921670138704,,-93.4491577148,176.713165283,0.0
1661137921675255910,1369,1661137921675255910,,-93.2683105469,176.910720825,0.0
1661137921680247193,1370,1661137921680247193,,-96.143737793,174.989105225,0.0
1661137921685146775,1371,1661137921685146775,,-97.9201049805,174.260406494,0.0
1661137921690277250,1372,1661137921690277250,,-97.2623596191,176.495803833,0.0
1661137921695229562,1373,1661137921695229562,,-99.3887634277,176.341201782,0.0
1661137921707318096,1374,1661137921707318096,,-101.07623291,175.830947876,0.0
1661137921707642854,1375,1661137921707642854,,-103.378112793,173.569610596,0.0
1661137921710319067,1376,1661137921710319067,,-104.725097656,172.402313232,0.0
1661137921715360077,1377,1661137921715360077,,-106.122573853,170.791717529,0.0
1661137921720317068,1378,1661137921720317068,,-107.18081665,168.391403198,0.0
1661137921725253317,1379,1661137921725253317,,-107.721710205,167.22694397,0.0
1661137921730229445,1380,1661137921730229445,,-107.109100342,167.391571045,0.0
1661137921735159967,1381,1661137921735159967,,-106.380981445,167.977493286,0.0
1661137921740268652,1382,1661137921740268652,,-105.549468994,167.807296753,0.0
1661137921750742405,1383,1661137921750742405,,-105.141296387,167.517532349,0.0
1661137921750973577,1384,1661137921750973577,,-103.098693848,168.686386108,0.0
1661137921755321351,1385,1661137921755321351,,-101.538604736,168.905990601,0.0
1661137921760283999,1386,1661137921760283999,,-99.9028320312,170.140548706,0.0
1661137921765233727,1387,1661137921765233727,,-80.0986633301,9.78981018066,0.0
1661137921770307562,1388,1661137921770307562,,-79.5718078613,9.56086921692,0.0
1661137921775243042,1389,1661137921775243042,,-76.9070129395,11.1181116104,0.0
1661137921780236490,1390,1661137921780236490,,-79.5182800293,4.59762001038,0.0
1661137921791462006,1391,1661137921791462006,,-74.1717834473,8.59948348999,0.0
1661137921791591001,1392,1661137921791591001,,-71.3174438477,9.6611366272,0.0
1661137921795306370,1393,1661137921795306370,,-70.5235900879,9.68794727325,0.0
1661137921800361767,1394,1661137921800361767,,-69.9895629883,5.34339809418,0.0
1661137921805304022,1395,1661137921805304022,,-66.8380126953,2.54207634926,0.0
1661137921810244880,1396,1661137921810244880,,-63.424041748,1.93210852146,0.0
1661137921815224430,1397,1661137921815224430,,-60.8447570801,3.05260825157,0.0
1661137921820312582,1398,1661137921820312582,,-58.6221618652,4.88824748993,0.0
1661137921825263078,1399,1661137921825263078,,-58.1552429199,5.36648511887,0.0
1661137921832900334,1400,1661137921832900334,,-58.1738891602,4.49783277512,0.0
1661137921835258565,1401,1661137921835258565,,-57.8800354004,4.25607681274,0.0
1661137921840420119,1402,1661137921840420119,,-57.1594238281,7.40889596939,0.0
1661137921845245042,1403,1661137921845245042,,-57.1245422363,7.10574626923,0.0
1661137921850221449,1404,1661137921850221449,,-57.3533325195,7.49195766449,0.0
1661137921855280198,1405,1661137921855280198,,-57.549987793,8.00965881348,0.0
1661137921860234815,1406,1661137921860234815,,-57.5579528809,7.44064760208,0.0
1661137921865235177,1407,1661137921865235177,,-56.3933105469,7.83614110947,0.0
1661137921874833551,1408,1661137921874833551,,-55.1061401367,7.27483701706,0.0
1661137921875381729,1409,1661137921875381729,,-52.6852722168,6.66933631897,0.0
1661137921880271394,1410,1661137921880271394,,-50.2434387207,5.80151605606,0.0
1661137921885165320,1411,1661137921885165320,,-46.1425170898,7.13694810867,0.0
1661137921890275611,1412,1661137921890275611,,-41.8274230957,6.22791624069,0.0
1661137921895271852,1413,1661137921895271852,,-37.5572814941,4.94314813614,0.0
1661137921900315725,1414,1661137921900315725,,-32.8696594238,3.75442790985,0.0
1661137921905128496,1415,1661137921905128496,,-28.0042114258,3.24681973457,0.0
1661137921916936132,1416,1661137921916936132,,-22.4021606445,3.37086391449,0.0
1661137921917251461,1417,1661137921917251461,,-17.1948242188,4.51081466675,0.0
1661137921920216255,1418,1661137921920216255,,-12.5565490723,5.65939855576,0.0
1661137921925411263,1419,1661137921925411263,,-7.91662597656,3.73721027374,0.0
1661137921930352400,1420,1661137921930352400,,-5.68963623047,1.46249032021,0.0
1661137921935331950,1421,1661137921935331950,,-3.23779296875,-0.089599609375,0.0
1661137921940310523,1422,1661137921940310523,,-1.33782958984,0.15439362824,0.0
1661137921945289793,1423,1661137921945289793,,-0.212036132812,-0.758850097656,0.0
1661137921950298187,1424,1661137921950298187,,0.0572946146131,-1.35153198242,0.0
1661137921955237439,1425,1661137921955237439,,-0.285552978516,-2.44543457031,0.0
1661137921960318886,1426,1661137921960318886,,-1.01019287109,-3.22912597656,0.0
1661137921965235300,1427,1661137921965235300,,-1.69708251953,-2.57037353516,0.0
1661137921970139143,1428,1661137921970139143,,-1.45446777344,-2.20239257812,0.0
1661137921975251041,1429,1661137921975251041,,-0.337829589844,-3.09973144531,0.0
1661137921980238832,1430,1661137921980238832,,1.26993525028,-6.53225708008,0.0
1661137921985220477,1431,1661137921985220477,,2.80984091759,-8.16275024414,0.0
1661137921991834920,1432,1661137921991834920,,2.73064041138,-9.76586914062,0.0
1661137921995290274,1433,1661137921995290274,,4.19349098206,-7.96487426758,0.0
1661137922000315918,1434,1661137922000315918,,7.07136678696,-6.46792602539,0.0
1661137922005138327,1435,1661137922005138327,,11.5767917633,-7.76525878906,0.0
1661137922010246942,1436,1661137922010246942,,21.7943916321,-7.28286743164,0.0
1661137922015234454,1437,1661137922015234454,,32.0876426697,-8.06829833984,0.0
1661137922020190537,1438,1661137922020190537,,39.8871231079,-6.21624755859,0.0
1661137922025286930,1439,1661137922025286930,,43.2375144958,-5.91690063477,0.0
1661137922030705496,1440,1661137922030705496,,43.4344978333,-5.75082397461,0.0
1661137922035208525,1441,1661137922035208525,,39.876953125,-5.46362304688,0.0
1661137922040360092,1442,1661137922040360092,,33.6299476624,-4.50802612305,0.0
1661137922045245846,1443,1661137922045245846,,26.0503902435,-2.74026489258,0.0
1661137922050246138,1444,1661137922050246138,,20.6052150726,-2.29873657227,0.0
1661137922055147676,1445,1661137922055147676,,17.4476356506,-3.05792236328,0.0
1661137922060266907,1446,1661137922060266907,,16.0107269287,-3.46130371094,0.0
1661137922069964454,1447,1661137922069964454,,14.4991855621,-4.158203125,0.0
1661137922070200235,1448,1661137922070200235,,12.6305580139,-5.33187866211,0.0
1661137922075366119,1449,1661137922075366119,,11.924949646,-4.99526977539,0.0
1661137922080225893,1450,1661137922080225893,,10.9828033447,-5.06658935547,0.0
1661137922085234915,1451,1661137922085234915,,10.9365568161,-3.9289855957,0.0
1661137922090284864,1452,1661137922090284864,,10.1558618546,-4.91995239258,0.0
1661137922095318750,1453,1661137922095318750,,9.55304908752,-6.53652954102,0.0
1661137922100224827,1454,1661137922100224827,,10.2449636459,-8.79678344727,0.0
1661137922117026260,1455,1661137922117026260,,11.7926216125,-8.99215698242,0.0
1661137922117396204,1456,1661137922117396204,,12.8262329102,-8.34722900391,0.0
1661137922117607471,1457,1661137922117607471,,12.6240167618,-8.64553833008,0.0
1661137922120372103,1458,1661137922120372103,,12.0634613037,-8.61743164062,0.0
1661137922125338593,1459,1661137922125338593,,13.8086509705,-5.21096801758,0.0
1661137922130306479,1460,1661137922130306479,,21.2042312622,-1.25518798828,0.0
1661137922135303978,1461,1661137922135303978,,18.4248218536,-3.38729858398,0.0
1661137922140227865,1462,1661137922140227865,,16.7869739532,0.796097755432,0.0
1661137922145266360,1463,1661137922145266360,,22.0939998627,-5.47637939453,0.0
1661137922150232431,1464,1661137922150232431,,27.0497055054,-15.490447998,0.0
1661137922159278018,1465,1661137922159278018,,28.8951454163,-19.4814758301,0.0
1661137922160574884,1466,1661137922160574884,,29.7918071747,-13.4890136719,0.0
1661137922167768025,1467,1661137922167768025,,29.2255573273,-8.00714111328,0.0
1661137922170350932,1468,1661137922170350932,,28.5928096771,-6.1389465332,0.0
1661137922175297587,1469,1661137922175297587,,29.9841384888,-7.41635131836,0.0
1661137922180267010,1470,1661137922180267010,,32.2395324707,-8.72476196289,0.0
1661137922185227284,1471,1661137922185227284,,31.7645397186,-9.68228149414,0.0
1661137922190146212,1472,1661137922190146212,,29.9146614075,-10.1809692383,0.0
1661137922198359162,1473,1661137922198359162,,28.6471939087,-10.6387634277,0.0
1661137922200446901,1474,1661137922200446901,,28.8108272552,-11.0349731445,0.0
1661137922205262466,1475,1661137922205262466,,29.5731658936,-9.3779296875,0.0
1661137922210271977,1476,1661137922210271977,,29.2940540314,-9.32891845703,0.0
1661137922215223451,1477,1661137922215223451,,29.2886753082,-8.44244384766,0.0
1661137922220230448,1478,1661137922220230448,,29.7712783813,-12.2774353027,0.0
1661137922225288987,1479,1661137922225288987,,30.6211795807,-14.4527893066,0.0
1661137922230236620,1480,1661137922230236620,,31.6549396515,-13.4988098145,0.0
1661137922239853362,1481,1661137922239853362,,32.2327270508,-11.724609375,0.0
1661137922240348111,1482,1661137922240348111,,32.9461364746,-10.4717712402,0.0
1661137922245338556,1483,1661137922245338556,,33.9961662292,-10.9844055176,0.0
1661137922250296665,1484,1661137922250296665,,34.9017601013,-10.0666809082,0.0
1661137922255211961,1485,1661137922255211961,,35.5458374023,-8.73379516602,0.0
1661137922260360804,1486,1661137922260360804,,35.5853614807,-9.09805297852,0.0
1661137922265221346,1487,1661137922265221346,,34.8997802734,-9.87658691406,0.0
1661137922270227296,1488,1661137922270227296,,33.764793396,-10.0491027832,0.0
1661137922278136580,1489,1661137922278136580,,32.2628898621,-10.4071960449,0.0
1661137922280303308,1490,1661137922280303308,,30.8484535217,-9.54486083984,0.0
1661137922285233131,1491,1661137922285233131,,29.5527877808,-7.24649047852,0.0
1661137922290149126,1492,1661137922290149126,,29.0534191132,-11.737701416,0.0
1661137922295258021,1493,1661137922295258021,,28.6539134979,-13.5136108398,0.0
1661137922300218504,1494,1661137922300218504,,28.1444244385,-13.5438232422,0.0
1661137922305168791,1495,1661137922305168791,,27.9895801544,-12.8692016602,0.0
1661137922310282224,1496,1661137922310282224,,28.7816867828,-11.6644287109,0.0
1661137922321601396,1497,1661137922321601396,,30.4887008667,-11.3014526367,0.0
1661137922321732975,1498,1661137922321732975,,32.3628768921,-7.06396484375,0.0
1661137922325259635,1499,1661137922325259635,,31.7766666412,-1.66702270508,0.0
1661137922330402751,1500,1661137922330402751,,32.8894805908,-11.8270263672,0.0
1661137922335208887,1501,1661137922335208887,,31.7463722229,-9.16513061523,0.0
1661137922340190672,1502,1661137922340190672,,29.838098526,-12.4338378906,0.0
1661137922345290976,1503,1661137922345290976,,28.6880931854,-14.9161682129,0.0
1661137922350224640,1504,1661137922350224640,,29.3905220032,-17.8048095703,0.0
1661137922358764514,1505,1661137922358764514,,31.5065288544,-10.6837768555,0.0
1661137922360432442,1506,1661137922360432442,,30.0390491486,-6.46752929688,0.0
1661137922365298082,1507,1661137922365298082,,27.4095096588,-7.11465454102,0.0
1661137922370256889,1508,1661137922370256889,,25.8605384827,-7.01544189453,0.0
1661137922375129443,1509,1661137922375129443,,25.4729747772,-9.04019165039,0.0
1661137922380254401,1510,1661137922380254401,,24.6876239777,-9.13980102539,0.0
1661137922385246871,1511,1661137922385246871,,23.5900154114,-7.30404663086,0.0
1661137922390147431,1512,1661137922390147431,,22.5614967346,-5.8493347168,0.0
1661137922401413594,1513,1661137922401413594,,20.9620037079,-6.7353515625,0.0
1661137922401819995,1514,1661137922401819995,,20.1914291382,-7.96398925781,0.0
1661137922406615446,1515,1661137922406615446,,20.4976482391,-7.70080566406,0.0
1661137922410401982,1516,1661137922410401982,,21.3836574554,-6.2907409668,0.0
1661137922415233889,1517,1661137922415233889,,22.3140258789,-5.96325683594,0.0
1661137922420222588,1518,1661137922420222588,,22.7504501343,-6.35247802734,0.0
1661137922425142494,1519,1661137922425142494,,23.2525997162,-6.4241027832,0.0
1661137922430269617,1520,1661137922430269617,,23.7156028748,-5.82330322266,0.0
1661137922441869756,1521,1661137922441869756,,23.732208252,-5.41909790039,0.0
1661137922442335451,1522,1661137922442335451,,23.7148303986,-4.97152709961,0.0
1661137922445362683,1523,1661137922445362683,,23.8377323151,-4.31826782227,0.0
1661137922450289643,1524,1661137922450289643,,23.578130722,-3.6227722168,0.0
1661137922455216952,1525,1661137922455216952,,23.3552284241,-3.19775390625,0.0
1661137922460292882,1526,1661137922460292882,,23.7512111664,-3.02221679688,0.0
1661137922465224591,1527,1661137922465224591,,24.5716838837,-3.03576660156,0.0
1661137922470214686,1528,1661137922470214686,,26.0027122498,-2.24740600586,0.0
1661137922481336419,1529,1661137922481336419,,28.4904251099,-4.48104858398,0.0
1661137922481603698,1530,1661137922481603698,,30.7540683746,-0.0165710449219,0.0
1661137922486794096,1531,1661137922486794096,,31.082118988,2.94012999535,0.0
1661137922490226751,1532,1661137922490226751,,30.0872116089,3.35179042816,0.0
1661137922495340604,1533,1661137922495340604,,28.7786407471,3.00766944885,0.0
1661137922500273989,1534,1661137922500273989,,27.2586269379,3.55426025391,0.0
1661137922505228047,1535,1661137922505228047,,25.9422702789,4.41843605042,0.0
1661137922510304117,1536,1661137922510304117,,24.8919372559,5.27249574661,0.0
1661137922522426732,1537,1661137922522426732,,23.7399024963,5.84700918198,0.0
1661137922522842072,1538,1661137922522842072,,22.751373291,6.37034368515,0.0
1661137922525276988,1539,1661137922525276988,,21.7870788574,6.87563848495,0.0
1661137922530370726,1540,1661137922530370726,,21.1037101746,7.60530567169,0.0
1661137922535246493,1541,1661137922535246493,,21.4829120636,7.98784637451,0.0
1661137922540245529,1542,1661137922540245529,,22.3138332367,7.94093847275,0.0
1661137922545298341,1543,1661137922545298341,,23.1917648315,7.62460422516,0.0
1661137922550251910,1544,1661137922550251910,,24.1528682709,7.00583648682,0.0
1661137922555229225,1545,1661137922555229225,,24.899772644,7.01547050476,0.0
1661137922564698115,1546,1661137922564698115,,25.4302310944,7.48942708969,0.0
1661137922565373960,1547,1661137922565373960,,25.7455158234,8.68846511841,0.0
1661137922570303784,1548,1661137922570303784,,26.2153091431,9.80832767487,0.0
1661137922575262661,1549,1661137922575262661,,26.7923583984,10.0763320923,0.0
1661137922580288305,1550,1661137922580288305,,26.6141395569,10.5243444443,0.0
1661137922585236916,1551,1661137922585236916,,25.2352046967,11.8378992081,0.0
1661137922590266541,1552,1661137922590266541,,23.4399604797,13.6368589401,0.0
1661137922595287437,1553,1661137922595287437,,21.2158527374,15.9539442062,0.0
1661137922602777329,1554,1661137922602777329,,19.0410461426,18.3505649567,0.0
1661137922605341519,1555,1661137922605341519,,16.4692230225,20.8600196838,0.0
1661137922610247248,1556,1661137922610247248,,13.4862585068,23.4369049072,0.0
1661137922615256759,1557,1661137922615256759,,9.78366851807,25.7482261658,0.0
1661137922620253350,1558,1661137922620253350,,6.01845502853,27.4826278687,0.0
1661137922625160335,1559,1661137922625160335,,1.93461763859,28.5651836395,0.0
1661137922630287248,1560,1661137922630287248,,-1.52938842773,28.9895267487,0.0
1661137922635225243,1561,1661137922635225243,,-3.89862060547,28.809885025,0.0
1661137922640520262,1562,1661137922640520262,,-5.17926025391,27.5243663788,0.0
1661137922645353147,1563,1661137922645353147,,-5.78118896484,26.3559036255,0.0
1661137922650249098,1564,1661137922650249098,,-6.27255249023,25.3051223755,0.0
1661137922655211537,1565,1661137922655211537,,-7.20919799805,24.2719612122,0.0
1661137922660136052,1566,1661137922660136052,,-8.22680664062,22.7110443115,0.0
1661137922665253956,1567,1661137922665253956,,-9.32440185547,21.7156467438,0.0
1661137922670214718,1568,1661137922670214718,,-10.125213623,20.3126487732,0.0
1661137922684338470,1569,1661137922684338470,,-10.898651123,19.243637085,0.0
1661137922684668536,1570,1661137922684668536,,-11.4678039551,19.060842514,0.0
1661137922685351086,1571,1661137922685351086,,-12.0130615234,19.1454315186,0.0
1661137922690773075,1572,1661137922690773075,,-12.2463378906,19.3410682678,0.0
1661137922695307532,1573,1661137922695307532,,-12.6745605469,19.7457103729,0.0
1661137922700249298,1574,1661137922700249298,,-13.0918884277,20.4253692627,0.0
1661137922705265653,1575,1661137922705265653,,-13.6119384766,21.1570167542,0.0
1661137922710142328,1576,1661137922710142328,,-14.3495788574,21.8181610107,0.0
1661137922715266797,1577,1661137922715266797,,-14.9002380371,21.9336891174,0.0
1661137922725043613,1578,1661137922725043613,,-15.1885986328,21.8808040619,0.0
1661137922725423405,1579,1661137922725423405,,-15.0932922363,22.2462978363,0.0
1661137922730357419,1580,1661137922730357419,,-14.9714355469,22.5910625458,0.0
1661137922735306239,1581,1661137922735306239,,-14.3651733398,22.9420795441,0.0
1661137922740275871,1582,1661137922740275871,,-13.3674316406,23.52643013,0.0
1661137922745140743,1583,1661137922745140743,,-11.8881530762,23.9039497375,0.0
1661137922750253269,1584,1661137922750253269,,-10.0640258789,24.5153579712,0.0
1661137922755226324,1585,1661137922755226324,,-7.64559936523,24.7440261841,0.0
1661137922765515070,1586,1661137922765515070,,-4.22955322266,24.5638027191,0.0
1661137922765890532,1587,1661137922765890532,,0.151614189148,23.9640598297,0.0
1661137922770282096,1588,1661137922770282096,,4.75647783279,23.2866802216,0.0
1661137922775244395,1589,1661137922775244395,,9.03652191162,22.2951030731,0.0
1661137922780277861,1590,1661137922780277861,,13.2822532654,20.4718379974,0.0
1661137922785243443,1591,1661137922785243443,,17.4769325256,18.4666366577,0.0
1661137922790220409,1592,1661137922790220409,,21.3529930115,16.0966968536,0.0
1661137922795131724,1593,1661137922795131724,,24.2388420105,14.6181192398,0.0
1661137922806882370,1594,1661137922806882370,,25.589515686,14.6470851898,0.0
1661137922807040698,1595,1661137922807040698,,25.232465744,14.8940181732,0.0
1661137922810248606,1596,1661137922810248606,,23.674747467,14.3268852234,0.0
1661137922815313222,1597,1661137922815313222,,21.7398395538,12.9951028824,0.0
1661137922820286626,1598,1661137922820286626,,19.7525806427,12.1810207367,0.0
1661137922825223433,1599,1661137922825223433,,17.6729164124,11.8709115982,0.0
1661137922830301458,1600,1661137922830301458,,15.5766496658,11.7525644302,0.0
1661137922835244551,1601,1661137922835244551,,13.3315706253,11.2101774216,0.0
1661137922840316779,1602,1661137922840316779,,10.989159584,10.6697092056,0.0
1661137922849862773,1603,1661137922849862773,,8.71982288361,10.593870163,0.0
1661137922850322951,1604,1661137922850322951,,6.78486156464,10.6192188263,0.0
1661137922855291466,1605,1661137922855291466,,4.85920572281,10.5429153442,0.0
1661137922860211372,1606,1661137922860211372,,3.31030225754,10.7740135193,0.0
1661137922865278432,1607,1661137922865278432,,2.06299376488,11.3211212158,0.0
1661137922870236820,1608,1661137922870236820,,1.27468287945,11.8520383835,0.0
1661137922875235506,1609,1661137922875235506,,0.610650837421,12.2458515167,0.0
1661137922880184256,1610,1661137922880184256,,0.167611330748,12.6086950302,0.0
1661137922890516443,1611,1661137922890516443,,0.107058487833,13.1602315903,0.0
1661137922891049116,1612,1661137922891049116,,0.120085947216,13.9957466125,0.0
1661137922895206225,1613,1661137922895206225,,0.172312662005,14.7650537491,0.0
1661137922900297310,1614,1661137922900297310,,0.0101029807702,15.4513568878,0.0
1661137922905261495,1615,1661137922905261495,,0.11300457269,16.1383209229,0.0
1661137922910234689,1616,1661137922910234689,,0.294827878475,16.7521934509,0.0
1661137922915305101,1617,1661137922915305101,,0.50252532959,17.0565643311,0.0
1661137922920245541,1618,1661137922920245541,,0.674641191959,17.6164455414,0.0
1661137922937114648,1619,1661137922937114648,,0.761096835136,18.6248340607,0.0
1661137922937469437,1620,1661137922937469437,,0.688124299049,19.3016834259,0.0
1661137922937813401,1621,1661137922937813401,,0.218832656741,19.9668540955,0.0
1661137922940253974,1622,1661137922940253974,,-0.499572753906,20.8545608521,0.0
1661137922945180934,1623,1661137922945180934,,-1.23675537109,21.1921787262,0.0
1661137922950284171,1624,1661137922950284171,,-1.5270690918,22.4645328522,0.0
1661137922955369389,1625,1661137922955369389,,-1.88409423828,23.1080551147,0.0
1661137922960249556,1626,1661137922960249556,,-2.22982788086,23.4999637604,0.0
1661137922965129513,1627,1661137922965129513,,-2.82205200195,24.0612125397,0.0
1661137922970222624,1628,1661137922970222624,,-3.41305541992,24.3408336639,0.0
1661137922977173488,1629,1661137922977173488,,-3.87612915039,24.5354957581,0.0
1661137922980183888,1630,1661137922980183888,,-4.10507202148,25.2335357666,0.0
1661137922985355220,1631,1661137922985355220,,-4.30477905273,25.4327526093,0.0
1661137922990259831,1632,1661137922990259831,,-4.22406005859,25.7292118073,0.0
1661137922995182530,1633,1661137922995182530,,-4.0456237793,25.8000049591,0.0
1661137923000308745,1634,1661137923000308745,,-3.80307006836,25.6030979156,0.0
1661137923005271603,1635,1661137923005271603,,-3.51889038086,25.7071647644,0.0
1661137923010231039,1636,1661137923010231039,,-3.02160644531,25.8083305359,0.0
1661137923020306702,1637,1661137923020306702,,-2.37805175781,26.224697113,0.0
1661137923020795654,1638,1661137923020795654,,-1.76681518555,26.3942375183,0.0
1661137923025354136,1639,1661137923025354136,,-0.911804199219,26.4931850433,0.0
1661137923030237516,1640,1661137923030237516,,0.284723490477,27.0363254547,0.0
1661137923035308137,1641,1661137923035308137,,1.18924379349,27.8356800079,0.0
1661137923040233072,1642,1661137923040233072,,1.82793390751,28.5579891205,0.0
1661137923045131187,1643,1661137923045131187,,2.14480113983,29.0085334778,0.0
1661137923050278913,1644,1661137923050278913,,2.25218176842,29.2412967682,0.0
1661137923063358061,1645,1661137923063358061,,2.05969905853,29.8892230988,0.0
1661137923063632255,1646,1661137923063632255,,1.75420939922,30.6037425995,0.0
1661137923065201987,1647,1661137923065201987,,1.33527886868,30.8784275055,0.0
1661137923070340703,1648,1661137923070340703,,0.719001889229,31.2580089569,0.0
1661137923075266615,1649,1661137923075266615,,-0.420318603516,31.1347999573,0.0
1661137923080149925,1650,1661137923080149925,,-1.55737304688,31.0259647369,0.0
1661137923085266641,1651,1661137923085266641,,-2.87915039062,31.0116691589,0.0
1661137923090214623,1652,1661137923090214623,,-3.7048034668,30.8582820892,0.0
1661137923095157786,1653,1661137923095157786,,-5.02575683594,30.9492053986,0.0
1661137923105759487,1654,1661137923105759487,,-6.04077148438,31.1034908295,0.0
1661137923106191519,1655,1661137923106191519,,-6.9421081543,31.1132984161,0.0
1661137923111238954,1656,1661137923111238954,,-7.45391845703,30.8949203491,0.0
1661137923115202815,1657,1661137923115202815,,-7.90762329102,30.6476192474,0.0
1661137923120313176,1658,1661137923120313176,,-8.04147338867,30.209028244,0.0
1661137923125217158,1659,1661137923125217158,,-8.00921630859,30.2070236206,0.0
1661137923130133502,1660,1661137923130133502,,-7.9709777832,30.3977603912,0.0
1661137923135269983,1661,1661137923135269983,,-7.94738769531,30.7804431915,0.0
1661137923148589173,1662,1661137923148589173,,-7.8117980957,30.7036857605,0.0
1661137923149057383,1663,1661137923149057383,,-7.27133178711,30.8432636261,0.0
1661137923150504616,1664,1661137923150504616,,-6.87930297852,31.1102104187,0.0
1661137923155288892,1665,1661137923155288892,,-6.25836181641,31.4264965057,0.0
1661137923160297355,1666,1661137923160297355,,-5.87133789062,31.530828476,0.0
1661137923165133872,1667,1661137923165133872,,-5.44927978516,32.2821464539,0.0
1661137923170239064,1668,1661137923170239064,,-4.87759399414,32.9722747803,0.0
1661137923175243198,1669,1661137923175243198,,-4.45983886719,33.5691947937,0.0
1661137923180160939,1670,1661137923180160939,,-4.29064941406,33.8819198608,0.0
1661137923191163384,1671,1661137923191163384,,-4.22418212891,33.8686256409,0.0
1661137923191570693,1672,1661137923191570693,,-4.18521118164,33.2765007019,0.0
1661137923195323007,1673,1661137923195323007,,-3.57165527344,32.807975769,0.0
1661137923200133613,1674,1661137923200133613,,-3.04641723633,33.8584632874,0.0
1661137923205229447,1675,1661137923205229447,,-3.01373291016,33.1059532166,0.0
1661137923210209695,1676,1661137923210209695,,-2.89581298828,31.8650627136,0.0
1661137923215131556,1677,1661137923215131556,,-2.83135986328,31.9153575897,0.0
1661137923220262241,1678,1661137923220262241,,-3.63723754883,31.1794586182,0.0
1661137923232211023,1679,1661137923232211023,,-4.11001586914,30.3959465027,0.0
1661137923232848107,1680,1661137923232848107,,-4.42520141602,29.4950180054,0.0
1661137923235345180,1681,1661137923235345180,,-4.72232055664,28.4558620453,0.0
1661137923240307898,1682,1661137923240307898,,-4.66470336914,27.8517360687,0.0
1661137923245220890,1683,1661137923245220890,,-4.78231811523,27.975528717,0.0
1661137923250144148,1684,1661137923250144148,,-4.8288269043,27.4140834808,0.0
1661137923255243823,1685,1661137923255243823,,-4.54382324219,27.0349254608,0.0
1661137923260230916,1686,1661137923260230916,,-3.95770263672,27.195772171,0.0
1661137923265137343,1687,1661137923265137343,,-3.16925048828,27.1646442413,0.0
1661137923274124753,1688,1661137923274124753,,-2.59945678711,27.0828819275,0.0
1661137923275214123,1689,1661137923275214123,,-1.69918823242,27.994178772,0.0
1661137923280286910,1690,1661137923280286910,,-0.818939208984,27.8369102478,0.0
1661137923285324078,1691,1661137923285324078,,0.0209679976106,27.1582889557,0.0
1661137923290225546,1692,1661137923290225546,,0.777523219585,27.2726554871,0.0
1661137923295212219,1693,1661137923295212219,,1.22526657581,27.588262558,0.0
1661137923300136106,1694,1661137923300136106,,1.87488162518,27.7285785675,0.0
1661137923305240460,1695,1661137923305240460,,2.71678090096,27.4697647095,0.0
1661137923318347825,1696,1661137923318347825,,2.85638451576,27.2558231354,0.0
1661137923318946985,1697,1661137923318946985,,2.61306619644,27.0694141388,0.0
1661137923320320885,1698,1661137923320320885,,2.09614729881,26.9940681458,0.0
1661137923325333749,1699,1661137923325333749,,1.7411659956,26.0616111755,0.0
1661137923330232144,1700,1661137923330232144,,1.29947710037,26.4080562592,0.0
1661137923335285934,1701,1661137923335285934,,0.42283526063,26.7893733978,0.0
1661137923340239154,1702,1661137923340239154,,-0.365417480469,27.0168399811,0.0
1661137923345213955,1703,1661137923345213955,,-1.18453979492,27.7462329865,0.0
1661137923350122616,1704,1661137923350122616,,-1.85366821289,27.7767105103,0.0
1661137923362202279,1705,1661137923362202279,,-2.36831665039,27.6996517181,0.0
1661137923362524872,1706,1661137923362524872,,-2.71136474609,28.3860664368,0.0
1661137923365216171,1707,1661137923365216171,,-2.50741577148,28.9522571564,0.0
1661137923370332957,1708,1661137923370332957,,-2.06109619141,29.1485900879,0.0
1661137923375259847,1709,1661137923375259847,,-1.28771972656,29.2483654022,0.0
1661137923380231226,1710,1661137923380231226,,-0.709594726562,28.8495311737,0.0
1661137923385290533,1711,1661137923385290533,,-0.441528320312,28.7741222382,0.0
1661137923390222102,1712,1661137923390222102,,-0.51513671875,29.2139701843,0.0
1661137923399242407,1713,1661137923399242407,,-0.357116699219,29.4950313568,0.0
1661137923400236446,1714,1661137923400236446,,-0.0819091796875,29.3214569092,0.0
1661137923405313702,1715,1661137923405313702,,0.212927922606,29.0232982635,0.0
1661137923410244433,1716,1661137923410244433,,0.213478639722,29.1139507294,0.0
1661137923415198910,1717,1661137923415198910,,0.125068962574,29.1057014465,0.0
1661137923420248160,1718,1661137923420248160,,-0.377807617188,29.3656311035,0.0
1661137923425216117,1719,1661137923425216117,,-0.795654296875,29.3385105133,0.0
1661137923430222276,1720,1661137923430222276,,-0.890502929688,29.271396637,0.0
1661137923447263749,1721,1661137923447263749,,-1.16168212891,28.9376602173,0.0
1661137923447641306,1722,1661137923447641306,,-1.46966552734,28.6515369415,0.0
1661137923448143528,1723,1661137923448143528,,-2.03833007812,28.3987102509,0.0
1661137923450208708,1724,1661137923450208708,,-1.9560546875,28.122220993,0.0
1661137923455373195,1725,1661137923455373195,,-2.0823059082,27.5733375549,0.0
1661137923460210271,1726,1661137923460210271,,-1.79357910156,26.963848114,0.0
1661137923465219921,1727,1661137923465219921,,-1.42529296875,26.5201339722,0.0
1661137923470259185,1728,1661137923470259185,,-1.32666015625,26.2164211273,0.0
1661137923475249071,1729,1661137923475249071,,-1.28479003906,25.7731552124,0.0
1661137923480239516,1730,1661137923480239516,,-0.817138671875,25.8313694,0.0
1661137923491979964,1731,1661137923491979964,,-0.829681396484,25.715051651,0.0
1661137923492424149,1732,1661137923492424149,,-0.940856933594,25.493270874,0.0
1661137923495224678,1733,1661137923495224678,,-0.898193359375,25.4574832916,0.0
1661137923500265687,1734,1661137923500265687,,-0.871612548828,25.5797119141,0.0
1661137923505320944,1735,1661137923505320944,,-0.734954833984,25.7701740265,0.0
1661137923510237707,1736,1661137923510237707,,-0.957000732422,26.1443977356,0.0
1661137923515219771,1737,1661137923515219771,,-0.635681152344,26.5386676788,0.0
1661137923520289345,1738,1661137923520289345,,-0.362121582031,26.933008194,0.0
1661137923525241936,1739,1661137923525241936,,-0.155670166016,27.2724895477,0.0
1661137923532002765,1740,1661137923532002765,,-0.272155761719,27.8136062622,0.0
1661137923535140414,1741,1661137923535140414,,-0.404449462891,28.1462192535,0.0
1661137923540521965,1742,1661137923540521965,,-0.661956787109,28.460767746,0.0
1661137923545266153,1743,1661137923545266153,,-0.959320068359,29.4272727966,0.0
1661137923550147018,1744,1661137923550147018,,-1.98733520508,28.7294120789,0.0
1661137923555262826,1745,1661137923555262826,,-2.62942504883,28.4249286652,0.0
1661137923560236859,1746,1661137923560236859,,-3.22821044922,29.1519508362,0.0
1661137923565208586,1747,1661137923565208586,,-3.89544677734,29.391752243,0.0
1661137923572009294,1748,1661137923572009294,,-4.59622192383,29.2563819885,0.0
1661137923575418063,1749,1661137923575418063,,-4.8498840332,29.5199317932,0.0
1661137923580295017,1750,1661137923580295017,,-4.82446289062,29.7904376984,0.0
1661137923585128461,1751,1661137923585128461,,-4.97805786133,29.55352211,0.0
1661137923590231977,1752,1661137923590231977,,-5.06439208984,29.2428817749,0.0
1661137923595201889,1753,1661137923595201889,,-5.10815429688,28.9487628937,0.0
1661137923600202251,1754,1661137923600202251,,-5.16571044922,28.5732707977,0.0
1661137923615339037,1755,1661137923615339037,,-4.95590209961,27.891450882,0.0
1661137923615598075,1756,1661137923615598075,,-4.63626098633,27.0665683746,0.0
1661137923615879393,1757,1661137923615879393,,-4.40936279297,26.1884422302,0.0
1661137923620206912,1758,1661137923620206912,,-4.0615234375,24.9963264465,0.0
1661137923625272505,1759,1661137923625272505,,-3.78491210938,23.7492580414,0.0
1661137923630210011,1760,1661137923630210011,,-3.51583862305,23.1366615295,0.0
1661137923635120419,1761,1661137923635120419,,-3.12387084961,22.7588806152,0.0
1661137923640249357,1762,1661137923640249357,,-2.61212158203,22.5663013458,0.0
1661137923645208583,1763,1661137923645208583,,-2.04678344727,21.8165245056,0.0
1661137923655962396,1764,1661137923655962396,,-1.62658691406,21.1816291809,0.0
1661137923656417127,1765,1661137923656417127,,-1.08773803711,20.4475059509,0.0
1661137923660303605,1766,1661137923660303605,,-0.789886474609,19.922492981,0.0
1661137923665236571,1767,1661137923665236571,,-0.941040039062,19.5003738403,0.0
1661137923670102490,1768,1661137923670102490,,-1.30676269531,19.1455860138,0.0
1661137923675235060,1769,1661137923675235060,,-1.98519897461,18.896736145,0.0
1661137923680200153,1770,1661137923680200153,,-2.70043945312,18.4086780548,0.0
1661137923685129837,1771,1661137923685129837,,-3.51205444336,18.0246162415,0.0
1661137923699312184,1772,1661137923699312184,,-4.43392944336,17.9077091217,0.0
1661137923699603768,1773,1661137923699603768,,-5.33746337891,17.7129592896,0.0
1661137923700236242,1774,1661137923700236242,,-6.38757324219,17.2770175934,0.0
1661137923705373701,1775,1661137923705373701,,-6.95602416992,16.7947654724,0.0
1661137923710220624,1776,1661137923710220624,,-7.69473266602,16.2658519745,0.0
1661137923715223919,1777,1661137923715223919,,-8.0090637207,15.3586711884,0.0
1661137923720124549,1778,1661137923720124549,,-7.77828979492,14.8341703415,0.0
1661137923725234002,1779,1661137923725234002,,-7.49792480469,14.6002550125,0.0
1661137923730209850,1780,1661137923730209850,,-7.1750793457,13.8571281433,0.0
1661137923738459397,1781,1661137923738459397,,-6.44284057617,12.9518041611,0.0
1661137923740497619,1782,1661137923740497619,,-5.93389892578,12.141254425,0.0
1661137923745227768,1783,1661137923745227768,,-5.28967285156,11.0047416687,0.0
1661137923750259628,1784,1661137923750259628,,-4.68664550781,10.3028240204,0.0
1661137923755280943,1785,1661137923755280943,,-2.78164672852,5.27121829987,0.0
1661137923760255953,1786,1661137923760255953,,-1.53659057617,10.2251834869,0.0
1661137923765231940,1787,1661137923765231940,,-1.74026489258,11.6397476196,0.0
1661137923770131453,1788,1661137923770131453,,-1.75146484375,11.2448453903,0.0
1661137923779459544,1789,1661137923779459544,,-0.868499755859,8.5215549469,0.0
1661137923780673440,1790,1661137923780673440,,4.28228569031,6.15235090256,0.0
1661137923785254201,1791,1661137923785254201,,4.9351477623,9.16780757904,0.0
1661137923790277471,1792,1661137923790277471,,4.26693344116,10.6349000931,0.0
1661137923795216793,1793,1661137923795216793,,3.3733253479,8.78830623627,0.0
1661137923800250259,1794,1661137923800250259,,2.24136662483,6.61186742783,0.0
1661137923805280234,1795,1661137923805280234,,2.21037936211,5.66156959534,0.0
1661137923810238203,1796,1661137923810238203,,2.66249966621,5.59439468384,0.0
1661137923821165429,1797,1661137923821165429,,2.95938420296,5.62853384018,0.0
1661137923821484460,1798,1661137923821484460,,2.99223256111,5.73908567429,0.0
1661137923825334900,1799,1661137923825334900,,2.93712306023,5.97943115234,0.0
1661137923830259835,1800,1661137923830259835,,3.19087767601,6.1034860611,0.0
1661137923835195106,1801,1661137923835195106,,3.75943040848,5.90860748291,0.0
1661137923840267054,1802,1661137923840267054,,4.95448350906,5.75272703171,0.0
1661137923845193525,1803,1661137923845193525,,5.90524196625,5.76027917862,0.0
1661137923850223011,1804,1661137923850223011,,7.02214097977,5.47130298615,0.0
1661137923860554569,1805,1661137923860554569,,7.99535036087,5.43674898148,0.0
1661137923860893574,1806,1661137923860893574,,8.55717468262,5.39918088913,0.0
1661137923865259227,1807,1661137923865259227,,9.03257656097,5.2267537117,0.0
1661137923870159927,1808,1661137923870159927,,9.58786773682,5.0429019928,0.0
1661137923875254853,1809,1661137923875254853,,10.6593227386,4.49538612366,0.0
1661137923880232098,1810,1661137923880232098,,11.6988267899,4.09045028687,0.0
1661137923885153610,1811,1661137923885153610,,12.6712083817,4.14765977859,0.0
1661137923890264110,1812,1661137923890264110,,13.3505477905,4.47065448761,0.0
