%time,field.header.seq,field.header.stamp,field.header.frame_id,field.vector.x,field.vector.y,field.vector.z
1661312214842981256,30957,1661312214842981256,imu,-0.411936,-0.851113,0.009144
1661312214847953943,30958,1661312214847953943,imu,-0.411643,-0.852032,0.009468
1661312214852896178,30959,1661312214852896178,imu,-0.411897,-0.852348,0.009781
1661312214857976283,30960,1661312214857976283,imu,-0.411888,-0.852527,0.01004
1661312214862935141,30961,1661312214862935141,imu,-0.41178,-0.853052,0.010078
1661312214867871230,30962,1661312214867871230,imu,-0.411632,-0.852954,0.010127
1661312214872981856,30963,1661312214872981856,imu,-0.411559,-0.853501,0.010201
1661312214885352530,30964,1661312214885352530,imu,-0.411671,-0.85368,0.010422
1661312214885840035,30965,1661312214885840035,imu,-0.410758,-0.853571,0.010463
1661312214888002516,30966,1661312214888002516,imu,-0.41037,-0.853419,0.010572
1661312214893065300,30967,1661312214893065300,imu,-0.410208,-0.852999,0.010748
1661312214897901863,30968,1661312214897901863,imu,-0.411234,-0.853452,0.010946
1661312214902856809,30969,1661312214902856809,imu,-0.411837,-0.853339,0.011202
1661312214908001659,30970,1661312214908001659,imu,-0.411848,-0.853611,0.011227
1661312214913078901,30971,1661312214913078901,imu,-0.411098,-0.853778,0.0111
1661312214918056965,30972,1661312214918056965,imu,-0.410801,-0.854633,0.011019
1661312214930638216,30973,1661312214930638216,imu,-0.410937,-0.854955,0.010971
1661312214931057135,30974,1661312214931057135,imu,-0.411441,-0.854821,0.010897
1661312214932984105,30975,1661312214932984105,imu,-0.411851,-0.855167,0.010431
1661312214937926340,30976,1661312214937926340,imu,-0.411782,-0.855862,0.010447
1661312214942983537,30977,1661312214942983537,imu,-0.411259,-0.855355,0.010394
1661312214947913410,30978,1661312214947913410,imu,-0.410664,-0.855422,0.010437
1661312214952867239,30979,1661312214952867239,imu,-0.410394,-0.855524,0.010838
1661312214957984570,30980,1661312214957984570,imu,-0.410366,-0.855895,0.011052
1661312214962958584,30981,1661312214962958584,imu,-0.411096,-0.855129,0.011135
1661312214970898972,30982,1661312214970898972,imu,-0.411558,-0.855174,0.0109
1661312214973017173,30983,1661312214973017173,imu,-0.412112,-0.855603,0.010781
1661312214978086732,30984,1661312214978086732,imu,-0.4126,-0.856148,0.010948
1661312214983002985,30985,1661312214983002985,imu,-0.413264,-0.856238,0.010803
1661312214987947036,30986,1661312214987947036,imu,-0.413898,-0.856575,0.01042
1661312214992985376,30987,1661312214992985376,imu,-0.414385,-0.856983,0.010173
1661312214997950659,30988,1661312214997950659,imu,-0.415239,-0.857229,0.010205
1661312215002886887,30989,1661312215002886887,imu,-0.415488,-0.857069,0.01025
1661312215008430192,30990,1661312215008430192,imu,-0.414752,-0.857146,0.010105
1661312215013094592,30991,1661312215013094592,imu,-0.414331,-0.856313,0.010177
1661312215017907827,30992,1661312215017907827,imu,-0.414193,-0.85655,0.010346
1661312215022847409,30993,1661312215022847409,imu,-0.414569,-0.856539,0.010614
1661312215027983808,30994,1661312215027983808,imu,-0.414534,-0.856143,0.010423
1661312215032910120,30995,1661312215032910120,imu,-0.414579,-0.85615,0.010558
1661312215037873517,30996,1661312215037873517,imu,-0.415028,-0.856096,0.0106
1661312215051824182,30997,1661312215051824182,imu,-0.415229,-0.855658,0.010556
1661312215052171442,30998,1661312215052171442,imu,-0.415383,-0.855606,0.010429
1661312215053005648,30999,1661312215053005648,imu,-0.415296,-0.855589,0.010581
1661312215057879437,31000,1661312215057879437,imu,-0.415401,-0.855105,0.010971
1661312215063006966,31001,1661312215063006966,imu,-0.415207,-0.855265,0.011397
1661312215067922731,31002,1661312215067922731,imu,-0.415018,-0.855271,0.011513
1661312215073009612,31003,1661312215073009612,imu,-0.415223,-0.855393,0.011189
1661312215077979715,31004,1661312215077979715,imu,-0.41545,-0.854903,0.011342
1661312215082932776,31005,1661312215082932776,imu,-0.41541,-0.854487,0.011162
1661312215093377039,31006,1661312215093377039,imu,-0.415349,-0.853552,0.011196
1661312215093717804,31007,1661312215093717804,imu,-0.415783,-0.853439,0.011325
1661312215098056036,31008,1661312215098056036,imu,-0.41581,-0.852892,0.011061
1661312215102880307,31009,1661312215102880307,imu,-0.416102,-0.852458,0.010932
1661312215108021246,31010,1661312215108021246,imu,-0.41596,-0.852482,0.010647
1661312215112974447,31011,1661312215112974447,imu,-0.415501,-0.853262,0.010565
1661312215117942943,31012,1661312215117942943,imu,-0.415773,-0.853451,0.010758
1661312215122858988,31013,1661312215122858988,imu,-0.416393,-0.85346,0.010713
1661312215134604078,31014,1661312215134604078,imu,-0.416471,-0.852557,0.010775
1661312215134979415,31015,1661312215134979415,imu,-0.415438,-0.852935,0.010798
1661312215137939713,31016,1661312215137939713,imu,-0.415817,-0.852697,0.010385
1661312215143343262,31017,1661312215143343262,imu,-0.416034,-0.852626,0.010403
1661312215147973719,31018,1661312215147973719,imu,-0.416097,-0.85283,0.01031
1661312215152943682,31019,1661312215152943682,imu,-0.416137,-0.852727,0.010047
1661312215159250791,31020,1661312215159250791,imu,-0.416177,-0.852523,0.010315
1661312215162954639,31021,1661312215162954639,imu,-0.416436,-0.852745,0.010327
1661312215167903230,31022,1661312215167903230,imu,-0.416796,-0.852644,0.010087
1661312215175297726,31023,1661312215175297726,imu,-0.417233,-0.852738,0.009921
1661312215178036272,31024,1661312215178036272,imu,-0.417119,-0.853345,0.009976
1661312215183210317,31025,1661312215183210317,imu,-0.416535,-0.854127,0.009792
1661312215187876533,31026,1661312215187876533,imu,-0.41625,-0.854731,0.009828
1661312215192990512,31027,1661312215192990512,imu,-0.416547,-0.854691,0.010069
1661312215197957542,31028,1661312215197957542,imu,-0.416624,-0.854433,0.010119
1661312215202880012,31029,1661312215202880012,imu,-0.416585,-0.853724,0.009894
1661312215207834331,31030,1661312215207834331,imu,-0.416743,-0.853401,0.009722
1661312215217100132,31031,1661312215217100132,imu,-0.417438,-0.853156,0.009536
1661312215218001107,31032,1661312215218001107,imu,-0.417882,-0.853309,0.009631
1661312215222918758,31033,1661312215222918758,imu,-0.417817,-0.85379,0.009738
1661312215228037557,31034,1661312215228037557,imu,-0.417297,-0.853703,0.009787
1661312215232947246,31035,1661312215232947246,imu,-0.417343,-0.853814,0.009659
1661312215237893113,31036,1661312215237893113,imu,-0.418019,-0.853944,0.009911
1661312215243079031,31037,1661312215243079031,imu,-0.418157,-0.85363,0.009792
1661312215247949887,31038,1661312215247949887,imu,-0.418376,-0.852978,0.009574
1661312215255809677,31039,1661312215255809677,imu,-0.418272,-0.852906,0.009966
1661312215257934862,31040,1661312215257934862,imu,-0.418551,-0.853363,0.01
1661312215263073985,31041,1661312215263073985,imu,-0.418899,-0.85349,0.009681
1661312215267921583,31042,1661312215267921583,imu,-0.419031,-0.854121,0.009716
1661312215272878765,31043,1661312215272878765,imu,-0.41918,-0.85378,0.010134
1661312215277984853,31044,1661312215277984853,imu,-0.418601,-0.853769,0.010197
1661312215282935819,31045,1661312215282935819,imu,-0.418253,-0.853698,0.010221
1661312215287877426,31046,1661312215287877426,imu,-0.417871,-0.853849,0.010358
1661312215295323605,31047,1661312215295323605,imu,-0.417638,-0.854032,0.010648
1661312215298113347,31048,1661312215298113347,imu,-0.4177,-0.854463,0.011142
1661312215303023105,31049,1661312215303023105,imu,-0.417852,-0.854229,0.011187
1661312215307848982,31050,1661312215307848982,imu,-0.417805,-0.854322,0.011167
1661312215312997814,31051,1661312215312997814,imu,-0.417939,-0.854275,0.011011
1661312215317938722,31052,1661312215317938722,imu,-0.418161,-0.854397,0.011167
1661312215322912178,31053,1661312215322912178,imu,-0.417844,-0.853917,0.011343
1661312215327998849,31054,1661312215327998849,imu,-0.417412,-0.853589,0.011446
1661312215334676754,31055,1661312215334676754,imu,-0.417479,-0.853495,0.011335
1661312215337958541,31056,1661312215337958541,imu,-0.417747,-0.853815,0.011323
1661312215343077339,31057,1661312215343077339,imu,-0.417786,-0.854625,0.01166
1661312215348009448,31058,1661312215348009448,imu,-0.418362,-0.85499,0.011711
1661312215352951264,31059,1661312215352951264,imu,-0.418497,-0.855265,0.011803
1661312215357935615,31060,1661312215357935615,imu,-0.418354,-0.855691,0.011602
1661312215362979402,31061,1661312215362979402,imu,-0.418213,-0.855825,0.01159
1661312215367911231,31062,1661312215367911231,imu,-0.418112,-0.855463,0.011442
1661312215373563072,31063,1661312215373563072,imu,-0.41813,-0.855251,0.011357
1661312215378055449,31064,1661312215378055449,imu,-0.417846,-0.854524,0.011315
1661312215383202604,31065,1661312215383202604,imu,-0.417747,-0.854394,0.011204
1661312215387909049,31066,1661312215387909049,imu,-0.417168,-0.854712,0.011164
1661312215392866371,31067,1661312215392866371,imu,-0.416957,-0.85454,0.011233
1661312215397985589,31068,1661312215397985589,imu,-0.416575,-0.854533,0.011076
1661312215402911900,31069,1661312215402911900,imu,-0.416029,-0.854648,0.011189
1661312215412279113,31070,1661312215412279113,imu,-0.41495,-0.85493,0.011451
1661312215413265996,31071,1661312215413265996,imu,-0.414566,-0.855047,0.011483
1661312215418013788,31072,1661312215418013788,imu,-0.414373,-0.856197,0.011647
1661312215422946595,31073,1661312215422946595,imu,-0.414313,-0.855884,0.011635
1661312215428070911,31074,1661312215428070911,imu,-0.41432,-0.855369,0.011739
1661312215432981089,31075,1661312215432981089,imu,-0.414469,-0.855161,0.012159
1661312215437941973,31076,1661312215437941973,imu,-0.414502,-0.855544,0.012348
1661312215442878760,31077,1661312215442878760,imu,-0.414624,-0.855438,0.012104
1661312215452590021,31078,1661312215452590021,imu,-0.415703,-0.855328,0.011724
1661312215452995809,31079,1661312215452995809,imu,-0.415798,-0.855179,0.011638
1661312215457869668,31080,1661312215457869668,imu,-0.415955,-0.855479,0.011702
1661312215463043433,31081,1661312215463043433,imu,-0.416373,-0.855486,0.011906
1661312215467934264,31082,1661312215467934264,imu,-0.416401,-0.855139,0.011932
1661312215472900526,31083,1661312215472900526,imu,-0.416672,-0.855204,0.012154
1661312215478008080,31084,1661312215478008080,imu,-0.416325,-0.855286,0.012598
1661312215482962817,31085,1661312215482962817,imu,-0.416323,-0.855092,0.012608
1661312215494339276,31086,1661312215494339276,imu,-0.416726,-0.85496,0.012744
1661312215494678364,31087,1661312215494678364,imu,-0.416609,-0.854887,0.012944
1661312215498006736,31088,1661312215498006736,imu,-0.416527,-0.85507,0.012908
1661312215502988852,31089,1661312215502988852,imu,-0.416604,-0.855049,0.01256
1661312215507881918,31090,1661312215507881918,imu,-0.415784,-0.854916,0.01297
1661312215512989402,31091,1661312215512989402,imu,-0.415998,-0.855198,0.012975
1661312215517935200,31092,1661312215517935200,imu,-0.416076,-0.85513,0.01273
1661312215522909214,31093,1661312215522909214,imu,-0.415817,-0.854909,0.012932
1661312215527883507,31094,1661312215527883507,imu,-0.415211,-0.854552,0.013058
1661312215535386818,31095,1661312215535386818,imu,-0.414808,-0.854362,0.013258
1661312215537965913,31096,1661312215537965913,imu,-0.414952,-0.853502,0.013543
1661312215542898790,31097,1661312215542898790,imu,-0.414925,-0.853531,0.013617
1661312215548012840,31098,1661312215548012840,imu,-0.415107,-0.854237,0.01354
1661312215552955494,31099,1661312215552955494,imu,-0.415102,-0.854339,0.013676
1661312215560829812,31100,1661312215560829812,imu,-0.415186,-0.85498,0.013925
1661312215563267335,31101,1661312215563267335,imu,-0.415964,-0.855357,0.014288
1661312215567964351,31102,1661312215567964351,imu,-0.41671,-0.855201,0.014464
1661312215574419248,31103,1661312215574419248,imu,-0.416974,-0.855583,0.014576
1661312215577868798,31104,1661312215577868798,imu,-0.417093,-0.855653,0.014716
1661312215583049338,31105,1661312215583049338,imu,-0.41718,-0.855942,0.014548
1661312215587941845,31106,1661312215587941845,imu,-0.417382,-0.856758,0.014646
1661312215593365718,31107,1661312215593365718,imu,-0.416958,-0.85679,0.014707
1661312215598024600,31108,1661312215598024600,imu,-0.416484,-0.857049,0.014864
1661312215602960061,31109,1661312215602960061,imu,-0.416324,-0.857589,0.014467
1661312215607930863,31110,1661312215607930863,imu,-0.415813,-0.857747,0.01419
1661312215613708910,31111,1661312215613708910,imu,-0.415766,-0.857807,0.014103
1661312215618046863,31112,1661312215618046863,imu,-0.415421,-0.857161,0.013907
1661312215623028421,31113,1661312215623028421,imu,-0.415317,-0.856618,0.013862
1661312215627898578,31114,1661312215627898578,imu,-0.415587,-0.856245,0.013732
1661312215632979312,31115,1661312215632979312,imu,-0.415277,-0.856465,0.013709
1661312215637949345,31116,1661312215637949345,imu,-0.41522,-0.855998,0.013886
1661312215642949551,31117,1661312215642949551,imu,-0.415473,-0.855798,0.014215
1661312215648005211,31118,1661312215648005211,imu,-0.415005,-0.856686,0.014207
1661312215653074841,31119,1661312215653074841,imu,-0.414777,-0.857178,0.014103
1661312215657999127,31120,1661312215657999127,imu,-0.414218,-0.857444,0.01394
1661312215663060724,31121,1661312215663060724,imu,-0.414766,-0.857342,0.013906
1661312215667965104,31122,1661312215667965104,imu,-0.414433,-0.856985,0.014241
1661312215672949316,31123,1661312215672949316,imu,-0.414562,-0.856633,0.014398
1661312215677868922,31124,1661312215677868922,imu,-0.414661,-0.856362,0.014235
1661312215682967955,31125,1661312215682967955,imu,-0.414666,-0.856016,0.01418
1661312215697004597,31126,1661312215697004597,imu,-0.41495,-0.855528,0.014181
1661312215697323151,31127,1661312215697323151,imu,-0.415396,-0.855177,0.014135
1661312215698091495,31128,1661312215698091495,imu,-0.415415,-0.855274,0.014114
1661312215703025279,31129,1661312215703025279,imu,-0.415188,-0.855079,0.014224
1661312215707987280,31130,1661312215707987280,imu,-0.415204,-0.855042,0.014466
1661312215713034700,31131,1661312215713034700,imu,-0.415892,-0.854176,0.014424
1661312215718069896,31132,1661312215718069896,imu,-0.416606,-0.853963,0.01443
1661312215723022608,31133,1661312215723022608,imu,-0.41685,-0.853578,0.014589
1661312215727930621,31134,1661312215727930621,imu,-0.417268,-0.853852,0.014356
1661312215733036219,31135,1661312215733036219,imu,-0.417674,-0.853706,0.014424
1661312215738918473,31136,1661312215738918473,imu,-0.417689,-0.853551,0.013912
1661312215742994165,31137,1661312215742994165,imu,-0.417865,-0.853462,0.013547
1661312215748096271,31138,1661312215748096271,imu,-0.417809,-0.853381,0.013568
1661312215752975439,31139,1661312215752975439,imu,-0.417178,-0.853364,0.013698
1661312215757932202,31140,1661312215757932202,imu,-0.416796,-0.853725,0.014052
1661312215762863053,31141,1661312215762863053,imu,-0.416443,-0.854039,0.013926
1661312215767965159,31142,1661312215767965159,imu,-0.416419,-0.85459,0.013889
1661312215772966831,31143,1661312215772966831,imu,-0.416616,-0.854723,0.014357
1661312215782991966,31144,1661312215782991966,imu,-0.417135,-0.855149,0.014893
1661312215783377709,31145,1661312215783377709,imu,-0.41676,-0.855244,0.014717
1661312215788079615,31146,1661312215788079615,imu,-0.416583,-0.855268,0.014983
1661312215792911568,31147,1661312215792911568,imu,-0.416517,-0.855149,0.015226
1661312215798045383,31148,1661312215798045383,imu,-0.416712,-0.855025,0.015429
1661312215802967294,31149,1661312215802967294,imu,-0.416584,-0.85516,0.015566
1661312215807927759,31150,1661312215807927759,imu,-0.416085,-0.855306,0.01568
1661312215812906941,31151,1661312215812906941,imu,-0.415667,-0.855689,0.01553
1661312215823814963,31152,1661312215823814963,imu,-0.415814,-0.855974,0.015299
1661312215824091122,31153,1661312215824091122,imu,-0.41587,-0.8559,0.015663
1661312215828010995,31154,1661312215828010995,imu,-0.416531,-0.855754,0.015871
1661312215833084396,31155,1661312215833084396,imu,-0.416749,-0.856126,0.016123
1661312215838160660,31156,1661312215838160660,imu,-0.416923,-0.856121,0.016318
1661312215842879188,31157,1661312215842879188,imu,-0.417551,-0.856515,0.016132
1661312215848006019,31158,1661312215848006019,imu,-0.417389,-0.856656,0.015999
1661312215853003291,31159,1661312215853003291,imu,-0.418156,-0.856859,0.01594
1661312215857925062,31160,1661312215857925062,imu,-0.41944,-0.85668,0.015966
1661312215866020224,31161,1661312215866020224,imu,-0.419739,-0.856581,0.015771
1661312215868027234,31162,1661312215868027234,imu,-0.419984,-0.856603,0.015599
1661312215873077168,31163,1661312215873077168,imu,-0.420682,-0.856073,0.015538
1661312215877996355,31164,1661312215877996355,imu,-0.421205,-0.855518,0.015521
1661312215883013043,31165,1661312215883013043,imu,-0.421072,-0.855453,0.015532
1661312215887974486,31166,1661312215887974486,imu,-0.420519,-0.855837,0.015757
1661312215892898911,31167,1661312215892898911,imu,-0.420012,-0.855628,0.01542
1661312215903286532,31168,1661312215903286532,imu,-0.419755,-0.856002,0.015639
1661312215903780043,31169,1661312215903780043,imu,-0.419422,-0.856194,0.015662
1661312215908160112,31170,1661312215908160112,imu,-0.418738,-0.85601,0.015752
1661312215912975931,31171,1661312215912975931,imu,-0.41858,-0.856041,0.015839
1661312215918038017,31172,1661312215918038017,imu,-0.418561,-0.855858,0.015778
1661312215922965935,31173,1661312215922965935,imu,-0.417694,-0.855848,0.015363
1661312215927900977,31174,1661312215927900977,imu,-0.417406,-0.85594,0.015589
1661312215933024176,31175,1661312215933024176,imu,-0.417758,-0.856434,0.016089
1661312215942926596,31176,1661312215942926596,imu,-0.418361,-0.856585,0.016034
1661312215943171257,31177,1661312215943171257,imu,-0.418137,-0.857033,0.016365
1661312215948068793,31178,1661312215948068793,imu,-0.418102,-0.857227,0.016348
1661312215953048464,31179,1661312215953048464,imu,-0.418474,-0.857442,0.016413
1661312215958301920,31180,1661312215958301920,imu,-0.418577,-0.857651,0.016201
1661312215962900528,31181,1661312215962900528,imu,-0.418663,-0.857538,0.015833
1661312215968008082,31182,1661312215968008082,imu,-0.418611,-0.858143,0.015705
1661312215972959956,31183,1661312215972959956,imu,-0.418456,-0.858628,0.015906
1661312215986542408,31184,1661312215986542408,imu,-0.4187,-0.85914,0.01571
1661312215986860893,31185,1661312215986860893,imu,-0.418717,-0.8595,0.015853
1661312215987971467,31186,1661312215987971467,imu,-0.417771,-0.859253,0.016003
1661312215992952605,31187,1661312215992952605,imu,-0.417881,-0.859134,0.016185
1661312215998016438,31188,1661312215998016438,imu,-0.41751,-0.859534,0.016538
1661312216003014687,31189,1661312216003014687,imu,-0.417685,-0.859797,0.016454
1661312216007975641,31190,1661312216007975641,imu,-0.417917,-0.859605,0.01646
1661312216012918226,31191,1661312216012918226,imu,-0.41787,-0.859903,0.016159
1661312216018036397,31192,1661312216018036397,imu,-0.417682,-0.85955,0.015915
1661312216028696616,31193,1661312216028696616,imu,-0.416824,-0.859193,0.015878
1661312216029034936,31194,1661312216029034936,imu,-0.416577,-0.858597,0.015782
1661312216033070818,31195,1661312216033070818,imu,-0.416295,-0.858002,0.015499
1661312216038048115,31196,1661312216038048115,imu,-0.416468,-0.857619,0.015216
1661312216042940763,31197,1661312216042940763,imu,-0.41586,-0.858335,0.014846
1661312216047865538,31198,1661312216047865538,imu,-0.415284,-0.858761,0.01496
1661312216052994255,31199,1661312216052994255,imu,-0.414973,-0.858408,0.015183
1661312216058145950,31200,1661312216058145950,imu,-0.414641,-0.858312,0.015116
1661312216062906175,31201,1661312216062906175,imu,-0.414103,-0.858985,0.015164
1661312216070614825,31202,1661312216070614825,imu,-0.413849,-0.859134,0.01493
1661312216073346458,31203,1661312216073346458,imu,-0.413014,-0.858686,0.014685
1661312216078057444,31204,1661312216078057444,imu,-0.413036,-0.858553,0.014269
1661312216083035928,31205,1661312216083035928,imu,-0.412778,-0.858031,0.014311
1661312216087968526,31206,1661312216087968526,imu,-0.413084,-0.857888,0.014558
1661312216092929619,31207,1661312216092929619,imu,-0.412859,-0.858543,0.014732
1661312216097879398,31208,1661312216097879398,imu,-0.413177,-0.858599,0.014628
1661312216103069926,31209,1661312216103069926,imu,-0.412706,-0.8587,0.014811
1661312216112724475,31210,1661312216112724475,imu,-0.413245,-0.85848,0.014601
1661312216113221688,31211,1661312216113221688,imu,-0.413627,-0.858916,0.014478
1661312216118112170,31212,1661312216118112170,imu,-0.413905,-0.85899,0.014699
1661312216122995598,31213,1661312216122995598,imu,-0.414222,-0.85798,0.014764
1661312216127989518,31214,1661312216127989518,imu,-0.41462,-0.858391,0.015084
1661312216133052443,31215,1661312216133052443,imu,-0.415048,-0.858216,0.014868
1661312216137997542,31216,1661312216137997542,imu,-0.415155,-0.857744,0.014801
1661312216142938521,31217,1661312216142938521,imu,-0.415892,-0.858199,0.014678
1661312216165680126,31218,1661312216165680126,imu,-0.416684,-0.858178,0.015035
1661312216166749982,31219,1661312216166749982,imu,-0.417552,-0.858248,0.015682
1661312216167069095,31220,1661312216167069095,imu,-0.417968,-0.858714,0.015892
1661312216167269964,31221,1661312216167269964,imu,-0.418699,-0.858471,0.015527
1661312216168123656,31222,1661312216168123656,imu,-0.419605,-0.858526,0.0156
1661312216172978588,31223,1661312216172978588,imu,-0.419757,-0.858423,0.015949
1661312216178568967,31224,1661312216178568967,imu,-0.419802,-0.858586,0.016355
1661312216182894279,31225,1661312216182894279,imu,-0.420118,-0.858572,0.016161
1661312216188052121,31226,1661312216188052121,imu,-0.420161,-0.858597,0.016912
1661312216203947079,31227,1661312216203947079,imu,-0.420282,-0.858758,0.017228
1661312216204252922,31228,1661312216204252922,imu,-0.420418,-0.859141,0.017061
1661312216204588727,31229,1661312216204588727,imu,-0.420059,-0.859202,0.017108
1661312216207968015,31230,1661312216207968015,imu,-0.419899,-0.859004,0.017108
1661312216212922543,31231,1661312216212922543,imu,-0.419807,-0.858966,0.017167
1661312216218047977,31232,1661312216218047977,imu,-0.419638,-0.859079,0.017495
1661312216223005649,31233,1661312216223005649,imu,-0.419747,-0.859016,0.017271
1661312216227930005,31234,1661312216227930005,imu,-0.419901,-0.859158,0.01725
1661312216232968345,31235,1661312216232968345,imu,-0.419829,-0.859418,0.017264
1661312216239632073,31236,1661312216239632073,imu,-0.419541,-0.859849,0.017386
1661312216242965962,31237,1661312216242965962,imu,-0.419488,-0.860242,0.017365
1661312216247922167,31238,1661312216247922167,imu,-0.41965,-0.85992,0.016958
1661312216253052979,31239,1661312216253052979,imu,-0.41996,-0.860024,0.016766
1661312216258003736,31240,1661312216258003736,imu,-0.420238,-0.860208,0.016459
1661312216262939127,31241,1661312216262939127,imu,-0.420256,-0.859764,0.016567
1661312216268048009,31242,1661312216268048009,imu,-0.420471,-0.859364,0.016256
1661312216273184688,31243,1661312216273184688,imu,-0.420406,-0.858144,0.015997
1661312216282320232,31244,1661312216282320232,imu,-0.420264,-0.857469,0.016214
1661312216282898184,31245,1661312216282898184,imu,-0.419947,-0.857714,0.016389
1661312216288043454,31246,1661312216288043454,imu,-0.419968,-0.858148,0.016695
1661312216292988344,31247,1661312216292988344,imu,-0.420002,-0.858931,0.016676
1661312216297900058,31248,1661312216297900058,imu,-0.419406,-0.859503,0.016998
1661312216304879337,31249,1661312216304879337,imu,-0.419522,-0.859332,0.016886
1661312216308001253,31250,1661312216308001253,imu,-0.419409,-0.859098,0.016368
1661312216312930289,31251,1661312216312930289,imu,-0.419283,-0.859262,0.016259
1661312216319514256,31252,1661312216319514256,imu,-0.419367,-0.859406,0.016111
1661312216322998169,31253,1661312216322998169,imu,-0.419224,-0.859421,0.016323
1661312216327984126,31254,1661312216327984126,imu,-0.418197,-0.85942,0.016052
1661312216332937397,31255,1661312216332937397,imu,-0.417507,-0.859784,0.015994
1661312216338114097,31256,1661312216338114097,imu,-0.417079,-0.860946,0.016481
1661312216343014008,31257,1661312216343014008,imu,-0.416867,-0.860962,0.016545
1661312216347907423,31258,1661312216347907423,imu,-0.416218,-0.860756,0.016544
1661312216353034673,31259,1661312216353034673,imu,-0.41636,-0.860958,0.017059
1661312216358963164,31260,1661312216358963164,imu,-0.416436,-0.860677,0.017408
1661312216363038647,31261,1661312216363038647,imu,-0.416313,-0.860785,0.01737
1661312216367931015,31262,1661312216367931015,imu,-0.415634,-0.861124,0.017226
1661312216373012169,31263,1661312216373012169,imu,-0.41562,-0.861137,0.017513
1661312216378084592,31264,1661312216378084592,imu,-0.4161,-0.860963,0.017239
1661312216383420953,31265,1661312216383420953,imu,-0.416144,-0.86047,0.017304
1661312216388118598,31266,1661312216388118598,imu,-0.416699,-0.859933,0.01706
1661312216393034643,31267,1661312216393034643,imu,-0.416779,-0.859582,0.01719
1661312216398647372,31268,1661312216398647372,imu,-0.417035,-0.858981,0.017238
1661312216402958716,31269,1661312216402958716,imu,-0.417408,-0.858274,0.017281
1661312216408209030,31270,1661312216408209030,imu,-0.417517,-0.858138,0.01739
1661312216412927907,31271,1661312216412927907,imu,-0.418257,-0.857823,0.017226
1661312216418091127,31272,1661312216418091127,imu,-0.418614,-0.857767,0.017271
1661312216423000187,31273,1661312216423000187,imu,-0.418709,-0.85762,0.017096
1661312216427969383,31274,1661312216427969383,imu,-0.419066,-0.857538,0.017428
1661312216432991938,31275,1661312216432991938,imu,-0.419609,-0.857736,0.017274
1661312216443616328,31276,1661312216443616328,imu,-0.41888,-0.857818,0.017533
1661312216443961632,31277,1661312216443961632,imu,-0.418554,-0.857972,0.017232
1661312216448035299,31278,1661312216448035299,imu,-0.418771,-0.858472,0.016847
1661312216453136568,31279,1661312216453136568,imu,-0.418658,-0.858865,0.016599
1661312216457982420,31280,1661312216457982420,imu,-0.418489,-0.858434,0.016471
1661312216462930453,31281,1661312216462930453,imu,-0.41838,-0.85758,0.016408
1661312216467916271,31282,1661312216467916271,imu,-0.41856,-0.858009,0.016291
1661312216473032277,31283,1661312216473032277,imu,-0.418531,-0.857859,0.015975
1661312216478028222,31284,1661312216478028222,imu,-0.418555,-0.857649,0.01618
1661312216486719634,31285,1661312216486719634,imu,-0.41794,-0.858045,0.016271
1661312216488045605,31286,1661312216488045605,imu,-0.417613,-0.85776,0.016098
1661312216493105317,31287,1661312216493105317,imu,-0.417719,-0.857892,0.016217
1661312216497984764,31288,1661312216497984764,imu,-0.417833,-0.857771,0.016074
1661312216502882021,31289,1661312216502882021,imu,-0.417509,-0.857893,0.016079
1661312216511608425,31290,1661312216511608425,imu,-0.41778,-0.857966,0.015698
1661312216512988874,31291,1661312216512988874,imu,-0.417928,-0.857806,0.015709
1661312216517906315,31292,1661312216517906315,imu,-0.417921,-0.857618,0.015774
1661312216526073136,31293,1661312216526073136,imu,-0.418175,-0.857211,0.015603
1661312216527972309,31294,1661312216527972309,imu,-0.417827,-0.856969,0.015839
1661312216533022383,31295,1661312216533022383,imu,-0.418242,-0.857049,0.015815
1661312216538086705,31296,1661312216538086705,imu,-0.418994,-0.856918,0.015846
1661312216542965244,31297,1661312216542965244,imu,-0.419165,-0.856852,0.015672
1661312216547923334,31298,1661312216547923334,imu,-0.419235,-0.856433,0.01579
1661312216552892040,31299,1661312216552892040,imu,-0.41852,-0.856447,0.015906
1661312216558012586,31300,1661312216558012586,imu,-0.418203,-0.856492,0.015993
1661312216566450188,31301,1661312216566450188,imu,-0.41823,-0.857011,0.015981
1661312216567970812,31302,1661312216567970812,imu,-0.418916,-0.856725,0.01589
1661312216573115174,31303,1661312216573115174,imu,-0.419321,-0.85688,0.015827
1661312216577969966,31304,1661312216577969966,imu,-0.419623,-0.857214,0.015984
1661312216582967867,31305,1661312216582967867,imu,-0.419999,-0.856533,0.015853
1661312216588585835,31306,1661312216588585835,imu,-0.419881,-0.856618,0.01562
1661312216593062846,31307,1661312216593062846,imu,-0.41939,-0.856951,0.015954
1661312216598141136,31308,1661312216598141136,imu,-0.419561,-0.856932,0.015914
1661312216606165128,31309,1661312216606165128,imu,-0.42007,-0.856526,0.015964
1661312216608022675,31310,1661312216608022675,imu,-0.420063,-0.856801,0.016347
1661312216613929094,31311,1661312216613929094,imu,-0.420476,-0.85657,0.016352
1661312216617939833,31312,1661312216617939833,imu,-0.420493,-0.85652,0.016425
1661312216623005831,31313,1661312216623005831,imu,-0.420777,-0.856486,0.0164
1661312216630767073,31314,1661312216630767073,imu,-0.420845,-0.85668,0.016328
1661312216632922710,31315,1661312216632922710,imu,-0.42088,-0.856349,0.016305
1661312216637873606,31316,1661312216637873606,imu,-0.420828,-0.856438,0.016378
1661312216649696154,31317,1661312216649696154,imu,-0.420115,-0.856681,0.016144
1661312216649913087,31318,1661312216649913087,imu,-0.420034,-0.856447,0.016209
1661312216653066921,31319,1661312216653066921,imu,-0.419907,-0.856238,0.016336
1661312216658097019,31320,1661312216658097019,imu,-0.419606,-0.855848,0.016097
1661312216662960332,31321,1661312216662960332,imu,-0.419586,-0.856272,0.015948
1661312216667925198,31322,1661312216667925198,imu,-0.419721,-0.856078,0.016344
1661312216673603580,31323,1661312216673603580,imu,-0.419941,-0.855614,0.016257
1661312216678741167,31324,1661312216678741167,imu,-0.419836,-0.855992,0.015925
1661312216682927142,31325,1661312216682927142,imu,-0.419683,-0.855658,0.015527
1661312216687889492,31326,1661312216687889492,imu,-0.420309,-0.855514,0.015493
1661312216693008850,31327,1661312216693008850,imu,-0.421055,-0.855272,0.015551
1661312216697966103,31328,1661312216697966103,imu,-0.421371,-0.855218,0.016052
1661312216703813016,31329,1661312216703813016,imu,-0.421855,-0.855912,0.015912
1661312216708038522,31330,1661312216708038522,imu,-0.421731,-0.855901,0.015911
1661312216712958478,31331,1661312216712958478,imu,-0.421583,-0.855094,0.016157
1661312216717917057,31332,1661312216717917057,imu,-0.42106,-0.855632,0.016551
1661312216726209107,31333,1661312216726209107,imu,-0.420393,-0.855727,0.016645
1661312216727980048,31334,1661312216727980048,imu,-0.420403,-0.855776,0.016618
1661312216733036408,31335,1661312216733036408,imu,-0.420415,-0.85564,0.016919
1661312216737949868,31336,1661312216737949868,imu,-0.420121,-0.855544,0.017053
1661312216743004342,31337,1661312216743004342,imu,-0.419896,-0.855604,0.016838
1661312216747953213,31338,1661312216747953213,imu,-0.419731,-0.855491,0.016946
1661312216752909488,31339,1661312216752909488,imu,-0.419273,-0.855735,0.01711
1661312216758039392,31340,1661312216758039392,imu,-0.41862,-0.856227,0.017159
1661312216766856871,31341,1661312216766856871,imu,-0.418021,-0.856933,0.017121
1661312216767967865,31342,1661312216767967865,imu,-0.417924,-0.85672,0.016948
1661312216773155948,31343,1661312216773155948,imu,-0.417808,-0.856647,0.016801
1661312216778000614,31344,1661312216778000614,imu,-0.417529,-0.857262,0.017027
1661312216782944945,31345,1661312216782944945,imu,-0.417645,-0.857061,0.017058
1661312216787902057,31346,1661312216787902057,imu,-0.417323,-0.85725,0.017192
1661312216793005212,31347,1661312216793005212,imu,-0.416766,-0.856903,0.017078
1661312216797947308,31348,1661312216797947308,imu,-0.41687,-0.857018,0.017275
1661312216809267823,31349,1661312216809267823,imu,-0.416789,-0.857111,0.017587
1661312216809574225,31350,1661312216809574225,imu,-0.416689,-0.856828,0.017531
1661312216813199779,31351,1661312216813199779,imu,-0.416583,-0.856866,0.017353
1661312216817975579,31352,1661312216817975579,imu,-0.416002,-0.857124,0.01749
1661312216823114493,31353,1661312216823114493,imu,-0.414383,-0.85682,0.017741
1661312216828022017,31354,1661312216828022017,imu,-0.414163,-0.856364,0.018107
1661312216833020197,31355,1661312216833020197,imu,-0.414605,-0.855745,0.018189
1661312216837907467,31356,1661312216837907467,imu,-0.414445,-0.85535,0.018037
1661312216848068238,31357,1661312216848068238,imu,-0.414376,-0.855417,0.018085
1661312216848458731,31358,1661312216848458731,imu,-0.414276,-0.855618,0.018624
1661312216852974225,31359,1661312216852974225,imu,-0.414355,-0.855018,0.019213
1661312216858047347,31360,1661312216858047347,imu,-0.414766,-0.854954,0.019634
1661312216862976383,31361,1661312216862976383,imu,-0.414356,-0.854962,0.01972
1661312216871762712,31362,1661312216871762712,imu,-0.413088,-0.854408,0.01941
1661312216872956679,31363,1661312216872956679,imu,-0.412343,-0.854852,0.019307
1661312216878061300,31364,1661312216878061300,imu,-0.412612,-0.855464,0.019492
1661312216883052776,31365,1661312216883052776,imu,-0.412328,-0.855544,0.019314
1661312216890421570,31366,1661312216890421570,imu,-0.412076,-0.855993,0.019234
1661312216893059962,31367,1661312216893059962,imu,-0.411738,-0.856199,0.019262
1661312216899900533,31368,1661312216899900533,imu,-0.411014,-0.856705,0.019075
1661312216902982638,31369,1661312216902982638,imu,-0.410288,-0.857674,0.019212
1661312216908069309,31370,1661312216908069309,imu,-0.409554,-0.858798,0.019385
1661312216912986332,31371,1661312216912986332,imu,-0.409223,-0.859428,0.019639
1661312216917988144,31372,1661312216917988144,imu,-0.408841,-0.859723,0.01973
1661312216922905586,31373,1661312216922905586,imu,-0.408158,-0.860303,0.019751
1661312216934271150,31374,1661312216934271150,imu,-0.408488,-0.860317,0.01984
1661312216934815786,31375,1661312216934815786,imu,-0.408207,-0.860594,0.019798
1661312216938008174,31376,1661312216938008174,imu,-0.407991,-0.860695,0.019538
1661312216943115868,31377,1661312216943115868,imu,-0.408077,-0.861082,0.019681
1661312216947990915,31378,1661312216947990915,imu,-0.408117,-0.861671,0.020171
1661312216952920928,31379,1661312216952920928,imu,-0.408527,-0.861716,0.020305
1661312216958071227,31380,1661312216958071227,imu,-0.409408,-0.861224,0.020398
1661312216963034136,31381,1661312216963034136,imu,-0.409574,-0.861037,0.020526
1661312216968355899,31382,1661312216968355899,imu,-0.40896,-0.861154,0.020547
1661312216973143223,31383,1661312216973143223,imu,-0.408698,-0.861648,0.020794
1661312216978022810,31384,1661312216978022810,imu,-0.408498,-0.861752,0.021145
1661312216982987116,31385,1661312216982987116,imu,-0.408558,-0.86177,0.021333
1661312216987920552,31386,1661312216987920552,imu,-0.408899,-0.861391,0.021139
1661312216993051364,31387,1661312216993051364,imu,-0.40937,-0.861708,0.020572
1661312216998002750,31388,1661312216998002750,imu,-0.409142,-0.861459,0.020568
1661312217002976415,31389,1661312217002976415,imu,-0.408393,-0.861114,0.02074
1661312217015752112,31390,1661312217015752112,imu,-0.407524,-0.86179,0.020837
1661312217016168656,31391,1661312217016168656,imu,-0.407537,-0.862644,0.02096
1661312217017966697,31392,1661312217017966697,imu,-0.408109,-0.862604,0.020857
1661312217023023755,31393,1661312217023023755,imu,-0.408071,-0.86253,0.020854
1661312217028043028,31394,1661312217028043028,imu,-0.407143,-0.862337,0.021076
1661312217032993855,31395,1661312217032993855,imu,-0.40697,-0.861765,0.02116
1661312217037945311,31396,1661312217037945311,imu,-0.407272,-0.861056,0.021385
1661312217043041970,31397,1661312217043041970,imu,-0.407556,-0.860627,0.021321
1661312217047999153,31398,1661312217047999153,imu,-0.407583,-0.85998,0.021343
1661312217059036316,31399,1661312217059036316,imu,-0.407409,-0.85956,0.021184
1661312217059707019,31400,1661312217059707019,imu,-0.407365,-0.859262,0.021176
1661312217063079881,31401,1661312217063079881,imu,-0.407191,-0.860031,0.021403
1661312217068072824,31402,1661312217068072824,imu,-0.407138,-0.86012,0.021379
1661312217072936487,31403,1661312217072936487,imu,-0.406816,-0.860735,0.021216
1661312217078073935,31404,1661312217078073935,imu,-0.40624,-0.861465,0.021442
1661312217082963439,31405,1661312217082963439,imu,-0.405532,-0.861349,0.021583
1661312217087954077,31406,1661312217087954077,imu,-0.404439,-0.860997,0.021484
1661312217093062749,31407,1661312217093062749,imu,-0.404368,-0.860491,0.021016
1661312217098251113,31408,1661312217098251113,imu,-0.404364,-0.860386,0.02064
1661312217103049612,31409,1661312217103049612,imu,-0.404082,-0.860378,0.020876
1661312217107905522,31410,1661312217107905522,imu,-0.404096,-0.860149,0.020829
1661312217113030189,31411,1661312217113030189,imu,-0.403878,-0.859749,0.02108
1661312217118185796,31412,1661312217118185796,imu,-0.404551,-0.859298,0.021252
1661312217122929049,31413,1661312217122929049,imu,-0.404744,-0.858731,0.021169
1661312217128027734,31414,1661312217128027734,imu,-0.404746,-0.858545,0.021088
1661312217138771347,31415,1661312217138771347,imu,-0.404469,-0.858618,0.021217
1661312217139346923,31416,1661312217139346923,imu,-0.404039,-0.85904,0.02166
1661312217143134654,31417,1661312217143134654,imu,-0.404162,-0.858839,0.021709
1661312217148092255,31418,1661312217148092255,imu,-0.404312,-0.858612,0.021694
1661312217152953194,31419,1661312217152953194,imu,-0.404166,-0.85912,0.021724
1661312217157970582,31420,1661312217157970582,imu,-0.404509,-0.858687,0.022202
1661312217163036091,31421,1661312217163036091,imu,-0.404782,-0.858126,0.022714
1661312217167973578,31422,1661312217167973578,imu,-0.404841,-0.858165,0.022714
1661312217177352946,31423,1661312217177352946,imu,-0.404789,-0.858013,0.022491
1661312217178420358,31424,1661312217178420358,imu,-0.404878,-0.857742,0.022551
1661312217183062827,31425,1661312217183062827,imu,-0.405443,-0.858092,0.022668
1661312217187985228,31426,1661312217187985228,imu,-0.405985,-0.858138,0.022606
1661312217193053671,31427,1661312217193053671,imu,-0.406341,-0.858624,0.022296
1661312217198016092,31428,1661312217198016092,imu,-0.406323,-0.858703,0.022349
1661312217202979491,31429,1661312217202979491,imu,-0.40593,-0.858735,0.022205
1661312217207901403,31430,1661312217207901403,imu,-0.405725,-0.858445,0.02211
1661312217220122197,31431,1661312217220122197,imu,-0.405924,-0.85772,0.022097
1661312217220705806,31432,1661312217220705806,imu,-0.406091,-0.857393,0.021945
1661312217222981014,31433,1661312217222981014,imu,-0.406008,-0.857827,0.022028
1661312217229019088,31434,1661312217229019088,imu,-0.405604,-0.857878,0.022114
1661312217233176498,31435,1661312217233176498,imu,-0.406018,-0.856995,0.022425
1661312217238015925,31436,1661312217238015925,imu,-0.405701,-0.856968,0.022189
1661312217242920097,31437,1661312217242920097,imu,-0.405734,-0.857139,0.02187
1661312217248038478,31438,1661312217248038478,imu,-0.406118,-0.856312,0.021725
1661312217252969190,31439,1661312217252969190,imu,-0.406185,-0.855842,0.022252
1661312217258925129,31440,1661312217258925129,imu,-0.40618,-0.855554,0.022315
1661312217263141556,31441,1661312217263141556,imu,-0.406203,-0.855554,0.022669
1661312217268215167,31442,1661312217268215167,imu,-0.40644,-0.856143,0.022563
1661312217272927270,31443,1661312217272927270,imu,-0.406524,-0.856296,0.022195
1661312217278061505,31444,1661312217278061505,imu,-0.406635,-0.856485,0.022416
1661312217282991030,31445,1661312217282991030,imu,-0.406305,-0.856061,0.022566
1661312217287958410,31446,1661312217287958410,imu,-0.405928,-0.855925,0.022807
1661312217298087753,31447,1661312217298087753,imu,-0.405302,-0.856442,0.023111
1661312217298340585,31448,1661312217298340585,imu,-0.405331,-0.857303,0.023097
1661312217302975791,31449,1661312217302975791,imu,-0.40526,-0.857607,0.023348
1661312217307982353,31450,1661312217307982353,imu,-0.404698,-0.857749,0.02344
1661312217313071678,31451,1661312217313071678,imu,-0.404257,-0.857783,0.023349
1661312217318046462,31452,1661312217318046462,imu,-0.404151,-0.858201,0.023138
1661312217323010279,31453,1661312217323010279,imu,-0.403485,-0.858525,0.023204
1661312217328045407,31454,1661312217328045407,imu,-0.403853,-0.858363,0.023237
1661312217335929644,31455,1661312217335929644,imu,-0.40338,-0.858384,0.023209
1661312217337974021,31456,1661312217337974021,imu,-0.403102,-0.858485,0.022807
1661312217345277512,31457,1661312217345277512,imu,-0.4025,-0.858708,0.022609
1661312217348015990,31458,1661312217348015990,imu,-0.402592,-0.858759,0.022498
1661312217352965420,31459,1661312217352965420,imu,-0.402768,-0.859242,0.022701
1661312217357958362,31460,1661312217357958362,imu,-0.402695,-0.859433,0.022896
1661312217363054183,31461,1661312217363054183,imu,-0.402476,-0.859307,0.02306
1661312217367968343,31462,1661312217367968343,imu,-0.402722,-0.859356,0.022922
1661312217375030177,31463,1661312217375030177,imu,-0.402529,-0.859038,0.022669
1661312217378069259,31464,1661312217378069259,imu,-0.401868,-0.858821,0.022611
1661312217383085739,31465,1661312217383085739,imu,-0.401652,-0.858873,0.022755
1661312217388071906,31466,1661312217388071906,imu,-0.401585,-0.858863,0.022966
1661312217392931239,31467,1661312217392931239,imu,-0.401952,-0.859056,0.02298
1661312217398048782,31468,1661312217398048782,imu,-0.402063,-0.858794,0.023076
1661312217403032994,31469,1661312217403032994,imu,-0.40176,-0.859121,0.022637
1661312217407936956,31470,1661312217407936956,imu,-0.401748,-0.859004,0.022251
1661312217416274684,31471,1661312217416274684,imu,-0.401118,-0.858533,0.022128
1661312217418035358,31472,1661312217418035358,imu,-0.400703,-0.858171,0.022092
1661312217424562124,31473,1661312217424562124,imu,-0.400474,-0.857551,0.022123
1661312217427965299,31474,1661312217427965299,imu,-0.400649,-0.857519,0.021828
1661312217433041354,31475,1661312217433041354,imu,-0.400487,-0.85738,0.021483
1661312217437976746,31476,1661312217437976746,imu,-0.399946,-0.858024,0.021202
1661312217442943497,31477,1661312217442943497,imu,-0.399755,-0.85814,0.020726
1661312217448047560,31478,1661312217448047560,imu,-0.399124,-0.858264,0.021118
1661312217455777793,31479,1661312217455777793,imu,-0.399994,-0.858058,0.021123
1661312217457945931,31480,1661312217457945931,imu,-0.400419,-0.857275,0.021163
1661312217463081843,31481,1661312217463081843,imu,-0.40052,-0.857671,0.021153
1661312217468011368,31482,1661312217468011368,imu,-0.400605,-0.857452,0.021085
1661312217472964290,31483,1661312217472964290,imu,-0.400963,-0.857752,0.020885
1661312217477927270,31484,1661312217477927270,imu,-0.401272,-0.857593,0.021336
1661312217483035314,31485,1661312217483035314,imu,-0.401446,-0.85754,0.021339
1661312217487998084,31486,1661312217487998084,imu,-0.401318,-0.857595,0.02157
1661312217499978897,31487,1661312217499978897,imu,-0.401317,-0.857773,0.021782
1661312217500246675,31488,1661312217500246675,imu,-0.401621,-0.858053,0.021607
1661312217503159970,31489,1661312217503159970,imu,-0.401672,-0.857989,0.021869
1661312217508013436,31490,1661312217508013436,imu,-0.402154,-0.857977,0.021829
1661312217512940795,31491,1661312217512940795,imu,-0.402076,-0.858322,0.021583
1661312217518047233,31492,1661312217518047233,imu,-0.401709,-0.857802,0.021184
1661312217522979202,31493,1661312217522979202,imu,-0.40209,-0.857882,0.021164
1661312217527916270,31494,1661312217527916270,imu,-0.402594,-0.858391,0.021084
1661312217533046454,31495,1661312217533046454,imu,-0.402543,-0.858732,0.021139
1661312217540668779,31496,1661312217540668779,imu,-0.403239,-0.858677,0.021247
1661312217542999443,31497,1661312217542999443,imu,-0.402886,-0.858865,0.021249
1661312217548136751,31498,1661312217548136751,imu,-0.403078,-0.858565,0.020946
1661312217553015151,31499,1661312217553015151,imu,-0.40279,-0.858586,0.020657
1661312217557970029,31500,1661312217557970029,imu,-0.40323,-0.858696,0.020536
1661312217563091063,31501,1661312217563091063,imu,-0.403013,-0.858969,0.020538
1661312217568028271,31502,1661312217568028271,imu,-0.403247,-0.858499,0.020379
1661312217572980355,31503,1661312217572980355,imu,-0.403367,-0.858746,0.020426
1661312217579904599,31504,1661312217579904599,imu,-0.403455,-0.859278,0.020606
1661312217583013733,31505,1661312217583013733,imu,-0.403488,-0.859214,0.020503
1661312217588078824,31506,1661312217588078824,imu,-0.403059,-0.859063,0.020657
1661312217592946049,31507,1661312217592946049,imu,-0.40312,-0.859569,0.020489
1661312217598046829,31508,1661312217598046829,imu,-0.403745,-0.859629,0.020425
1661312217603109754,31509,1661312217603109754,imu,-0.404088,-0.85997,0.020494
1661312217607958121,31510,1661312217607958121,imu,-0.404368,-0.8605,0.020586
1661312217612886878,31511,1661312217612886878,imu,-0.404525,-0.860728,0.020498
1661312217618931238,31512,1661312217618931238,imu,-0.404978,-0.860941,0.019981
1661312217623086552,31513,1661312217623086552,imu,-0.40531,-0.861091,0.019883
1661312217627979619,31514,1661312217627979619,imu,-0.405269,-0.860707,0.019446
1661312217633066989,31515,1661312217633066989,imu,-0.405574,-0.859726,0.019664
1661312217638057976,31516,1661312217638057976,imu,-0.40609,-0.860015,0.019428
1661312217642955723,31517,1661312217642955723,imu,-0.406403,-0.860512,0.019537
1661312217648089050,31518,1661312217648089050,imu,-0.406734,-0.860466,0.019369
1661312217653061458,31519,1661312217653061458,imu,-0.406732,-0.860601,0.019147
1661312217658372117,31520,1661312217658372117,imu,-0.406795,-0.860917,0.019416
1661312217663004599,31521,1661312217663004599,imu,-0.406701,-0.861288,0.019483
1661312217668149730,31522,1661312217668149730,imu,-0.406852,-0.861689,0.019194
1661312217673043844,31523,1661312217673043844,imu,-0.407576,-0.861046,0.019565
1661312217677944314,31524,1661312217677944314,imu,-0.407928,-0.860752,0.019493
1661312217683073381,31525,1661312217683073381,imu,-0.408084,-0.860825,0.019334
1661312217687993407,31526,1661312217687993407,imu,-0.407837,-0.860466,0.019503
1661312217701877723,31527,1661312217701877723,imu,-0.407883,-0.859599,0.019572
1661312217702270172,31528,1661312217702270172,imu,-0.408894,-0.858717,0.019463
1661312217703124073,31529,1661312217703124073,imu,-0.409378,-0.859034,0.019187
1661312217708046334,31530,1661312217708046334,imu,-0.409684,-0.859314,0.019046
1661312217712979701,31531,1661312217712979701,imu,-0.410036,-0.85892,0.019192
1661312217718089491,31532,1661312217718089491,imu,-0.410083,-0.858589,0.019172
1661312217722988215,31533,1661312217722988215,imu,-0.409573,-0.858724,0.018951
1661312217727936318,31534,1661312217727936318,imu,-0.408991,-0.858568,0.018652
1661312217733070413,31535,1661312217733070413,imu,-0.408985,-0.858033,0.018892
1661312217739563445,31536,1661312217739563445,imu,-0.409699,-0.857638,0.018635
1661312217742975001,31537,1661312217742975001,imu,-0.410115,-0.858015,0.018795
1661312217747956908,31538,1661312217747956908,imu,-0.410718,-0.858084,0.018772
1661312217753111118,31539,1661312217753111118,imu,-0.41111,-0.858614,0.018431
1661312217757958717,31540,1661312217757958717,imu,-0.41129,-0.85925,0.018355
1661312217762916459,31541,1661312217762916459,imu,-0.411472,-0.859162,0.018311
1661312217768041404,31542,1661312217768041404,imu,-0.411672,-0.859396,0.018435
1661312217773023032,31543,1661312217773023032,imu,-0.412669,-0.85956,0.018636
1661312217778343120,31544,1661312217778343120,imu,-0.412444,-0.859921,0.018348
1661312217783134146,31545,1661312217783134146,imu,-0.41225,-0.859818,0.018251
1661312217788108300,31546,1661312217788108300,imu,-0.412512,-0.860041,0.018067
1661312217792973500,31547,1661312217792973500,imu,-0.412709,-0.859969,0.017959
1661312217797888427,31548,1661312217797888427,imu,-0.412801,-0.859635,0.01772
1661312217803061635,31549,1661312217803061635,imu,-0.412199,-0.859425,0.017908
1661312217807982848,31550,1661312217807982848,imu,-0.41221,-0.859013,0.0179
1661312217819371322,31551,1661312217819371322,imu,-0.412554,-0.859015,0.018051
1661312217819572051,31552,1661312217819572051,imu,-0.413015,-0.85936,0.018161
1661312217822992058,31553,1661312217822992058,imu,-0.412652,-0.858918,0.018128
1661312217827943024,31554,1661312217827943024,imu,-0.413129,-0.85884,0.018237
1661312217833076700,31555,1661312217833076700,imu,-0.41389,-0.858802,0.017934
1661312217838031159,31556,1661312217838031159,imu,-0.414115,-0.858967,0.017896
1661312217843002311,31557,1661312217843002311,imu,-0.414693,-0.858965,0.017268
1661312217847944128,31558,1661312217847944128,imu,-0.415004,-0.858903,0.016944
1661312217853047981,31559,1661312217853047981,imu,-0.4149,-0.859189,0.016964
1661312217866417065,31560,1661312217866417065,imu,-0.415148,-0.858953,0.016696
1661312217866987055,31561,1661312217866987055,imu,-0.414921,-0.858891,0.016188
1661312217868159510,31562,1661312217868159510,imu,-0.415153,-0.858583,0.015836
1661312217873037142,31563,1661312217873037142,imu,-0.416329,-0.85859,0.016086
1661312217878070104,31564,1661312217878070104,imu,-0.41673,-0.858745,0.016356
1661312217883080228,31565,1661312217883080228,imu,-0.41802,-0.858979,0.01616
1661312217887989219,31566,1661312217887989219,imu,-0.419104,-0.8593,0.016033
1661312217893011496,31567,1661312217893011496,imu,-0.419443,-0.859022,0.015852
1661312217897914271,31568,1661312217897914271,imu,-0.419932,-0.859018,0.015699
1661312217910056282,31569,1661312217910056282,imu,-0.420223,-0.859758,0.01577
1661312217910550771,31570,1661312217910550771,imu,-0.420715,-0.859472,0.015351
1661312217913005266,31571,1661312217913005266,imu,-0.421417,-0.859219,0.015239
1661312217918084046,31572,1661312217918084046,imu,-0.422287,-0.859476,0.01552
1661312217923004212,31573,1661312217923004212,imu,-0.421837,-0.859273,0.015472
1661312217927938695,31574,1661312217927938695,imu,-0.421921,-0.858376,0.015513
1661312217932898253,31575,1661312217932898253,imu,-0.422117,-0.85765,0.015724
1661312217938037517,31576,1661312217938037517,imu,-0.422253,-0.85742,0.015465
1661312217942951397,31577,1661312217942951397,imu,-0.421719,-0.857765,0.01566
1661312217954409434,31578,1661312217954409434,imu,-0.421753,-0.857956,0.015574
1661312217954975093,31579,1661312217954975093,imu,-0.422168,-0.858123,0.015613
1661312217958075358,31580,1661312217958075358,imu,-0.422826,-0.858312,0.015813
1661312217962975828,31581,1661312217962975828,imu,-0.423309,-0.858346,0.015725
1661312217968082894,31582,1661312217968082894,imu,-0.423307,-0.858175,0.015122
1661312217973016679,31583,1661312217973016679,imu,-0.423661,-0.858292,0.015065
1661312217977961919,31584,1661312217977961919,imu,-0.423982,-0.858431,0.015483
1661312217982903038,31585,1661312217982903038,imu,-0.423745,-0.858572,0.014962
1661312217988041743,31586,1661312217988041743,imu,-0.423857,-0.858536,0.014718
1661312217994357513,31587,1661312217994357513,imu,-0.424017,-0.857974,0.0148
1661312217998019386,31588,1661312217998019386,imu,-0.424009,-0.858464,0.014696
1661312218003579454,31589,1661312218003579454,imu,-0.423984,-0.858479,0.014304
1661312218008009741,31590,1661312218008009741,imu,-0.423407,-0.859048,0.014308
1661312218012954422,31591,1661312218012954422,imu,-0.423367,-0.859136,0.014675
1661312218018075178,31592,1661312218018075178,imu,-0.423309,-0.859189,0.01538
1661312218023018812,31593,1661312218023018812,imu,-0.423786,-0.859263,0.015819
1661312218027969360,31594,1661312218027969360,imu,-0.423313,-0.858943,0.015829
1661312218034263898,31595,1661312218034263898,imu,-0.422675,-0.858904,0.015928
1661312218038117421,31596,1661312218038117421,imu,-0.422668,-0.858516,0.015759
1661312218043179159,31597,1661312218043179159,imu,-0.422151,-0.858866,0.015301
1661312218047937988,31598,1661312218047937988,imu,-0.422206,-0.858487,0.01502
1661312218053084446,31599,1661312218053084446,imu,-0.422496,-0.859153,0.014956
1661312218057985126,31600,1661312218057985126,imu,-0.422381,-0.859348,0.015023
1661312218062971294,31601,1661312218062971294,imu,-0.423,-0.859109,0.014733
1661312218068107415,31602,1661312218068107415,imu,-0.423442,-0.85924,0.014761
1661312218073682361,31603,1661312218073682361,imu,-0.42331,-0.859014,0.014585
1661312218078057751,31604,1661312218078057751,imu,-0.423174,-0.858014,0.014378
1661312218082935592,31605,1661312218082935592,imu,-0.422799,-0.857976,0.014336
1661312218088068920,31606,1661312218088068920,imu,-0.423015,-0.858262,0.014316
1661312218092998864,31607,1661312218092998864,imu,-0.424018,-0.858392,0.014555
1661312218097926713,31608,1661312218097926713,imu,-0.423877,-0.858516,0.014227
1661312218103099362,31609,1661312218103099362,imu,-0.423569,-0.859118,0.014237
1661312218108037548,31610,1661312218108037548,imu,-0.423036,-0.859118,0.01442
1661312218114105446,31611,1661312218114105446,imu,-0.42278,-0.859167,0.014444
1661312218118085175,31612,1661312218118085175,imu,-0.423076,-0.859136,0.014664
1661312218123018961,31613,1661312218123018961,imu,-0.422894,-0.858686,0.014555
1661312218127993186,31614,1661312218127993186,imu,-0.422945,-0.858777,0.014647
1661312218132922851,31615,1661312218132922851,imu,-0.422825,-0.85875,0.014928
1661312218138094801,31616,1661312218138094801,imu,-0.42254,-0.858618,0.014811
1661312218143067140,31617,1661312218143067140,imu,-0.42178,-0.858596,0.014803
1661312218147974316,31618,1661312218147974316,imu,-0.421745,-0.858282,0.014916
1661312218154726536,31619,1661312218154726536,imu,-0.422085,-0.858379,0.014744
1661312218158077259,31620,1661312218158077259,imu,-0.422448,-0.858508,0.014412
1661312218163106450,31621,1661312218163106450,imu,-0.422121,-0.858727,0.014367
1661312218167905718,31622,1661312218167905718,imu,-0.421831,-0.859455,0.015065
1661312218173048125,31623,1661312218173048125,imu,-0.421636,-0.860332,0.01466
1661312218177977650,31624,1661312218177977650,imu,-0.421475,-0.860531,0.014423
1661312218182961583,31625,1661312218182961583,imu,-0.421261,-0.860773,0.014383
1661312218188046998,31626,1661312218188046998,imu,-0.421429,-0.861031,0.014234
1661312218198717276,31627,1661312218198717276,imu,-0.421067,-0.860747,0.013973
1661312218199008033,31628,1661312218199008033,imu,-0.421205,-0.860274,0.01381
1661312218203129055,31629,1661312218203129055,imu,-0.421052,-0.86085,0.013486
1661312218208029456,31630,1661312218208029456,imu,-0.42103,-0.861171,0.013566
1661312218212980283,31631,1661312218212980283,imu,-0.421104,-0.860746,0.013517
1661312218217958419,31632,1661312218217958419,imu,-0.4211,-0.860041,0.013375
1661312218223043345,31633,1661312218223043345,imu,-0.421403,-0.859513,0.013303
1661312218227990541,31634,1661312218227990541,imu,-0.421601,-0.859188,0.013518
1661312218232919228,31635,1661312218232919228,imu,-0.422255,-0.859137,0.013582
1661312218244777956,31636,1661312218244777956,imu,-0.422372,-0.859134,0.013552
1661312218245319240,31637,1661312218245319240,imu,-0.422116,-0.859484,0.013361
1661312218248016580,31638,1661312218248016580,imu,-0.422207,-0.859583,0.013259
1661312218253164645,31639,1661312218253164645,imu,-0.422871,-0.859237,0.013323
1661312218258060715,31640,1661312218258060715,imu,-0.422716,-0.859296,0.013075
1661312218262979135,31641,1661312218262979135,imu,-0.422486,-0.859268,0.012771
1661312218267943792,31642,1661312218267943792,imu,-0.422171,-0.859137,0.012786
1661312218273081659,31643,1661312218273081659,imu,-0.42176,-0.859466,0.012529
1661312218278025083,31644,1661312218278025083,imu,-0.42161,-0.859336,0.012236
1661312218283616162,31645,1661312218283616162,imu,-0.421886,-0.859006,0.012622
1661312218288085491,31646,1661312218288085491,imu,-0.422054,-0.858942,0.012575
1661312218293054548,31647,1661312218293054548,imu,-0.422607,-0.85945,0.01245
1661312218297974854,31648,1661312218297974854,imu,-0.422384,-0.860157,0.012585
1661312218302998108,31649,1661312218302998108,imu,-0.42243,-0.859935,0.012425
1661312218308854521,31650,1661312218308854521,imu,-0.421381,-0.859835,0.01256
1661312218313028764,31651,1661312218313028764,imu,-0.422153,-0.859564,0.012714
1661312218317967508,31652,1661312218317967508,imu,-0.422541,-0.859498,0.012674
1661312218324769247,31653,1661312218324769247,imu,-0.422649,-0.859464,0.012516
1661312218328007103,31654,1661312218328007103,imu,-0.422496,-0.859396,0.012158
1661312218333008148,31655,1661312218333008148,imu,-0.422872,-0.859201,0.012062
1661312218337901844,31656,1661312218337901844,imu,-0.423268,-0.858407,0.012359
1661312218343061851,31657,1661312218343061851,imu,-0.423242,-0.858018,0.012473
1661312218347979573,31658,1661312218347979573,imu,-0.423296,-0.858496,0.012278
1661312218352914895,31659,1661312218352914895,imu,-0.423092,-0.85857,0.012393
1661312218358029854,31660,1661312218358029854,imu,-0.423428,-0.858782,0.012565
1661312218363681487,31661,1661312218363681487,imu,-0.423548,-0.859077,0.012941
1661312218367935490,31662,1661312218367935490,imu,-0.423591,-0.859818,0.012971
1661312218373084113,31663,1661312218373084113,imu,-0.424348,-0.860007,0.012908
1661312218378019854,31664,1661312218378019854,imu,-0.425147,-0.859762,0.013127
1661312218382975640,31665,1661312218382975640,imu,-0.425564,-0.859566,0.013123
1661312218388089971,31666,1661312218388089971,imu,-0.425569,-0.860074,0.012806
1661312218393057071,31667,1661312218393057071,imu,-0.426138,-0.860035,0.013022
1661312218406420709,31668,1661312218406420709,imu,-0.426148,-0.860046,0.012452
1661312218406706297,31669,1661312218406706297,imu,-0.426081,-0.859757,0.012227
1661312218408118315,31670,1661312218408118315,imu,-0.426412,-0.859831,0.012424
1661312218413067745,31671,1661312218413067745,imu,-0.426951,-0.860247,0.012676
1661312218418008795,31672,1661312218418008795,imu,-0.427801,-0.859397,0.012938
1661312218423068019,31673,1661312218423068019,imu,-0.428425,-0.859264,0.012968
1661312218430506867,31674,1661312218430506867,imu,-0.428496,-0.859898,0.013063
1661312218432988601,31675,1661312218432988601,imu,-0.428151,-0.860005,0.013298
1661312218438086728,31676,1661312218438086728,imu,-0.428423,-0.860375,0.013646
1661312218445229022,31677,1661312218445229022,imu,-0.428283,-0.860557,0.013562
1661312218448017856,31678,1661312218448017856,imu,-0.428274,-0.860789,0.013642
1661312218453060248,31679,1661312218453060248,imu,-0.428489,-0.860362,0.013659
1661312218458150762,31680,1661312218458150762,imu,-0.428666,-0.859104,0.013538
1661312218463019244,31681,1661312218463019244,imu,-0.428349,-0.8585,0.013441
1661312218467951633,31682,1661312218467951633,imu,-0.42801,-0.859131,0.014068
1661312218473098161,31683,1661312218473098161,imu,-0.427815,-0.859558,0.014722
1661312218478071338,31684,1661312218478071338,imu,-0.428107,-0.859297,0.014211
1661312218485312181,31685,1661312218485312181,imu,-0.428131,-0.85966,0.014139
1661312218488092005,31686,1661312218488092005,imu,-0.428114,-0.859928,0.013631
1661312218493028725,31687,1661312218493028725,imu,-0.428819,-0.859797,0.013353
1661312218498011680,31688,1661312218498011680,imu,-0.429281,-0.859463,0.013081
1661312218502955523,31689,1661312218502955523,imu,-0.429996,-0.859235,0.01354
1661312218508072926,31690,1661312218508072926,imu,-0.42989,-0.8583,0.01396
1661312218513008039,31691,1661312218513008039,imu,-0.42907,-0.857995,0.014183
1661312218517981845,31692,1661312218517981845,imu,-0.428107,-0.857774,0.014051
1661312218526161518,31693,1661312218526161518,imu,-0.428351,-0.857334,0.013695
1661312218528046932,31694,1661312218528046932,imu,-0.428885,-0.856927,0.013672
1661312218532989937,31695,1661312218532989937,imu,-0.429179,-0.857264,0.013458
1661312218537946911,31696,1661312218537946911,imu,-0.429657,-0.857147,0.013409
1661312218543042523,31697,1661312218543042523,imu,-0.429828,-0.857012,0.013341
1661312218547995097,31698,1661312218547995097,imu,-0.4295,-0.857034,0.013233
1661312218553069267,31699,1661312218553069267,imu,-0.428877,-0.857137,0.013141
1661312218558076109,31700,1661312218558076109,imu,-0.42856,-0.857535,0.013158
1661312218566718283,31701,1661312218566718283,imu,-0.428399,-0.857626,0.013303
1661312218568033848,31702,1661312218568033848,imu,-0.428078,-0.857667,0.013726
1661312218572944934,31703,1661312218572944934,imu,-0.42731,-0.857579,0.013441
1661312218578088738,31704,1661312218578088738,imu,-0.427351,-0.857903,0.013747
1661312218582972237,31705,1661312218582972237,imu,-0.427495,-0.857782,0.014132
1661312218587936754,31706,1661312218587936754,imu,-0.427346,-0.857671,0.014016
1661312218593089358,31707,1661312218593089358,imu,-0.427224,-0.857811,0.01378
1661312218597993181,31708,1661312218597993181,imu,-0.427265,-0.857496,0.013789
1661312218605544057,31709,1661312218605544057,imu,-0.427421,-0.856862,0.013639
1661312218608121965,31710,1661312218608121965,imu,-0.427641,-0.856429,0.013558
1661312218614025383,31711,1661312218614025383,imu,-0.427355,-0.85613,0.013562
1661312218618020966,31712,1661312218618020966,imu,-0.427261,-0.855545,0.013588
1661312218623130337,31713,1661312218623130337,imu,-0.426972,-0.85577,0.013519
1661312218628053018,31714,1661312218628053018,imu,-0.426602,-0.855824,0.013475
1661312218632987572,31715,1661312218632987572,imu,-0.426211,-0.855432,0.01361
1661312218637945733,31716,1661312218637945733,imu,-0.426467,-0.855024,0.014071
1661312218643728322,31717,1661312218643728322,imu,-0.426427,-0.854963,0.014283
