%time,field.header.seq,field.header.stamp,field.header.frame_id,field.vector.x,field.vector.y,field.vector.z
1661312216973143223,31383,1661312216973143223,,0.465745955706,-0.798187255859,0.0184056982398
1661312216978022810,31384,1661312216978022810,,0.487333267927,-0.788665771484,0.00847347266972
1661312216982987116,31385,1661312216982987116,,0.48788896203,-0.769470214844,-0.0271135084331
1661312216987920552,31386,1661312216987920552,,0.394408941269,-0.759246826172,-0.0221138801426
1661312216993051364,31387,1661312216993051364,,0.483140796423,-0.890533447266,-0.0121034467593
1661312216998002750,31388,1661312216998002750,,0.241386547685,-0.899932861328,-0.00211536022834
1661312217002976415,31389,1661312217002976415,,0.26242724061,-1.01251220703,0.00858663208783
1661312217015752112,31390,1661312217015752112,,0.386720895767,-0.978240966797,-0.0414649546146
1661312217016168656,31391,1661312217016168656,,0.393300294876,-0.895263671875,-0.0169160068035
1661312217017966697,31392,1661312217017966697,,0.335877627134,-0.953491210938,-0.0224152561277
1661312217023023755,31393,1661312217023023755,,0.288528889418,-1.01309204102,-0.0220411140472
1661312217028043028,31394,1661312217028043028,,0.25167798996,-1.02807617188,-0.02154722251
1661312217032993855,31395,1661312217032993855,,0.44166842103,-0.890869140625,0.00735878339037
1661312217037945311,31396,1661312217037945311,,0.367118626833,-1.00302124023,-0.0326179116964
1661312217043041970,31397,1661312217043041970,,0.420849710703,-0.971099853516,0.0227120444179
1661312217047999153,31398,1661312217047999153,,0.262931078672,-0.869140625,-0.0423200950027
1661312217059036316,31399,1661312217059036316,,0.389473587275,-0.909851074219,-0.0365865044296
1661312217059707019,31400,1661312217059707019,,0.441904067993,-0.837677001953,0.00270808488131
1661312217063079881,31401,1661312217063079881,,0.437258630991,-0.907867431641,-0.01629807055
1661312217068072824,31402,1661312217068072824,,0.439197301865,-0.842864990234,-0.0220385361463
1661312217072936487,31403,1661312217072936487,,0.400583207607,-0.834747314453,0.00886680837721
1661312217078073935,31404,1661312217078073935,,0.480893611908,-0.851501464844,0.0189024507999
1661312217082963439,31405,1661312217082963439,,0.362855106592,-0.697723388672,-0.0118089467287
1661312217087954077,31406,1661312217087954077,,0.425318002701,-0.684661865234,-0.0219646226615
1661312217093062749,31407,1661312217093062749,,0.530032336712,-0.636291503906,0.013174591586
1661312217098251113,31408,1661312217098251113,,0.441670060158,-0.575866699219,0.00870236940682
1661312217103049612,31409,1661312217103049612,,0.533379018307,-0.669219970703,-0.00672022206709
1661312217107905522,31410,1661312217107905522,,0.556927442551,-0.644409179688,-0.0370050519705
1661312217113030189,31411,1661312217113030189,,0.408227235079,-0.613861083984,-0.00714993989095
1661312217118185796,31412,1661312217118185796,,0.533307790756,-0.791839599609,0.032536841929
1661312217122929049,31413,1661312217122929049,,0.410953074694,-0.708312988281,-0.0368936099112
1661312217128027734,31414,1661312217128027734,,0.45357093215,-0.746063232422,-0.0269235726446
1661312217138771347,31415,1661312217138771347,,0.385396152735,-0.766418457031,0.0136699136347
1661312217139346923,31416,1661312217139346923,,0.444572091103,-0.854156494141,-0.0068737748079
1661312217143134654,31417,1661312217143134654,,0.305719524622,-0.916778564453,-0.0271524693817
1661312217148092255,31418,1661312217148092255,,0.354950249195,-0.929504394531,-0.012111755088
1661312217152953194,31419,1661312217152953194,,0.344607681036,-0.988922119141,0.0134438816458
1661312217157970582,31420,1661312217157970582,,0.437171190977,-0.897308349609,0.0124380541965
1661312217163036091,31421,1661312217163036091,,0.316313803196,-0.897338867188,0.00763237057254
1661312217167973578,31422,1661312217167973578,,0.356650322676,-1.07354736328,0.00771057978272
1661312217177352946,31423,1661312217177352946,,0.191281795502,-0.987945556641,-0.0122317904606
1661312217178420358,31424,1661312217178420358,,0.437353760004,-1.07150268555,-0.017176989466
1661312217183062827,31425,1661312217183062827,,0.310513615608,-1.03540039062,0.0178699810058
1661312217187985228,31426,1661312217187985228,,0.346484392881,-1.06903076172,-0.037259157747
1661312217193053671,31427,1661312217193053671,,0.300895035267,-1.08624267578,-0.0216939020902
1661312217198016092,31428,1661312217198016092,,0.397722750902,-1.06274414062,-0.0121856667101
1661312217202979491,31429,1661312217202979491,,0.179764211178,-0.984924316406,-0.0366257540882
1661312217207901403,31430,1661312217207901403,,0.342691957951,-0.883361816406,-0.0272710714489
1661312217220122197,31431,1661312217220122197,,0.502630770206,-0.845520019531,-0.0225963108242
1661312217220705806,31432,1661312217220705806,,0.39751380682,-0.830963134766,0.00334320869297
1661312217222981014,31433,1661312217222981014,,0.492949098349,-0.836639404297,-0.0165180880576
1661312217229019088,31434,1661312217229019088,,0.488148510456,-0.724273681641,0.0125721264631
1661312217233176498,31435,1661312217233176498,,0.524316489697,-0.671325683594,-0.0270613692701
1661312217238015925,31436,1661312217238015925,,0.355365723372,-0.672698974609,-0.0315991975367
1661312217242920097,31437,1661312217242920097,,0.48876875639,-0.708923339844,-0.00712444353849
1661312217248038478,31438,1661312217248038478,,0.42300632596,-0.673614501953,0.00268172891811
1661312217252969190,31439,1661312217252969190,,0.570693552494,-0.636474609375,0.0233107898384
1661312217258925129,31440,1661312217258925129,,0.501930594444,-0.582214355469,-0.00212624645792
1661312217263141556,31441,1661312217263141556,,0.494274318218,-0.787170410156,-0.0117696980014
1661312217268215167,31442,1661312217268215167,,0.407199949026,-0.779754638672,-0.0368331670761
1661312217272927270,31443,1661312217272927270,,0.472198396921,-0.702575683594,-0.0115101495758
1661312217278061505,31444,1661312217278061505,,0.427827864885,-0.725372314453,0.0177293177694
1661312217282991030,31445,1661312217282991030,,0.315939694643,-0.773254394531,0.0234196484089
1661312217287958410,31446,1661312217287958410,,0.309072196484,-0.799835205078,-0.0119776818901
1661312217298087753,31447,1661312217298087753,,0.31997692585,-0.920623779297,0.0187700986862
1661312217298340585,31448,1661312217298340585,,0.412009805441,-0.938781738281,-0.00669615808874
1661312217302975791,31449,1661312217302975791,,0.283837765455,-0.989990234375,-0.00138970906846
1661312217307982353,31450,1661312217307982353,,0.286578625441,-0.954803466797,-0.0115966647863
1661312217313071678,31451,1661312217313071678,,0.318488299847,-1.11932373047,-0.0119705209509
1661312217318046462,31452,1661312217318046462,,0.279179513454,-1.11367797852,0.00871927198023
1661312217323010279,31453,1661312217323010279,,0.374621272087,-0.986907958984,-0.0571482405066
1661312217328045407,31454,1661312217328045407,,0.462769061327,-0.976745605469,-0.00169538205955
1661312217335929644,31455,1661312217335929644,,0.341787457466,-0.995300292969,-0.0167163293809
1661312217337974021,31456,1661312217337974021,,0.4140227139,-1.01657104492,-0.0367956385016
1661312217345277512,31457,1661312217345277512,,0.280512154102,-1.05679321289,-0.0315295793116
1661312217348015990,31458,1661312217348015990,,0.462386935949,-0.96484375,0.00311144720763
1661312217352965420,31459,1661312217352965420,,0.460948556662,-0.978790283203,-0.00177760154475
1661312217357958362,31460,1661312217357958362,,0.506895303726,-0.834838867188,-0.0167524274439
1661312217363054183,31461,1661312217363054183,,0.455786973238,-0.915344238281,-0.00200220104307
1661312217367968343,31462,1661312217367968343,,0.415861785412,-0.735565185547,-0.0570393763483
1661312217375030177,31463,1661312217375030177,,0.404163688421,-0.834838867188,0.00341139081866
1661312217378069259,31464,1661312217378069259,,0.381535381079,-0.649444580078,-0.0114419665188
1661312217383085739,31465,1661312217383085739,,0.412267953157,-0.752136230469,-0.0117419110611
1661312217388071906,31466,1661312217388071906,,0.350667238235,-0.741882324219,0.0333518758416
1661312217392931239,31467,1661312217392931239,,0.48553147912,-0.765991210938,0.0129307983443
1661312217398048782,31468,1661312217398048782,,0.444607496262,-0.688354492188,0.0135011775419
1661312217403032994,31469,1661312217403032994,,0.375396549702,-0.723266601562,-0.0619204081595
1661312217407936956,31470,1661312217407936956,,0.261744976044,-0.684692382812,-0.0367606841028
1661312217416274684,31471,1661312217416274684,,0.361630439758,-0.745147705078,-0.0166409853846
1661312217418035358,31472,1661312217418035358,,0.440544217825,-0.823516845703,-0.00716483779252
1661312217424562124,31473,1661312217424562124,,0.399631798267,-0.75830078125,-0.00182630296331
1661312217427965299,31474,1661312217427965299,,0.436261147261,-0.830718994141,-0.0820025801659
1661312217433041354,31475,1661312217433041354,,0.417970895767,-0.81005859375,-0.021795315668
1661312217437976746,31476,1661312217437976746,,0.360760450363,-1.00366210938,-0.0313705839217
1661312217442943497,31477,1661312217442943497,,0.325614690781,-0.920989990234,-0.0164120886475
1661312217448047560,31478,1661312217448047560,,0.507193505764,-1.0124206543,0.0178144033998
1661312217455777793,31479,1661312217455777793,,0.478595137596,-0.901824951172,-0.00751376850531
1661312217457945931,31480,1661312217457945931,,0.334499239922,-0.987030029297,-0.00211793859489
1661312217463081843,31481,1661312217463081843,,0.291981488466,-1.09048461914,-0.0116691440344
1661312217468011368,31482,1661312217468011368,,0.454192489386,-1.00860595703,-0.0323681049049
1661312217472964290,31483,1661312217472964290,,0.39773696661,-1.00314331055,0.018276207149
1661312217477927270,31484,1661312217477927270,,0.444343924522,-0.875946044922,-0.00200907653198
1661312217483035314,31485,1661312217483035314,,0.307437002659,-0.937225341797,0.0333518758416
1661312217487998084,31486,1661312217487998084,,0.318651199341,-0.893646240234,-0.00697232317179
1661312217499978897,31487,1661312217499978897,,0.355152517557,-0.928344726562,-0.0267880670726
1661312217500246675,31488,1661312217500246675,,0.449975699186,-0.789184570312,-0.0118562150747
1661312217503159970,31489,1661312217503159970,,0.409583479166,-0.785949707031,0.0126907285303
1661312217508013436,31490,1661312217508013436,,0.31945797801,-0.798797607422,-0.0217451807112
1661312217512940795,31491,1661312217512940795,,0.353632897139,-0.946411132812,-0.041760314256
1661312217518047233,31492,1661312217518047233,,0.382005721331,-0.726257324219,-0.0168306343257
1661312217522979202,31493,1661312217522979202,,0.505329728127,-0.710876464844,0.00288828019984
1661312217527916270,31494,1661312217527916270,,0.478356033564,-0.799591064453,-0.0113594615832
1661312217533046454,31495,1661312217533046454,,0.451091110706,-0.710205078125,-0.0123486723751
1661312217540668779,31496,1661312217540668779,,0.369337975979,-0.771118164062,-0.00158508773893
1661312217542999443,31497,1661312217542999443,,0.355584412813,-0.707305908203,-0.0169827546924
1661312217548136751,31498,1661312217548136751,,0.399399518967,-0.742767333984,-0.0218205247074
1661312217553015151,31499,1661312217553015151,,0.458117485046,-0.695495605469,-0.0117837367579
1661312217557970029,31500,1661312217557970029,,0.469705164433,-0.664489746094,-0.00677436636761
1661312217563091063,31501,1661312217563091063,,0.394785046577,-0.894226074219,0.0183028485626
1661312217568028271,31502,1661312217568028271,,0.412583172321,-0.833587646484,-0.0320988148451
1661312217572980355,31503,1661312217572980355,,0.388060986996,-0.748870849609,-0.0264783836901
1661312217579904599,31504,1661312217579904599,,0.355819880962,-0.892059326172,-0.00173720798921
1661312217583013733,31505,1661312217583013733,,0.287737607956,-0.986602783203,-0.0119049176574
1661312217588078824,31506,1661312217588078824,,0.318290501833,-0.933044433594,-0.0116622699425
1661312217592946049,31507,1661312217592946049,,0.330064147711,-0.868255615234,-0.0469452999532
1661312217598046829,31508,1661312217598046829,,0.302776545286,-0.877349853516,0.0330530777574
1661312217603109754,31509,1661312217603109754,,0.273718565702,-0.987640380859,-0.00696544768289
1661312217607958121,31510,1661312217607958121,,0.354890733957,-1.16073608398,0.00819329638034
1661312217612886878,31511,1661312217612886878,,0.375182211399,-0.921295166016,-0.0170901864767
1661312217618931238,31512,1661312217618931238,,0.386413455009,-0.946746826172,-0.0420952066779
1661312217623086552,31513,1661312217623086552,,0.298127561808,-0.918090820312,-0.0317556150258
1661312217627979619,31514,1661312217627979619,,0.390557229519,-0.792633056641,-0.00767133152112
1661312217633066989,31515,1661312217633066989,,0.347627580166,-0.921691894531,-0.00208298792131
1661312217638057976,31516,1661312217638057976,,0.466079682112,-0.865203857422,-0.0119261164218
1661312217642955723,31517,1661312217642955723,,0.497187405825,-0.831146240234,-0.00200621178374
1661312217648089050,31518,1661312217648089050,,0.54737496376,-0.807464599609,0.0130771882832
1661312217653061458,31519,1661312217653061458,,0.389062196016,-0.816955566406,-0.0118186874315
1661312217658372117,31520,1661312217658372117,,0.394558370113,-0.741638183594,0.0131161492318
1661312217663004599,31521,1661312217663004599,,0.480164051056,-0.792877197266,-0.00619682529941
1661312217668149730,31522,1661312217668149730,,0.547472417355,-0.6474609375,0.00249780947343
1661312217673043844,31523,1661312217673043844,,0.494072526693,-0.676086425781,-0.00720121990889
1661312217677944314,31524,1661312217677944314,,0.323655664921,-0.746002197266,-0.0168627202511
1661312217683073381,31525,1661312217683073381,,0.547855913639,-0.719848632812,-0.00685400795192
1661312217687993407,31526,1661312217687993407,,0.332253277302,-0.781372070312,0.00803028978407
1661312217701877723,31527,1661312217701877723,,0.442053943872,-0.677093505859,-0.0125578027219
1661312217702270172,31528,1661312217702270172,,0.603605508804,-0.726318359375,-0.0026565187145
1661312217703124073,31529,1661312217703124073,,0.400230765343,-0.818511962891,-0.0217772666365
1661312217708046334,31530,1661312217708046334,,0.451525628567,-0.782470703125,0.00776644283906
1661312217712979701,31531,1661312217712979701,,0.35611385107,-0.805541992188,-0.00197154772468
1661312217718089491,31532,1661312217718089491,,0.354474335909,-0.7919921875,-0.0267531201243
1661312217722988215,31533,1661312217722988215,,0.337857872248,-0.85009765625,-0.0212902519852
1661312217727936318,31534,1661312217727936318,,0.388512372971,-0.92138671875,-0.00220445496961
1661312217733070413,31535,1661312217733070413,,0.336578965187,-0.884918212891,-0.0219823848456
1661312217739563445,31536,1661312217739563445,,0.405011445284,-0.908233642578,-0.00731552531943
1661312217742975001,31537,1661312217742975001,,0.351115226746,-0.980895996094,-0.00665862904862
1661312217747956908,31538,1661312217747956908,,0.374165892601,-0.749847412109,-0.0173176471144
1661312217753111118,31539,1661312217753111118,,0.35820093751,-1.06225585938,0.0088115176186
1661312217757958717,31540,1661312217757958717,,0.422003179789,-0.945251464844,-0.02717166394
1661312217762916459,31541,1661312217762916459,,0.342536300421,-0.927459716797,-0.0220159031451
1661312217768041404,31542,1661312217768041404,,0.437033891678,-0.959503173828,-0.00715796183795
1661312217773023032,31543,1661312217773023032,,0.400162011385,-0.873443603516,0.0131218796596
1661312217778343120,31544,1661312217778343120,,0.399775356054,-0.899566650391,-0.00670733070001
1661312217783134146,31545,1661312217783134146,,0.378401964903,-0.866455078125,-0.0118994740769
1661312217788108300,31546,1661312217788108300,,0.314699500799,-0.918640136719,-0.0118547836319
1661312217792973500,31547,1661312217792973500,,0.470607727766,-0.758544921875,0.00765070598572
1661312217797888427,31548,1661312217797888427,,0.397443413734,-0.9091796875,-0.0115227540955
1661312217803061635,31549,1661312217803061635,,0.354908645153,-0.804595947266,0.00802885740995
1661312217807982848,31550,1661312217807982848,,0.399303168058,-0.797729492188,0.00307391863316
1661312217819371322,31551,1661312217819371322,,0.443916022778,-0.772216796875,-0.00692218961194
1661312217819572051,31552,1661312217819572051,,0.358771800995,-0.796447753906,0.0132628269494
1661312217822992058,31553,1661312217822992058,,0.39688745141,-0.758911132812,-0.00689984438941
1661312217827943024,31554,1661312217827943024,,0.433163672686,-0.821594238281,-0.00700326263905
1661312217833076700,31555,1661312217833076700,,0.531263113022,-0.755706787109,-0.00219614710659
1661312217838031159,31556,1661312217838031159,,0.445365995169,-0.881072998047,-0.0370995886624
1661312217843002311,31557,1661312217843002311,,0.591121733189,-0.874206542969,-0.0671085417271
1661312217847944128,31558,1661312217847944128,,0.382939636707,-0.802886962891,0.00333891157061
1661312217853047981,31559,1661312217853047981,,0.42727804184,-0.806274414062,0.00291750114411
1661312217866417065,31560,1661312217866417065,,0.474394053221,-0.899383544922,-0.0418789163232
1661312217866987055,31561,1661312217866987055,,0.396400630474,-0.810333251953,-0.0519603937864
1661312217868159510,31562,1661312217868159510,,0.404660254717,-0.960754394531,0.00288398307748
1661312217873037142,31563,1661312217873037142,,0.448012858629,-0.881225585938,0.012814774178
1661312217878070104,31564,1661312217878070104,,0.36137932539,-0.950378417969,0.00803859811276
1661312217883080228,31565,1661312217883080228,,0.509865224361,-0.99755859375,-0.0424355454743
1661312217887989219,31566,1661312217887989219,,0.417596995831,-0.908264160156,-0.0172073543072
1661312217893011496,31567,1661312217893011496,,0.404229193926,-0.947967529297,-0.0224398933351
1661312217897914271,31568,1661312217897914271,,0.438749611378,-1.00173950195,0.00857975613326
1661312217910056282,31569,1661312217910056282,,0.446173667908,-0.953826904297,-0.0224009305239
1661312217910550771,31570,1661312217910550771,,0.399949669838,-0.875274658203,-0.0323288552463
1661312217913005266,31571,1661312217913005266,,0.517545878887,-0.903106689453,-0.00246543739922
1661312217918084046,31572,1661312217918084046,,0.56137919426,-0.9208984375,-0.0218176599592
1661312217923004212,31573,1661312217923004212,,0.334450334311,-0.822479248047,0.00309912883677
1661312217927938695,31574,1661312217927938695,,0.36978584528,-0.831207275391,0.0077985287644
1661312217932898253,31575,1661312217932898253,,0.437163382769,-0.792205810547,-0.02717166394
1661312217938037517,31576,1661312217938037517,,0.422054082155,-0.774932861328,-0.0114419665188
1661312217942951397,31577,1661312217942951397,,0.390657871962,-0.90087890625,-0.0115130133927
1661312217954409434,31578,1661312217954409434,,0.426788032055,-0.801940917969,-0.037023101002
1661312217954975093,31579,1661312217954975093,,0.499938517809,-0.947784423828,0.0378295369446
1661312217958075358,31580,1661312217958075358,,0.544817090034,-0.700317382812,0.00792142748833
1661312217962975828,31581,1661312217962975828,,0.463871836662,-0.738250732422,-0.0368291512132
1661312217968082894,31582,1661312217968082894,,0.51033616066,-0.6953125,-0.0369881503284
1661312217973016679,31583,1661312217973016679,,0.414597898722,-0.840850830078,0.0330923236907
1661312217977961919,31584,1661312217977961919,,0.483617782593,-0.745880126953,-0.0167120322585
1661312217982903038,31585,1661312217982903038,,0.457865417004,-0.762481689453,-0.0215930603445
1661312217988041743,31586,1661312217988041743,,0.441741943359,-0.730194091797,0.0377779752016
1661312217994357513,31587,1661312217994357513,,0.444800853729,-0.799102783203,-0.0167429726571
1661312217998019386,31588,1661312217998019386,,0.386638879776,-0.984466552734,-0.00670331902802
1661312218003579454,31589,1661312218003579454,,0.387185752392,-0.857055664062,-0.051958963275
1661312218008009741,31590,1661312218008009741,,0.395295441151,-0.869476318359,0.0336615554988
1661312218012954422,31591,1661312218012954422,,0.397339642048,-0.7880859375,0.0432408377528
1661312218018075178,31592,1661312218018075178,,0.407309174538,-0.855865478516,0.0183489713818
1661312218023018812,31593,1661312218023018812,,0.395735681057,-0.911041259766,0.00298740202561
1661312218027969360,31594,1661312218027969360,,0.272720187902,-0.959625244141,0.00344920600764
1661312218034263898,31595,1661312218034263898,,0.386781275272,-0.8681640625,0.00294987321831
1661312218038117421,31596,1661312218038117421,,0.452048510313,-0.798706054688,-0.0165922846645
1661312218043179159,31597,1661312218043179159,,0.418135046959,-0.965087890625,-0.0568079054356
1661312218047937988,31598,1661312218047937988,,0.487210214138,-0.878845214844,0.00268459389918
1661312218053084446,31599,1661312218053084446,,0.285626918077,-1.08688354492,-0.00661823526025
1661312218057985126,31600,1661312218057985126,,0.39068120718,-0.885223388672,-0.0267545506358
1661312218062971294,31601,1661312218062971294,,0.379754811525,-0.899230957031,-0.00708834733814
1661312218068107415,31602,1661312218068107415,,0.375327736139,-0.95166015625,-0.0269777160138
1661312218073682361,31603,1661312218073682361,,0.422765463591,-0.843200683594,-0.0223407708108
1661312218078057751,31604,1661312218078057751,,0.469056367874,-0.876556396484,-0.0316802673042
1661312218082935592,31605,1661312218082935592,,0.441034942865,-0.788787841797,0.00311287981458
1661312218088068920,31606,1661312218088068920,,0.424048095942,-0.901489257812,0.0130465356633
1661312218092998864,31607,1661312218092998864,,0.545087218285,-0.802093505859,-0.0172812659293
1661312218097926713,31608,1661312218097926713,,0.386091500521,-0.836151123047,-0.00643402943388
1661312218103099362,31609,1661312218103099362,,0.436802893877,-0.855926513672,-0.0213644504547
1661312218108037548,31610,1661312218108037548,,0.306788474321,-0.797424316406,-0.0065537779592
1661312218114105446,31611,1661312218114105446,,0.349737823009,-0.812316894531,-0.00696401530877
1661312218118085175,31612,1661312218118085175,,0.452422618866,-0.758422851562,-0.0320289134979
1661312218123018961,31613,1661312218123018961,,0.347707003355,-0.736480712891,0.00311001483351
1661312218127993186,31614,1661312218127993186,,0.357023477554,-0.71923828125,-0.00177616917063
1661312218132922851,31615,1661312218132922851,,0.511757850647,-0.806610107422,-0.0217927359045
1661312218138094801,31616,1661312218138094801,,0.373277932405,-0.698852539062,0.00826033297926
1661312218143067140,31617,1661312218143067140,,0.413383960724,-0.773834228516,0.0134149473161
1661312218147974316,31618,1661312218147974316,,0.305490702391,-0.749176025391,-0.0370256789029
1661312218154726536,31619,1661312218154726536,,0.404223322868,-0.840942382812,-0.00184864818584
1661312218158077259,31620,1661312218158077259,,0.36363312602,-0.778656005859,-0.0317177996039
1661312218163106450,31621,1661312218163106450,,0.331631928682,-0.905517578125,0.0434766076505
1661312218167905718,31622,1661312218167905718,,0.302763819695,-1.00979614258,0.00873330887407
1661312218173048125,31623,1661312218173048125,,0.400221645832,-0.988983154297,-0.021671269089
1661312218177977650,31624,1661312218177977650,,0.44185590744,-0.843231201172,-0.0318363979459
1661312218182961583,31625,1661312218182961583,,0.328084737062,-0.859588623047,0.00334320869297
1661312218188046998,31626,1661312218188046998,,0.458376079798,-0.806915283203,-0.0269038043916
1661312218198717276,31627,1661312218198717276,,0.3313344419,-0.902923583984,-0.0270252749324
1661312218199008033,31628,1661312218199008033,,0.446494877338,-0.847381591797,-0.0168277695775
1661312218203129055,31629,1661312218203129055,,0.37636205554,-0.942810058594,-0.0265202112496
1661312218208029456,31630,1661312218208029456,,0.410448938608,-0.943115234375,0.00791569799185
1661312218212980283,31631,1661312218212980283,,0.36986887455,-0.828857421875,-0.017017705366
1661312218217958419,31632,1661312218217958419,,0.356726586819,-0.902130126953,-0.0223284531385
1661312218223043345,31633,1661312218223043345,,0.486797988415,-0.806518554688,0.00799533911049
1661312218227990541,31634,1661312218227990541,,0.420181035995,-0.834075927734,0.00318535859697
1661312218232919228,31635,1661312218232919228,,0.49827387929,-0.894256591797,0.00273071695119
1661312218244777956,31636,1661312218244777956,,0.414888769388,-0.891876220703,-0.0416806712747
1661312218245319240,31637,1661312218245319240,,0.338923096657,-0.925415039062,-0.0113594615832
1661312218248016580,31638,1661312218248016580,,0.40141916275,-0.850769042969,-0.00250583095476
1661312218253164645,31639,1661312218253164645,,0.411727041006,-0.793304443359,0.00826749484986
1661312218258060715,31640,1661312218258060715,,0.47740060091,-0.806121826172,-0.0116370590404
1661312218262979135,31641,1661312218262979135,,0.373695313931,-0.847381591797,0.0231154076755
1661312218267943792,31642,1661312218267943792,,0.364167273045,-0.853118896484,-0.0467989072204
1661312218273081659,31643,1661312218273081659,,0.311216533184,-0.821044921875,-0.0515349768102
1661312218278025083,31644,1661312218278025083,,0.346446305513,-0.779144287109,-0.00177903391887
1661312218283616162,31645,1661312218283616162,,0.480052232742,-0.712707519531,0.0327783413231
1661312218288085491,31646,1661312218288085491,,0.350610136986,-0.867309570312,-0.0323234125972
1661312218293054548,31647,1661312218293054548,,0.493080317974,-0.916931152344,0.0237001106143
1661312218297974854,31648,1661312218297974854,,0.377410709858,-0.810424804688,-0.0222055539489
1661312218302998108,31649,1661312218302998108,,0.356200039387,-0.78759765625,-0.00147909054067
1661312218308854521,31650,1661312218308854521,,0.344880878925,-0.799407958984,0.0230721514672
1661312218313028764,31651,1661312218313028764,,0.535310208797,-0.867980957031,-0.00711900088936
1661312218317967508,31652,1661312218317967508,,0.458737552166,-0.914001464844,-0.0219362620264
1661312218324769247,31653,1661312218324769247,,0.358371585608,-0.964630126953,-0.071890451014
1661312218328007103,31654,1661312218328007103,,0.480148166418,-0.886932373047,-0.0167873762548
1661312218333008148,31655,1661312218333008148,,0.468163520098,-0.786163330078,-0.00265938346274
1661312218337901844,31656,1661312218337901844,,0.411109745502,-0.725036621094,0.0129531426355
1661312218343061851,31657,1661312218343061851,,0.384707212448,-0.887145996094,0.00323004950769
1661312218347979573,31658,1661312218347979573,,0.375145584345,-0.941741943359,-0.0566557869315
1661312218352914895,31659,1661312218352914895,,0.396898537874,-0.775177001953,0.0230512358248
1661312218358029854,31660,1661312218358029854,,0.465768486261,-0.810272216797,0.0181896891445
1661312218363681487,31661,1661312218363681487,,0.432280063629,-0.904479980469,-0.00200076843612
1661312218367935490,31662,1661312218367935490,,0.357823640108,-0.949096679688,0.00869005080312
1661312218373084113,31663,1661312218373084113,,0.505048036575,-0.844787597656,0.00761718768626
1661312218378019854,31664,1661312218378019854,,0.585153877735,-0.746704101562,-0.00746506685391
1661312218382975640,31665,1661312218382975640,,0.380876988173,-0.869232177734,-0.0113594615832
1661312218388089971,31666,1661312218388089971,,0.405130982399,-0.891662597656,0.00800364743918
1661312218393057071,31667,1661312218393057071,,0.422699302435,-0.769683837891,0.00299427751452
1661312218406420709,31668,1661312218406420709,,0.500537693501,-0.817962646484,-0.0518374964595
1661312218406706297,31669,1661312218406706297,,0.373580813408,-0.804992675781,0.00310600409284
1661312218408118315,31670,1661312218408118315,,0.52927261591,-0.802154541016,-0.00704652164131
1661312218413067745,31671,1661312218413067745,,0.436344206333,-0.923645019531,0.0331298522651
1661312218418008795,31672,1661312218418008795,,0.468648672104,-0.672058105469,-0.00289372331463
1661312218423068019,31673,1661312218423068019,,0.468465030193,-0.817687988281,-0.0117768608034
1661312218430506867,31674,1661312218430506867,,0.403717935085,-0.904357910156,0.023421080783
1661312218432988601,31675,1661312218432988601,,0.481761693954,-0.934478759766,-0.00673540541902
1661312218438086728,31676,1661312218438086728,,0.405032157898,-0.857788085938,-0.021752057597
1661312218445229022,31677,1661312218445229022,,0.365897923708,-0.905181884766,0.00307248602621
1661312218448017856,31678,1661312218448017856,,0.348006844521,-0.866821289062,-0.0019658182282
1661312218453060248,31679,1661312218453060248,,0.424766540527,-0.877166748047,-0.0222935006022
1661312218458150762,31680,1661312218458150762,,0.450775891542,-0.876312255859,0.00729776360095
1661312218463019244,31681,1661312218463019244,,0.347119480371,-0.862457275391,0.0235339533538
1661312218467951633,31682,1661312218467951633,,0.342378169298,-0.993408203125,0.0332051962614
1661312218473098161,31683,1661312218473098161,,0.402290523052,-0.850830078125,-0.0020872852765
1661312218478071338,31684,1661312218478071338,,0.417345911264,-0.920806884766,-0.0317848324776
1661312218485312181,31685,1661312218485312181,,0.402473390102,-0.890655517578,-0.00189190660603
1661312218488092005,31686,1661312218488092005,,0.398826956749,-0.961853027344,-0.0618742853403
1661312218493028725,31687,1661312218493028725,,0.445051729679,-0.92578125,-0.0222877711058
1661312218498011680,31688,1661312218498011680,,0.527229309082,-0.802673339844,-0.00723473774269
1661312218502955523,31689,1661312218502955523,,0.480775266886,-0.815795898438,0.0226997267455
1661312218508072926,31690,1661312218508072926,,0.379443854094,-0.770111083984,0.0276896171272
1661312218513008039,31691,1661312218513008039,,0.330330759287,-0.865570068359,-0.0114517081529
1661312218517981845,31692,1661312218517981845,,0.488515347242,-1.04742431641,-0.01201664377
1661312218526161518,31693,1661312218526161518,,0.474719822407,-0.850555419922,-0.0375642590225
1661312218528046932,31694,1661312218528046932,,0.478098958731,-0.912719726562,-0.0266640242189
1661312218532989937,31695,1661312218532989937,,0.444732576609,-0.783233642578,-0.0319842211902
1661312218537946911,31696,1661312218537946911,,0.487135916948,-0.828643798828,-0.0171683933586
1661312218543042523,31697,1661312218543042523,,0.391163229942,-0.838104248047,-0.00719835516065
1661312218547995097,31698,1661312218547995097,,0.320021539927,-0.905059814453,0.0035285607446
1661312218553069267,31699,1661312218553069267,,0.364018470049,-0.828247070312,-0.00143010250758
1661312218558076109,31700,1661312218558076109,,0.304071724415,-0.824859619141,0.00826463010162
1661312218566718283,31701,1661312218566718283,,0.388666450977,-0.868438720703,-0.00173577549867
1661312218568033848,31702,1661312218568033848,,0.388860136271,-0.843536376953,0.0134902913123
1661312218572944934,31703,1661312218572944934,,0.387439936399,-0.81640625,-0.0217102300376
1661312218578088738,31704,1661312218578088738,,0.457952082157,-0.770141601562,0.022857291624
1661312218582972237,31705,1661312218582972237,,0.314326256514,-0.790649414062,0.00803315453231
1661312218587936754,31706,1661312218587936754,,0.471871316433,-0.833831787109,-0.0420281738043
1661312218593089358,31707,1661312218593089358,,0.336425453424,-0.905883789062,-0.0317137874663
1661312218597993181,31708,1661312218597993181,,0.436568170786,-0.761657714844,0.0176110025495
1661312218605544057,31709,1661312218605544057,,0.380383133888,-0.790252685547,-0.00728343985975
1661312218608121965,31710,1661312218608121965,,0.388741523027,-0.83251953125,-0.00712874066085
1661312218614025383,31711,1661312218614025383,,0.322781711817,-0.832366943359,-0.0270628016442
1661312218618020966,31712,1661312218618020966,,0.424068242311,-0.857788085938,-0.0117851691321
1661312218623130337,31713,1661312218623130337,,0.378271192312,-0.848480224609,-0.0418356582522
1661312218628053018,31714,1661312218628053018,,0.357204794884,-0.834930419922,0.0131568294019
1661312218632987572,31715,1661312218632987572,,0.349632024765,-0.799072265625,0.00302493060008
1661312218637945733,31716,1661312218637945733,,0.468363851309,-0.779205322266,-0.00238579628058
1661312218643728322,31717,1661312218643728322,,0.420963287354,-0.804718017578,0.0429701134562
1661312218648068791,31718,1661312218648068791,,0.364833503962,-0.805206298828,-0.016394039616
1661312218653056286,31719,1661312218653056286,,0.385587096214,-0.927825927734,-0.00200220104307
1661312218658067108,31720,1661312218658067108,,0.371500968933,-0.952362060547,-0.0215191487223
1661312218663028342,31721,1661312218663028342,,0.457456678152,-0.885009765625,-0.00205233460292
1661312218668168095,31722,1661312218668168095,,0.401303142309,-0.822601318359,-0.0365612991154
1661312218672924480,31723,1661312218672924480,,0.347214668989,-0.807556152344,-0.0113651910797
1661312218683598739,31724,1661312218683598739,,0.405547380447,-0.795745849609,-0.00231331703253
1661312218683842491,31725,1661312218683842491,,0.421209067106,-0.873229980469,-0.021743748337
1661312218688043204,31726,1661312218688043204,,0.276696741581,-0.919403076172,-0.0313745960593
1661312218693057239,31727,1661312218693057239,,0.451810449362,-0.869140625,0.00812224950641
1661312218698000035,31728,1661312218698000035,,0.449017077684,-0.878356933594,-0.0217047873884
1661312218702991790,31729,1661312218702991790,,0.376171499491,-0.799255371094,-0.0113219320774
1661312218708156407,31730,1661312218708156407,,0.382538557053,-0.889801025391,0.0281554348767
1661312218713045913,31731,1661312218713045913,,0.354928821325,-0.777465820312,-0.00187700975221
1661312218723889052,31732,1661312218723889052,,0.29776930809,-0.808776855469,-0.00225630775094
1661312218724229607,31733,1661312218724229607,,0.428000718355,-0.752899169922,-0.00687091005966
1661312218728046113,31734,1661312218728046113,,0.284203290939,-0.902221679688,-0.0313442274928
1661312218733208705,31735,1661312218733208705,,0.443372011185,-0.823120117188,-0.0215724315494
1661312218737969489,31736,1661312218737969489,,0.412983626127,-0.809020996094,-0.0367681309581
1661312218743123700,31737,1661312218743123700,,0.442987918854,-0.893280029297,0.0285682473332
1661312218748568457,31738,1661312218748568457,,0.450650006533,-0.736297607422,-0.037198998034
1661312218753043304,31739,1661312218753043304,,0.451570749283,-0.745391845703,-0.00221734656952
1661312218758101341,31740,1661312218758101341,,0.312580049038,-0.865844726562,0.0332957208157
1661312218763052168,31741,1661312218763052168,,0.41922339797,-0.886932373047,0.0183653030545
1661312218767996989,31742,1661312218767996989,,0.468230932951,-0.887481689453,-0.0469289645553
1661312218772941670,31743,1661312218772941670,,0.386131137609,-0.896209716797,0.0334882363677
1661312218778057397,31744,1661312218778057397,,0.377850681543,-0.925048828125,-0.0121131865308
1661312218784609098,31745,1661312218784609098,,0.388264864683,-0.883880615234,-0.00206665880978
1661312218787958005,31746,1661312218787958005,,0.445517599583,-0.897430419922,-0.0414718315005
1661312218793151676,31747,1661312218793151676,,0.28752374649,-0.857025146484,-0.00672996230423
1661312218802658788,31748,1661312218802658788,,0.459004789591,-0.883453369141,-0.0367667004466
1661312218803122127,31749,1661312218803122127,,0.449076831341,-0.876068115234,0.013058854267
1661312218808150410,31750,1661312218808150410,,0.341638058424,-0.866180419922,-0.011955623515
1661312218813091320,31751,1661312218813091320,,0.451818734407,-0.933349609375,-0.00175983994268
1661312218817978590,31752,1661312218817978590,,0.494126528502,-0.856597900391,0.0129737695679
1661312218824586585,31753,1661312218824586585,,0.457132279873,-0.855407714844,-0.0126070771366
1661312218828063094,31754,1661312218828063094,,0.323795348406,-0.893157958984,-0.0161892101169
1661312218833017274,31755,1661312218833017274,,0.392690300941,-0.893127441406,-0.00726710958406
1661312218843475369,31756,1661312218843475369,,0.397516936064,-0.83447265625,-0.0118774147704
1661312218843987039,31757,1661312218843987039,,0.384405374527,-0.737762451172,-0.0017555427039
1661312218848145776,31758,1661312218848145776,,0.422111213207,-0.938232421875,-0.0219142027199
1661312218853095067,31759,1661312218853095067,,0.262429654598,-0.838958740234,0.0688062161207
1661312218857928977,31760,1661312218857928977,,0.30596268177,-0.914093017578,-0.00694768596441
1661312218863041841,31761,1661312218863041841,,0.392088592052,-0.920349121094,-0.00160055758897
1661312218867988478,31762,1661312218867988478,,0.364775210619,-0.831634521484,-0.00760343624279
1661312218872930994,31763,1661312218872930994,,0.331760466099,-0.841369628906,-0.00207066931762
1661312218883833710,31764,1661312218883833710,,0.350191444159,-0.9365234375,-0.00691560097039
1661312218884256819,31765,1661312218884256819,,0.316205739975,-0.898223876953,-0.00184062682092
1661312218887981132,31766,1661312218887981132,,0.380481153727,-0.776184082031,-0.00229956628755
1661312218893088687,31767,1661312218893088687,,0.426730751991,-0.805450439453,0.013318403624
1661312218898039654,31768,1661312218898039654,,0.441245019436,-0.916168212891,-0.00137194734998
1661312218902979028,31769,1661312218902979028,,0.447125226259,-0.810333251953,-0.0323460437357
1661312218907917842,31770,1661312218907917842,,0.370108008385,-0.775939941406,-0.0416964292526
1661312218913066186,31771,1661312218913066186,,0.459208786488,-0.918762207031,-0.002023400506
1661312218917990612,31772,1661312218917990612,,0.330788165331,-0.963623046875,-0.0213380940259
1661312218926832608,31773,1661312218926832608,,0.417557954788,-0.755615234375,-0.00699094450101
1661312218928103473,31774,1661312218928103473,,0.406804233789,-0.843231201172,0.00801310129464
1661312218933103121,31775,1661312218933103121,,0.396182268858,-0.731597900391,-0.00680530630052
1661312218938051294,31776,1661312218938051294,,0.42615801096,-0.868835449219,-0.00225917273201
1661312218943072803,31777,1661312218943072803,,0.47035163641,-0.813232421875,0.0184810403734
1661312218948042627,31778,1661312218948042627,,0.532187521458,-0.773559570312,-0.00740805827081
1661312218953007843,31779,1661312218953007843,,0.412173867226,-0.772399902344,-0.00714850751683
1661312218957966842,31780,1661312218957966842,,0.524939000607,-0.851989746094,-0.0323082320392
1661312218965516042,31781,1661312218965516042,,0.515380382538,-0.873321533203,0.0030567299109
1661312218968024386,31782,1661312218968024386,,0.333015054464,-0.83251953125,-0.0171517767012
1661312218973143536,31783,1661312218973143536,,0.440662026405,-0.871551513672,-0.0221514068544
1661312218978119297,31784,1661312218978119297,,0.410188823938,-0.836853027344,-0.0224960409105
1661312218983036111,31785,1661312218983036111,,0.482993513346,-0.932922363281,-0.0271106418222
1661312218988741034,31786,1661312218988741034,,0.55896627903,-0.822174072266,-0.0171434693038
1661312218993079687,31787,1661312218993079687,,0.405047237873,-0.905120849609,-0.00672451918945
1661312218998032470,31788,1661312218998032470,,0.467167645693,-0.731964111328,-0.00691817933694
1661312219013356464,31789,1661312219013356464,,0.342410773039,-0.798767089844,0.0177459362894
1661312219013889227,31790,1661312219013889227,,0.486416399479,-0.838409423828,-0.00752236275002
1661312219014297599,31791,1661312219014297599,,0.359373182058,-0.862701416016,-0.0318117626011
1661312219018060745,31792,1661312219018060745,,0.434325814247,-0.795684814453,-0.0721809342504
1661312219022975255,31793,1661312219022975255,,0.315730631351,-0.772796630859,-0.0221514068544
1661312219028066048,31794,1661312219028066048,,0.362862020731,-0.916748046875,0.0131677156314
1661312219033037480,31795,1661312219033037480,,0.33037596941,-0.862426757812,-0.0121034467593
1661312219038174509,31796,1661312219038174509,,0.353655576706,-0.840148925781,-0.00160771945957
1661312219042925237,31797,1661312219042925237,,0.344405293465,-0.859161376953,0.00851529836655
1661312219049497123,31798,1661312219049497123,,0.417453736067,-0.839141845703,-0.0269963406026
1661312219053060657,31799,1661312219053060657,,0.336511105299,-0.92919921875,-0.0312244798988
1661312219058054997,31800,1661312219058054997,,0.466209411621,-0.838287353516,-0.0214177351445
1661312219063094735,31801,1661312219063094735,,0.491253197193,-0.812438964844,-0.0519328936934
1661312219068016578,31802,1661312219068016578,,0.416557908058,-0.810668945312,-0.0219981428236
1661312219072984238,31803,1661312219072984238,,0.392646819353,-0.834838867188,-0.011839886196
1661312219078125109,31804,1661312219078125109,,0.311442017555,-0.893371582031,0.0277575124055
1661312219083058546,31805,1661312219083058546,,0.510928809643,-0.79443359375,0.0181407015771
1661312219089301681,31806,1661312219089301681,,0.35725402832,-0.804931640625,0.0138650061563
1661312219093006298,31807,1661312219093006298,,0.573963344097,-0.801879882812,-0.00740805827081
1661312219098167354,31808,1661312219098167354,,0.434541910887,-0.806518554688,-0.0419711619616
1661312219103008248,31809,1661312219103008248,,0.395419865847,-0.786651611328,0.00820160377771
1661312219107966060,31810,1661312219107966060,,0.400864601135,-0.862335205078,-0.0368139743805
1661312219113070334,31811,1661312219113070334,,0.469703793526,-0.83447265625,-0.047237213701
1661312219118057340,31812,1661312219118057340,,0.473661899567,-0.801147460938,-0.002726419596
1661312219123007609,31813,1661312219123007609,,0.473012655973,-0.796783447266,-0.0021056199912
1661312219130190064,31814,1661312219130190064,,0.415647745132,-0.793151855469,-0.0268092658371
1661312219133121099,31815,1661312219133121099,,0.432164311409,-0.915222167969,-0.0315410420299
1661312219138085197,31816,1661312219138085197,,0.483568966389,-0.880981445312,0.00782774947584
1661312219142943622,31817,1661312219142943622,,0.477543354034,-0.844146728516,0.008017398417
1661312219148056626,31818,1661312219148056626,,0.336134523153,-0.9091796875,-0.0368125401437
1661312219153010178,31819,1661312219153010178,,0.417754083872,-0.845153808594,-0.0469667837024
1661312219157966453,31820,1661312219157966453,,0.196359694004,-0.817901611328,-0.00195636437275
1661312219163107813,31821,1661312219163107813,,0.396452307701,-0.873718261719,0.0130282007158
1661312219169858567,31822,1661312219169858567,,0.298775702715,-0.810577392578,-0.0468590669334
1661312219173122544,31823,1661312219173122544,,0.401243269444,-0.861907958984,-0.0219239443541
1661312219178122472,31824,1661312219178122472,,0.506810367107,-0.903411865234,-0.0273031573743
1661312219183057725,31825,1661312219183057725,,0.35132303834,-0.913818359375,-0.0218795388937
1661312219187998286,31826,1661312219187998286,,0.397401332855,-0.872100830078,-0.0323403142393
1661312219192952047,31827,1661312219192952047,,0.518918514252,-0.868743896484,0.00279603386298
1661312219198099762,31828,1661312219198099762,,0.435982823372,-0.938659667969,-0.041509360075
1661312219203015180,31829,1661312219203015180,,0.378251582384,-0.912780761719,-0.00699352286756
1661312219208189715,31830,1661312219208189715,,0.407006502151,-0.828887939453,0.0380274951458
1661312219213168480,31831,1661312219213168480,,0.458641707897,-0.806884765625,0.0080941747874
1661312219218127130,31832,1661312219218127130,,-0.704467773438,-0.902618408203,-0.157701194286
1661312219222979829,31833,1661312219222979829,,-10.9363708496,-1.8337097168,-7.67524862289
1661312219228108337,31834,1661312219228108337,,-1.96185302734,-3.39660644531,-10.2090501785
1661312219233913556,31835,1661312219233913556,,4.99175167084,-4.30258178711,-9.46965694427
1661312219238007409,31836,1661312219238007409,,5.9128203392,0.389743506908,-7.096180439
1661312219250025101,31837,1661312219250025101,,3.25632166862,0.285638898611,-4.48501729965
1661312219250491303,31838,1661312219250491303,,1.69161367416,-0.544189453125,-3.36938047409
1661312219253092470,31839,1661312219253092470,,2.12967157364,-0.290161132812,-2.69975662231
1661312219258616779,31840,1661312219258616779,,1.41208779812,-0.380920410156,-1.86715769768
1661312219263087296,31841,1661312219263087296,,2.88007473946,0.278321713209,-0.742898523808
1661312219268027997,31842,1661312219268027997,,1.11819338799,-0.414337158203,-0.217926517129
1661312219272980431,31843,1661312219272980431,,0.343809902668,-0.873626708984,0.00445904396474
1661312219278119905,31844,1661312219278119905,,-0.148529052734,-0.857757568359,-0.00456188991666
1661312219283063120,31845,1661312219283063120,,0.115090459585,-0.861968994141,0.0116210160777
1661312219290195078,31846,1661312219290195078,,1.12570464611,-0.564697265625,0.151082098484
1661312219292967709,31847,1661312219292967709,,3.54659605026,0.224711760879,1.37513792515
1661312219299201275,31848,1661312219299201275,,1.89118909836,-0.327850341797,2.59990000725
1661312219303076170,31849,1661312219303076170,,0.553616821766,-0.462341308594,2.80962014198
1661312219308001156,31850,1661312219308001156,,0.304705858231,-0.896331787109,2.75497484207
1661312219313090692,31851,1661312219313090692,,0.466376155615,-0.784515380859,2.70443820953
1661312219318037958,31852,1661312219318037958,,0.508109211922,-0.50390625,2.88540911674
1661312219322984455,31853,1661312219322984455,,-0.138244628906,-1.19320678711,2.79032921791
1661312219328476078,31854,1661312219328476078,,0.239331915975,-1.11856079102,2.7497048378
1661312219333139502,31855,1661312219333139502,,1.51808571815,-0.88720703125,3.08026766777
1661312219338006588,31856,1661312219338006588,,0.760442495346,-0.574096679688,3.51975417137
1661312219342992197,31857,1661312219342992197,,-0.870330810547,-0.984619140625,3.10931110382
1661312219348092839,31858,1661312219348092839,,-1.60220336914,-0.923278808594,1.95803320408
1661312219353094512,31859,1661312219353094512,,-1.79357910156,-1.62222290039,0.728359699249
1661312219358022082,31860,1661312219358022082,,-0.705291748047,-1.18252563477,-0.116884253919
1661312219363127263,31861,1661312219363127263,,0.775798201561,-0.788604736328,-0.122429341078
1661312219368081164,31862,1661312219368081164,,0.345259666443,-0.905426025391,-0.0022270870395
1661312219373394198,31863,1661312219373394198,,0.40137642622,-0.835388183594,-0.00168019870762
1661312219377958026,31864,1661312219377958026,,0.403894603252,-0.852691650391,-0.00710381707177
1661312219383079759,31865,1661312219383079759,,0.387070506811,-0.914367675781,0.0484215244651
1661312219388725945,31866,1661312219388725945,,0.462628096342,-0.858642578125,0.00813027098775
1661312219392977713,31867,1661312219392977713,,0.319250285625,-0.828826904297,-0.0120713617653
1661312219398085060,31868,1661312219398085060,,0.500952124596,-0.899566650391,-0.00247689662501
1661312219405421797,31869,1661312219405421797,,0.424246966839,-0.890289306641,0.00312519841827
1661312219408054533,31870,1661312219408054533,,0.424385488033,-0.866546630859,-0.00695742666721
1661312219413211607,31871,1661312219413211607,,0.378526300192,-0.885192871094,-0.0119960168377
1661312219418072198,31872,1661312219418072198,,0.253178328276,-1.00250244141,-0.0113041708246
1661312219423030778,31873,1661312219423030778,,0.382648974657,-0.829498291016,0.0182103160769
1661312219427953739,31874,1661312219427953739,,0.415349334478,-0.869720458984,0.00347814010456
1661312219433234296,31875,1661312219433234296,,0.402398198843,-0.866485595703,-0.0119931530207
1661312219438058568,31876,1661312219438058568,,0.491330564022,-0.825958251953,0.00309311249293
1661312219445350327,31877,1661312219445350327,,0.37161013484,-0.867828369141,-0.0220843721181
1661312219448159765,31878,1661312219448159765,,0.519991159439,-0.871887207031,-0.00710238469765
1661312219453116460,31879,1661312219453116460,,0.564031481743,-0.857269287109,0.0121449865401
1661312219457988505,31880,1661312219457988505,,1.42027366161,-0.679931640625,0.218278884888
1661312219463101159,31881,1661312219463101159,,2.05749750137,-0.624542236328,0.802757382393
1661312219468074826,31882,1661312219468074826,,2.50806975365,-0.532867431641,1.84912621975
1661312219475419456,31883,1661312219475419456,,2.46517801285,-0.379974365234,2.73863840103
1661312219477997714,31884,1661312219477997714,,1.61744856834,0.289843410254,3.55412912369
1661312219484350013,31885,1661312219484350013,,2.19649028778,-0.359344482422,4.27459001541
1661312219488073278,31886,1661312219488073278,,1.30812215805,-0.377899169922,4.68005228043
1661312219493143049,31887,1661312219493143049,,0.463564097881,-1.08148193359,4.68154001236
1661312219498120487,31888,1661312219498120487,,-0.472961425781,-1.12850952148,4.36028289795
1661312219503114338,31889,1661312219503114338,,-0.366027832031,-1.10052490234,3.7857272625
1661312219507991272,31890,1661312219507991272,,0.749781429768,-0.455047607422,3.5594022274
1661312219512971155,31891,1661312219512971155,,1.74353134632,-0.365142822266,3.99101281166
1661312219518072355,31892,1661312219518072355,,1.70122253895,-0.647552490234,4.67705488205
1661312219526479089,31893,1661312219526479089,,-4.59735107422,-3.39544677734,1.19205701351
1661312219528067251,31894,1661312219528067251,,-1.19409179688,-1.04650878906,1.18544387817
1661312219533124380,31895,1661312219533124380,,0.793953180313,-0.425994873047,1.43247807026
1661312219538058655,31896,1661312219538058655,,3.27814126015,-0.0529174804688,0.837500751019
1661312219543026664,31897,1661312219543026664,,3.11537384987,-0.263458251953,-0.196058422327
1661312219548110892,31898,1661312219548110892,,5.5506901741,-1.32958984375,-1.36733829975
1661312219553078762,31899,1661312219553078762,,3.78120183945,-1.82037353516,-2.41566324234
1661312219558044326,31900,1661312219558044326,,1.87743675709,-2.00833129883,-3.7287967205
1661312219566632443,31901,1661312219566632443,,3.83393669128,-1.27545166016,-4.41059684753
1661312219568707272,31902,1661312219568707272,,2.43820381165,-1.17083740234,-4.46126413345
1661312219573091113,31903,1661312219573091113,,-0.509582519531,-3.04055786133,-5.06682109833
1661312219578011140,31904,1661312219578011140,,5.84754085541,-1.44604492188,-5.57546424866
1661312219583121001,31905,1661312219583121001,,5.63790845871,-0.776580810547,-6.22595834732
1661312219588579518,31906,1661312219588579518,,1.8557728529,-0.992431640625,-7.53736305237
1661312219592995907,31907,1661312219592995907,,3.55050301552,0.235027909279,-7.42619132996
1661312219598115685,31908,1661312219598115685,,4.63605976105,0.287701636553,-7.18622970581
1661312219608263328,31909,1661312219608263328,,3.57121658325,-1.99829101562,-8.55275058746
1661312219609174990,31910,1661312219609174990,,-0.722259521484,-5.61853027344,-8.96021080017
1661312219613006303,31911,1661312219613006303,,-1.22247314453,-1.26611328125,-8.91785430908
1661312219618113439,31912,1661312219618113439,,-5.94808959961,-2.52288818359,-8.0594291687
1661312219623008253,31913,1661312219623008253,,-5.86895751953,0.13848477602,-6.93478775024
1661312219627976542,31914,1661312219627976542,,3.75780844688,-1.13827514648,-6.88055181503
1661312219633102117,31915,1661312219633102117,,4.10928249359,-1.68002319336,-6.68788337708
1661312219638043306,31916,1661312219638043306,,1.45324754715,-4.75689697266,-7.19765663147
1661312219650404906,31917,1661312219650404906,,-6.14483642578,-2.73669433594,-7.46664762497
1661312219650695244,31918,1661312219650695244,,-1.6565246582,-2.97430419922,-6.82978916168
1661312219653183264,31919,1661312219653183264,,3.9288110733,-4.19802856445,-6.20386838913
1661312219658092326,31920,1661312219658092326,,1.80301952362,-3.54510498047,-5.61284303665
1661312219663034842,31921,1661312219663034842,,-5.11532592773,-3.53735351562,-4.8285446167
1661312219668068783,31922,1661312219668068783,,1.21418833733,-3.97082519531,-4.96519517899
1661312219673057885,31923,1661312219673057885,,4.44900798798,-11.7473449707,-6.76754951477
1661312219677978401,31924,1661312219677978401,,1.74981164932,-5.19384765625,-6.07279634476
1661312219683099367,31925,1661312219683099367,,1.32979118824,0.836464345455,-4.08954191208
1661312219690582146,31926,1661312219690582146,,-3.5133972168,-2.10470581055,-3.95216083527
1661312219693088047,31927,1661312219693088047,,0.399556875229,-4.74993896484,-4.27074337006
1661312219698174510,31928,1661312219698174510,,0.139554426074,-7.6936340332,-4.52321147919
1661312219703106131,31929,1661312219703106131,,-3.23916625977,-14.3959655762,-4.72330188751
1661312219708026926,31930,1661312219708026926,,-2.44534301758,-17.3086547852,-3.21172714233
1661312219712974262,31931,1661312219712974262,,2.59795808792,-7.61303710938,-2.26470947266
1661312219718128962,31932,1661312219718128962,,0.467867970467,-9.73904418945,-2.23938846588
1661312219723077904,31933,1661312219723077904,,-0.107604980469,-12.9914855957,-1.22403252125
1661312219729339337,31934,1661312219729339337,,4.73384046555,-10.0740661621,-0.481696218252
1661312219733251459,31935,1661312219733251459,,10.6494941711,-8.96771240234,0.338274270296
1661312219738080480,31936,1661312219738080480,,10.9879331589,-8.55935668945,0.820546030998
1661312219743014266,31937,1661312219743014266,,8.41689395905,-5.72302246094,0.679037213326
1661312219747953430,31938,1661312219747953430,,9.11234664917,-7.13098144531,0.964987814426
1661312219755083153,31939,1661312219755083153,,11.2540979385,-4.44229125977,0.94656175375
1661312219757899855,31940,1661312219757899855,,10.0325288773,-8.36041259766,0.753792464733
1661312219762879319,31941,1661312219762879319,,9.36146259308,-8.59222412109,0.871854960918
1661312219770873140,31942,1661312219770873140,,7.62568092346,-10.8627929688,0.352988392115
1661312219772923664,31943,1661312219772923664,,8.00435638428,-11.3528442383,0.931198894978
1661312219779403776,31944,1661312219779403776,,5.21165275574,-9.18780517578,1.27997887135
1661312219782799897,31945,1661312219782799897,,7.4730553627,-8.75094604492,1.56403899193
1661312219787930640,31946,1661312219787930640,,9.51077651978,-14.0544128418,2.03624224663
1661312219792898510,31947,1661312219792898510,,10.5415916443,-14.8977355957,2.37648367882
1661312219797855274,31948,1661312219797855274,,12.2950143814,-13.3708496094,2.19052886963
1661312219802900251,31949,1661312219802900251,,13.1299705505,-9.26626586914,2.2914018631
1661312219812622479,31950,1661312219812622479,,21.0401287079,-15.1907043457,2.21127772331
1661312219813187510,31951,1661312219813187510,,21.0497398376,-16.2325134277,1.79936122894
1661312219817837733,31952,1661312219817837733,,21.4293498993,-13.1416015625,1.62173354626
1661312219822890043,31953,1661312219822890043,,21.977022171,-15.0073852539,1.50513887405
1661312219827821454,31954,1661312219827821454,,25.9559459686,-17.1564331055,1.65949428082
1661312219836918797,31955,1661312219836918797,,26.3556423187,-16.1757507324,1.24329972267
1661312219838006324,31956,1661312219838006324,,28.736125946,-18.5881652832,1.10215711594
1661312219842878857,31957,1661312219842878857,,30.3832435608,-21.2692871094,0.62857401371
1661312219852461190,31958,1661312219852461190,,28.2696418762,-19.1453857422,0.509820997715
1661312219853150262,31959,1661312219853150262,,28.8915119171,-19.210357666,0.0496124140918
1661312219857938216,31960,1661312219857938216,,26.8319854736,-21.000213623,-0.0221201814711
1661312219862850910,31961,1661312219862850910,,25.5688915253,-23.0046081543,0.200351297855
1661312219867798804,31962,1661312219867798804,,24.2601966858,-22.2693481445,0.222886309028
1661312219872894766,31963,1661312219872894766,,21.8712177277,-20.711730957,0.441482901573
1661312219877848667,31964,1661312219877848667,,19.9654140472,-21.0171203613,0.646267175674
1661312219882791532,31965,1661312219882791532,,16.4563655853,-21.7926940918,1.01584005356
1661312219891196870,31966,1661312219891196870,,10.5267887115,-20.1194763184,1.38247525692
1661312219892993583,31967,1661312219892993583,,4.22961807251,-16.1747436523,1.82631063461
1661312219897896359,31968,1661312219897896359,,-1.41262817383,-10.9405517578,2.2194378376
1661312219902830424,31969,1661312219902830424,,-5.30380249023,-4.71759033203,2.51058554649
1661312219907891395,31970,1661312219907891395,,-7.48468017578,-1.66690063477,2.76428055763
1661312219913752139,31971,1661312219913752139,,-10.183807373,0.459289252758,2.83206033707
1661312219917781596,31972,1661312219917781596,,-12.6210632324,1.58569669724,2.80558538437
1661312219922904517,31973,1661312219922904517,,-15.0032043457,2.75737476349,2.73666167259
1661312219929275465,31974,1661312219929275465,,-15.2808227539,4.62390136719,2.5472843647
1661312219932807710,31975,1661312219932807710,,-14.842590332,5.43352460861,2.34502458572
1661312219938004734,31976,1661312219938004734,,-13.9959106445,3.70573282242,2.17529559135
1661312219942907440,31977,1661312219942907440,,-13.3648681641,1.50829708576,2.01228833199
1661312219947800787,31978,1661312219947800787,,-13.1704406738,2.05274510384,1.60159862041
1661312219954426941,31979,1661312219954426941,,-13.1492004395,2.17642617226,1.14413619041
1661312219957885781,31980,1661312219957885781,,-12.2393493652,2.64180803299,0.801773607731
1661312219962821732,31981,1661312219962821732,,-11.4287109375,2.62257409096,0.748625814915
1661312219969791654,31982,1661312219969791654,,-10.1508789062,3.04659223557,0.889438509941
1661312219972911545,31983,1661312219972911545,,-7.84371948242,3.71168875694,1.24453556538
1661312219978321522,31984,1661312219978321522,,-5.35012817383,3.91741394997,1.51199865341
1661312219982823607,31985,1661312219982823607,,-3.57827758789,3.67130875587,1.5817501545
1661312219987915868,31986,1661312219987915868,,-2.16033935547,2.20942950249,1.24424517155
1661312219994868259,31987,1661312219994868259,,-0.974395751953,1.62115907669,0.752920389175
1661312219997808444,31988,1661312219997808444,,0.9559918046,1.49567484856,0.260655403137
1661312220002808650,31989,1661312220002808650,,0.291624307632,1.3046207428,-0.441038250923
1661312220016084217,31990,1661312220016084217,,-1.54541015625,1.36147522926,-1.06506347656
1661312220016421490,31991,1661312220016421490,,-3.86730957031,0.344186902046,-1.59509122372
1661312220017948400,31992,1661312220017948400,,-6.16058349609,-0.574829101562,-1.95551204681
1661312220023107849,31993,1661312220023107849,,-8.31088256836,-0.591003417969,-2.03170394897
1661312220028705843,31994,1661312220028705843,,-9.27365112305,0.174224466085,-1.95628654957
1661312220035554448,31995,1661312220035554448,,-9.83441162109,0.426258444786,-2.01165008545
1661312220037897894,31996,1661312220037897894,,-9.15908813477,1.32257056236,-2.13229775429
1661312220042974370,31997,1661312220042974370,,-7.30740356445,1.23795819283,-2.32110238075
1661312220047816802,31998,1661312220047816802,,-6.33889770508,0.859483718872,-2.34173512459
1661312220052959279,31999,1661312220052959279,,-5.27603149414,0.0771538168192,-2.27789902687
1661312220057899910,32000,1661312220057899910,,-4.02984619141,0.301648467779,-1.85528576374
1661312220062847526,32001,1661312220062847526,,-2.84909057617,0.476474016905,-1.46289122105
1661312220067788436,32002,1661312220067788436,,-1.8818359375,-2.41900634766,-1.13304412365
1661312220072908355,32003,1661312220072908355,,-0.691772460938,-0.73291015625,-1.25547134876
1661312220077860370,32004,1661312220077860370,,1.75990045071,-1.01712036133,-1.39058661461
1661312220082854222,32005,1661312220082854222,,1.23691594601,-1.30776977539,-1.98624527454
1661312220094957263,32006,1661312220094957263,,-1.67153930664,-0.370391845703,-2.15394592285
1661312220095313882,32007,1661312220095313882,,-3.31838989258,0.568654239178,-2.00324678421
1661312220097828652,32008,1661312220097828652,,-3.45388793945,1.3962546587,-1.5127300024
1661312220102858752,32009,1661312220102858752,,-3.52368164062,2.45624542236,-0.858039498329
1661312220107963375,32010,1661312220107963375,,-3.2326965332,2.58754897118,-0.349893569946
1661312220112849109,32011,1661312220112849109,,-3.46002197266,3.02973532677,0.194785878062
1661312220117799658,32012,1661312220117799658,,-3.35900878906,3.53178167343,0.40249428153
1661312220122917132,32013,1661312220122917132,,-2.39059448242,3.36015248299,0.116628132761
1661312220127877669,32014,1661312220127877669,,-3.09274291992,3.31102991104,-0.330053776503
1661312220135297450,32015,1661312220135297450,,-4.4153137207,3.23483228683,-0.583165049553
1661312220137770106,32016,1661312220137770106,,-6.70907592773,2.97006678581,-0.749777972698
1661312220148777448,32017,1661312220148777448,,-8.60589599609,3.13153243065,-0.701180279255
1661312220149040058,32018,1661312220149040058,,-9.78765869141,3.14175033569,-0.283580601215
1661312220152920541,32019,1661312220152920541,,-10.7992858887,3.26488518715,0.180903986096
1661312220157925497,32020,1661312220157925497,,-10.8550109863,2.82223415375,0.788552641869
