%time,field.header.seq,field.header.stamp,field.header.frame_id,field.vector.x,field.vector.y,field.vector.z
1661321101983184987,35913,1661321101983184987,,0.800680220127,-0.270141601562,-0.0353194102645
1661321101983420629,35914,1661321101983420629,,0.721232116222,-0.229339599609,-0.0207794606686
1661321101988319251,35915,1661321101988319251,,0.589438259602,-0.00851440429688,-0.0457495301962
1661321101993230305,35916,1661321101993230305,,0.738697588444,0.0838132724166,-0.00141320039984
1661321101998311350,35917,1661321101998311350,,0.418903887272,-0.0643005371094,-2.2345351681e-05
1661321102003249711,35918,1661321102003249711,,0.21769221127,0.000333726435201,-0.031003318727
1661321102008278726,35919,1661321102008278726,,0.422485977411,-0.139495849609,-0.000752007123083
1661321102013529554,35920,1661321102013529554,,0.626843810081,-0.0460815429688,0.0439942777157
1661321102018345065,35921,1661321102018345065,,0.776286840439,0.157816365361,-0.0313115678728
1661321102023327915,35922,1661321102023327915,,0.741442620754,0.0143219362944,-0.0205703303218
1661321102028182328,35923,1661321102028182328,,0.76448738575,0.00240422668867,0.0189351085573
1661321102033329303,35924,1661321102033329303,,0.644690155983,-0.0436401367188,0.0240559205413
1661321102038242033,35925,1661321102038242033,,0.574891090393,-0.133483886719,0.00408977270126
1661321102043258126,35926,1661321102043258126,,0.403512984514,0.0119391707703,-0.0308609399945
1661321102048332956,35927,1661321102048332956,,0.590189635754,0.0748387798667,-0.0211521685123
1661321102053272435,35928,1661321102053272435,,0.31146350503,-0.0597229003906,0.019593436271
1661321102064945179,35929,1661321102064945179,,0.22148874402,-0.0745849609375,0.0195642169565
1661321102065261697,35930,1661321102065261697,,0.496521770954,0.00729464227334,-0.00118430366274
1661321102068348583,35931,1661321102068348583,,0.635694503784,0.0331687070429,-0.0160743296146
1661321102073285757,35932,1661321102073285757,,0.765802323818,0.0465177893639,-0.0508984215558
1661321102078247515,35933,1661321102078247515,,0.669188499451,-0.0270080566406,-0.0107231922448
1661321102083334706,35934,1661321102083334706,,0.651735842228,0.0234493128955,-0.0209946054965
1661321102088779202,35935,1661321102088779202,,0.696929574013,-0.0520629882812,0.0343299135566
1661321102093204933,35936,1661321102093204933,,0.666929066181,-0.0780944824219,-0.0152678927407
1661321102102445128,35937,1661321102102445128,,0.487767606974,0.0402448475361,-0.0262729804963
1661321102103537785,35938,1661321102103537785,,0.399294167757,-0.160430908203,-0.0310772303492
1661321102110511442,35939,1661321102110511442,,0.449455916882,-0.0405578613281,-0.0208828784525
1661321102113390831,35940,1661321102113390831,,0.512367129326,-0.0534057617188,-0.0359737277031
1661321102118291129,35941,1661321102118291129,,0.639314055443,-0.0272521972656,-0.00595532357693
1661321102123239618,35942,1661321102123239618,,0.67701870203,-0.0602722167969,-0.0260011088103
1661321102128206124,35943,1661321102128206124,,0.576573908329,-0.182312011719,-0.0202299933881
1661321102133291710,35944,1661321102133291710,,0.685857772827,-0.0829772949219,-0.0107650170103
1661321102144124900,35945,1661321102144124900,,0.625496208668,0.00446769734845,0.0195487458259
1661321102144544991,35946,1661321102144544991,,0.632755815983,-0.00604248046875,0.0139466524124
1661321102148335940,35947,1661321102148335940,,0.515214383602,0.154090866446,-0.0408547520638
1661321102153322143,35948,1661321102153322143,,0.36316215992,0.0540928281844,0.0294016171247
1661321102158241856,35949,1661321102158241856,,0.477352052927,-0.0625305175781,-0.0110343070701
1661321102163174211,35950,1661321102163174211,,0.573842644691,-0.0221557617188,-0.0102573772892
1661321102168288710,35951,1661321102168288710,,0.648569941521,-0.0396423339844,-0.0310465786606
1661321102173235522,35952,1661321102173235522,,0.547790646553,0.0223690755665,-0.0256117861718
1661321102181612487,35953,1661321102181612487,,0.511955738068,0.0711049214005,-0.0357433967292
1661321102183437213,35954,1661321102183437213,,0.598761439323,-0.0207824707031,0.0240198206156
1661321102188380603,35955,1661321102188380603,,0.657192647457,0.0153269451112,-0.0210043471307
1661321102193199257,35956,1661321102193199257,,0.53438615799,-0.0538940429688,-0.0211129225791
1661321102198384645,35957,1661321102198384645,,0.533336758614,-0.0133056640625,0.0045432690531
1661321102203268041,35958,1661321102203268041,,0.559290528297,0.0469900742173,-0.0259953811765
1661321102208226168,35959,1661321102208226168,,0.508651971817,0.00177881866693,-0.000684971048031
1661321102213187716,35960,1661321102213187716,,0.580331087112,0.0694022253156,-0.0109157059342
1661321102222271607,35961,1661321102222271607,,0.561474144459,-0.00418090820312,0.0041676950641
1661321102223288347,35962,1661321102223288347,,0.555632889271,0.00418007560074,0.0139326145872
1661321102228315965,35963,1661321102228315965,,0.674288034439,-0.0580749511719,-0.0152274984866
1661321102233326402,35964,1661321102233326402,,0.521956562996,0.0450295545161,-0.00068926817039
1661321102238368825,35965,1661321102238368825,,0.490036994219,-0.0162963867188,-0.0109603963792
1661321102243230152,35966,1661321102243230152,,0.498646885157,-0.0185241699219,-0.0256954394281
1661321102248159434,35967,1661321102248159434,,0.595984220505,-0.00796508789062,0.00393908470869
1661321102253294187,35968,1661321102253294187,,0.409293502569,0.0124582648277,-0.0207768827677
1661321102258444026,35969,1661321102258444026,,0.431605011225,-0.0458068847656,-0.0160491205752
1661321102263182224,35970,1661321102263182224,,0.571494817734,-0.0680236816406,-0.0358983837068
1661321102268410424,35971,1661321102268410424,,0.538042843342,-0.0146484375,-0.0103842867538
1661321102273240741,35972,1661321102273240741,,0.540841221809,-0.06396484375,0.0242498647422
1661321102278207528,35973,1661321102278207528,,0.570203006268,-0.0130920410156,-0.0254333093762
1661321102283359182,35974,1661321102283359182,,0.534971356392,-0.0259399414062,0.0389152951539
1661321102288257036,35975,1661321102288257036,,0.493175685406,-0.123870849609,-0.00121667585336
1661321102298628440,35976,1661321102298628440,,0.54045689106,-0.0827941894531,-0.0311514288187
1661321102299258123,35977,1661321102299258123,,0.581695556641,0.0476409271359,0.00882412213832
1661321102303353298,35978,1661321102303353298,,0.499845534563,0.0920124873519,0.0238983556628
1661321102308276154,35979,1661321102308276154,,0.488039553165,-0.0880737304688,-0.0306225903332
1661321102313240287,35980,1661321102313240287,,0.50703138113,0.00210369820707,-0.00068926817039
1661321102318385167,35981,1661321102318385167,,0.590584635735,0.00535486824811,-0.0261698458344
1661321102323485838,35982,1661321102323485838,,0.613653302193,-0.0198059082031,-0.0152678927407
1661321102328193376,35983,1661321102328193376,,0.731791734695,0.0949444919825,0.00859264843166
1661321102341005709,35984,1661321102341005709,,0.598818540573,0.0416095145047,-0.00126537727192
1661321102341623170,35985,1661321102341623170,,0.587836921215,-0.0130004882812,0.0491460263729
1661321102343314361,35986,1661321102343314361,,0.494261413813,-0.0540466308594,-0.00568746542558
1661321102348353014,35987,1661321102348353014,,0.512637972832,-0.0547790527344,-0.0457440875471
1661321102353287254,35988,1661321102353287254,,0.529107987881,0.0189862735569,-0.0405923388898
1661321102358238606,35989,1661321102358238606,,0.612048149109,-0.0155944824219,-0.0115671576932
1661321102365507898,35990,1661321102365507898,,0.555663943291,-0.140533447266,0.0143548846245
1661321102368441135,35991,1661321102368441135,,0.643330514431,0.0725930929184,-0.015806760639
1661321102373283465,35992,1661321102373283465,,0.654747664928,-0.0372924804688,0.0339781157672
1661321102378898372,35993,1661321102378898372,,0.546730697155,-0.108764648438,-0.000197097484488
1661321102383341843,35994,1661321102383341843,,0.552055180073,-0.0643005371094,0.009004031308
1661321102388275036,35995,1661321102388275036,,0.561420798302,-0.0745544433594,0.024243850261
1661321102393238819,35996,1661321102393238819,,0.428660362959,-0.0603637695312,-0.0107389483601
1661321102398171593,35997,1661321102398171593,,0.540286421776,0.0266377385706,0.0190365221351
1661321102403265978,35998,1661321102403265978,,0.561087191105,0.0766239389777,0.0290469545871
1661321102408231158,35999,1661321102408231158,,0.473718285561,0.00154413131531,0.0396641492844
1661321102422821844,36000,1661321102422821844,,0.626256644726,0.0705992206931,-0.0160104446113
1661321102423574935,36001,1661321102423574935,,0.528104543686,-0.0138549804688,0.0241255331784
1661321102423831600,36002,1661321102423831600,,0.516879379749,-0.0539245605469,0.0241965800524
1661321102428245877,36003,1661321102428245877,,0.503854870796,-0.123443603516,0.0244979560375
1661321102433367919,36004,1661321102433367919,,0.482843160629,-0.0921936035156,-0.0407181046903
1661321102438280090,36005,1661321102438280090,,0.484371989965,0.0377074666321,-0.0555299259722
1661321102443222222,36006,1661321102443222222,,0.606806635857,-0.0315246582031,-0.0159336701035
1661321102448158069,36007,1661321102448158069,,0.385209560394,0.00167679577135,-0.0105518773198
1661321102453301972,36008,1661321102453301972,,0.544432640076,-0.01171875,-0.0259441025555
1661321102465779210,36009,1661321102465779210,,0.508939325809,-0.0352783203125,-0.0210143737495
1661321102466263485,36010,1661321102466263485,,0.500204205513,-0.0521240234375,0.0243206266314
1661321102468396907,36011,1661321102468396907,,0.592231273651,-0.0498657226562,0.0492488741875
1661321102473378290,36012,1661321102473378290,,0.509283483028,-0.00717163085938,-0.0155976293609
1661321102478264131,36013,1661321102478264131,,0.572442293167,-0.0455932617188,0.024235541001
1661321102483315075,36014,1661321102483315075,,0.604051053524,0.026337210089,-0.0214758906513
1661321102490561809,36015,1661321102490561809,,0.638144373894,-0.0885009765625,-0.00114849384408
1661321102493223016,36016,1661321102493223016,,0.601891934872,-0.0949401855469,-0.015735713765
1661321102498198602,36017,1661321102498198602,,0.456078052521,-0.0136413574219,-0.0105475801975
1661321102507262031,36018,1661321102507262031,,0.5480671525,-0.0565490722656,0.014501562342
1661321102508646132,36019,1661321102508646132,,0.510015904903,0.0875187665224,-0.0157927218825
1661321102513237735,36020,1661321102513237735,,0.471177816391,0.104263536632,0.00930512044579
1661321102518325415,36021,1661321102518325415,,0.60772138834,-0.0052490234375,-0.0209318678826
1661321102523270760,36022,1661321102523270760,,0.588832497597,0.0746550783515,-0.000732812972274
1661321102531944129,36023,1661321102531944129,,0.624479115009,-0.0545959472656,0.00911404006183
1661321102533222981,36024,1661321102533222981,,0.480504781008,-0.0800476074219,-0.0302530322224
1661321102538574309,36025,1661321102538574309,,0.540555238724,0.0610926002264,-0.0105868270621
1661321102545141634,36026,1661321102545141634,,0.502230405807,-0.0540771484375,-0.0452894456685
1661321102548427426,36027,1661321102548427426,,0.510783135891,0.00786837842315,-0.0112397130579
1661321102553402174,36028,1661321102553402174,,0.582441747189,-0.0921936035156,0.0141947427765
1661321102558277678,36029,1661321102558277678,,0.453749060631,0.00896120816469,0.00917964242399
1661321102563215132,36030,1661321102563215132,,0.489467799664,-0.00601196289062,-0.0358705967665
1661321102568305536,36031,1661321102568305536,,0.515926897526,0.0434291288257,-0.0111211109906
1661321102573271764,36032,1661321102573271764,,0.565071284771,-0.0174560546875,0.0040754484944
1661321102578227026,36033,1661321102578227026,,0.548680841923,0.0460128001869,-0.0209682490677
1661321102589599735,36034,1661321102589599735,,0.596319079399,-0.0310974121094,0.00903611723334
1661321102590091273,36035,1661321102590091273,,0.426707416773,6.2131723098e-05,-0.030444111675
1661321102593276495,36036,1661321102593276495,,0.556984305382,-0.0641479492188,-0.03564055264
1661321102598290354,36037,1661321102598290354,,0.448527902365,-0.145263671875,-0.0402551554143
1661321102603328029,36038,1661321102603328029,,0.536257922649,-0.0920715332031,-0.0353572256863
1661321102608270161,36039,1661321102608270161,,0.637669324875,0.00103818881325,0.0338245630264
1661321102615549580,36040,1661321102615549580,,0.615211546421,-0.0508728027344,-0.0108546847478
1661321102618317015,36041,1661321102618317015,,0.560667097569,-0.0812683105469,-0.000611345982179
1661321102623268367,36042,1661321102623268367,,0.543001353741,-0.0614624023438,0.0195805449039
1661321102630435063,36043,1661321102630435063,,0.441103577614,-0.023193359375,-0.00590117881075
1661321102633198587,36044,1661321102633198587,,0.442693471909,-0.0707397460938,-0.0151315284893
1661321102638337950,36045,1661321102638337950,,0.563669145107,-0.0841674804688,-0.0258604492992
1661321102643234756,36046,1661321102643234756,,0.558612942696,-0.0138244628906,0.0293162465096
1661321102648205034,36047,1661321102648205034,,0.56866145134,-0.0284423828125,-0.0110749872401
1661321102653321000,36048,1661321102653321000,,0.55653822422,-0.001953125,-0.0260933563113
1661321102658264879,36049,1661321102658264879,,0.496130049229,0.0848692506552,-0.0314095467329
1661321102663230408,36050,1661321102663230408,,0.609267473221,-0.0675048828125,0.0091100288555
1661321102669568236,36051,1661321102669568236,,0.611542284489,0.00812025181949,0.00874304957688
1661321102673354785,36052,1661321102673354785,,0.520159006119,-0.00518798828125,-0.000583271030337
1661321102678229382,36053,1661321102678229382,,0.578014612198,-0.0166931152344,-0.0608420968056
1661321102683226968,36054,1661321102683226968,,0.550276815891,0.0913439020514,-0.0714564323425
1661321102688302147,36055,1661321102688302147,,0.563967704773,0.00366724166088,-0.00554250739515
1661321102693228915,36056,1661321102693228915,,0.585328102112,-0.0491333007812,0.0198148861527
1661321102698215955,36057,1661321102698215955,,0.594712078571,-0.004638671875,-0.0207476615906
1661321102709368596,36058,1661321102709368596,,0.523707985878,0.0219678394496,0.0144316609949
1661321102710035434,36059,1661321102710035434,,0.660462319851,-0.00576782226562,-0.0214369297028
1661321102713340502,36060,1661321102713340502,,0.532226979733,0.0371585376561,-0.00577426841483
1661321102719545214,36061,1661321102719545214,,0.598053634167,-0.00860595703125,-0.0109300296754
1661321102723278964,36062,1661321102723278964,,0.642843306065,-0.0791931152344,0.0241616293788
1661321102728225426,36063,1661321102728225426,,0.513344466686,0.104060530663,0.00395541405305
1661321102733182435,36064,1661321102733182435,,0.602110028267,-0.0351257324219,-0.0656813010573
1661321102738327594,36065,1661321102738327594,,0.579525589943,-0.0317687988281,0.0191998146474
1661321102743271333,36066,1661321102743271333,,0.608990609646,-0.00527954101562,-0.0106257880107
1661321102748202361,36067,1661321102748202361,,0.502814650536,-0.0855712890625,0.0191161632538
1661321102753366727,36068,1661321102753366727,,0.563698589802,-0.138153076172,-0.00573788536713
1661321102758335329,36069,1661321102758335329,,0.587121486664,0.0442741066217,-0.00593469711021
1661321102763224592,36070,1661321102763224592,,0.581658184528,-0.150054931641,-0.0255897268653
1661321102768184185,36071,1661321102768184185,,0.545771956444,0.0494181439281,-0.0208636857569
1661321102773279059,36072,1661321102773279059,,0.573352575302,-0.126892089844,0.0198472570628
1661321102778268963,36073,1661321102778268963,,0.528320729733,-0.0133056640625,0.0145350797102
1661321102791791087,36074,1661321102791791087,,0.521031856537,0.0658431351185,0.0193086788058
1661321102791934539,36075,1661321102791934539,,0.468280494213,-0.116180419922,0.0146158682182
1661321102793316127,36076,1661321102793316127,,0.646453797817,-0.0176391601562,0.00388723239303
1661321102798241567,36077,1661321102798241567,,0.491388052702,0.0122123779729,-0.00582440244034
1661321102803411799,36078,1661321102803411799,,0.599368035793,-0.003662109375,-0.00566540658474
1661321102808298479,36079,1661321102808298479,,0.60792529583,-0.0447082519531,-0.00115680182353
1661321102813230554,36080,1661321102813230554,,0.554609656334,-0.155212402344,-0.0406708344817
1661321102818469020,36081,1661321102818469020,,0.524749338627,-0.0378112792969,0.00869148317724
1661321102823300246,36082,1661321102823300246,,0.621236562729,0.00923441629857,-0.011360893026
1661321102829183621,36083,1661321102829183621,,0.493655711412,-0.144744873047,-0.000462090451038
1661321102833395570,36084,1661321102833395570,,0.501038014889,-0.0709838867188,-0.0257767997682
1661321102838401886,36085,1661321102838401886,,0.576907098293,-0.0119934082031,0.00384798459709
1661321102843253994,36086,1661321102843253994,,0.537154376507,-0.01806640625,-0.0208189953119
1661321102848220082,36087,1661321102848220082,,0.62029594183,-0.0560302734375,0.0191608555615
1661321102853140703,36088,1661321102853140703,,0.586631119251,-0.0108337402344,0.00854079518467
1661321102858442865,36089,1661321102858442865,,0.598487854004,-0.1201171875,-0.0510619990528
1661321102867833007,36090,1661321102867833007,,0.534593462944,0.0210916250944,-0.00589831359684
1661321102868550480,36091,1661321102868550480,,0.601409256458,-0.146789550781,-0.0206599980593
1661321102874297037,36092,1661321102874297037,,0.61946696043,0.00592860439792,-0.021315747872
1661321102878356105,36093,1661321102878356105,,0.586289703846,0.0723656639457,0.0141875818372
1661321102883279450,36094,1661321102883279450,,0.583658695221,-0.0469055175781,0.0291669890285
1661321102888311398,36095,1661321102888311398,,0.558344841003,-0.0129699707031,-0.00581752695143
1661321102893257721,36096,1661321102893257721,,0.481040209532,0.0199368502945,-0.0310190748423
1661321102898450442,36097,1661321102898450442,,0.523893415928,0.0044639618136,-0.0160075798631
1661321102908194816,36098,1661321102908194816,,0.59063565731,0.000361891754437,0.0139698572457
1661321102908502604,36099,1661321102908502604,,0.565008819103,-0.0758972167969,-0.0157147999853
1661321102913422248,36100,1661321102913422248,,0.526733696461,0.0196291543543,0.0244294870645
1661321102918223023,36101,1661321102918223023,,0.648235201836,-0.131011962891,-0.0307065267116
1661321102923327395,36102,1661321102923327395,,0.503957271576,-0.0963134765625,-0.00581322982907
1661321102928242430,36103,1661321102928242430,,0.468402683735,-0.0211791992188,-0.0207129977643
1661321102933202721,36104,1661321102933202721,,0.673602342606,-0.00479125976562,-0.00111497589387
1661321102938380286,36105,1661321102938380286,,0.563856780529,-0.0810241699219,-0.0156603679061
1661321102943318298,36106,1661321102943318298,,0.606500506401,-0.0743713378906,-0.00581179745495
1661321102950395389,36107,1661321102950395389,,0.571046054363,-0.153289794922,0.0091223474592
1661321102953247541,36108,1661321102953247541,,0.501457810402,0.0188240017742,-0.000823340378702
1661321102958349678,36109,1661321102958349678,,0.52959305048,-0.110687255859,0.00418717553839
1661321102963280916,36110,1661321102963280916,,0.508041799068,0.0489640720189,-0.0210183840245
1661321102968178769,36111,1661321102968178769,,0.508138537407,0.000912213989068,-0.0107403807342
1661321102973300322,36112,1661321102973300322,,0.583864986897,-0.083984375,0.0142377149314
1661321102978263826,36113,1661321102978263826,,0.608076393604,-0.0750122070312,-0.000805292162113
1661321102983177254,36114,1661321102983177254,,0.457419425249,0.0149247720838,-0.00536116585135
1661321102994097326,36115,1661321102994097326,,0.467910766602,-0.0465393066406,-0.0205176174641
1661321102994506871,36116,1661321102994506871,,0.559079229832,-0.106140136719,-0.045871283859
1661321102998304595,36117,1661321102998304595,,0.609685719013,-0.0320129394531,-0.0160425323993
1661321103003212925,36118,1661321103003212925,,0.667761325836,-0.0584106445312,-0.0365125946701
1661321103008331126,36119,1661321103008331126,,0.576888263226,0.00574460672215,0.00392619334161
1661321103013249303,36120,1661321103013249303,,0.622535824776,-0.0740661621094,0.00426395144314
1661321103018183404,36121,1661321103018183404,,0.487287908792,-0.0819091796875,0.0193072464317
1661321103023296367,36122,1661321103023296367,,0.521728932858,0.0181136615574,-0.0412231683731
1661321103028249115,36123,1661321103028249115,,0.506621420383,-0.0460205078125,0.0194258466363
1661321103037374842,36124,1661321103037374842,,0.54062461853,-0.0592651367188,0.00415079295635
1661321103038392280,36125,1661321103038392280,,0.604254722595,-0.0388793945312,-0.0206668730825
1661321103043333505,36126,1661321103043333505,,0.450006216764,-0.140991210938,-0.0357018597424
1661321103048227098,36127,1661321103048227098,,0.554626405239,-0.0530395507812,-0.0154678560793
1661321103053174259,36128,1661321103053174259,,0.674217939377,-0.107269287109,0.00381303392351
1661321103058385907,36129,1661321103058385907,,0.588903844357,-0.10400390625,-0.0459019392729
1661321103063246954,36130,1661321103063246954,,0.528942167759,0.051675491035,0.0145740415901
1661321103068187550,36131,1661321103068187550,,0.550552129745,-0.0732727050781,-0.020936165005
1661321103077974178,36132,1661321103077974178,,0.517446398735,-0.121734619141,0.00938905961812
1661321103078398251,36133,1661321103078398251,,0.454024285078,-0.108428955078,-0.0102393282577
1661321103083420141,36134,1661321103083420141,,0.535900890827,-0.0654602050781,-0.00554250739515
1661321103088191304,36135,1661321103088191304,,0.593947052956,-0.017822265625,-0.0210490375757
1661321103093272280,36136,1661321103093272280,,0.6026263237,-0.0409851074219,-0.0010410642717
1661321103098217276,36137,1661321103098217276,,0.653619408607,-0.0558471679688,-0.0461377166212
1661321103103172888,36138,1661321103103172888,,0.550122439861,-0.0141296386719,0.0243933908641
1661321103108286060,36139,1661321103108286060,,0.684355854988,-0.0515747070312,0.0039680195041
1661321103114261625,36140,1661321103114261625,,0.495431929827,-0.0523681640625,0.0148851564154
1661321103118252947,36141,1661321103118252947,,0.501322090626,-0.082763671875,0.00900517776608
1661321103123355503,36142,1661321103123355503,,0.455523371696,-0.106201171875,-0.00558433355764
1661321103128246164,36143,1661321103128246164,,0.563595592976,-0.0555114746094,0.0338663905859
1661321103133201915,36144,1661321103133201915,,0.565565884113,-0.165222167969,-0.0301318503916
1661321103138149286,36145,1661321103138149286,,0.523398220539,0.0119664911181,-0.0410627387464
1661321103143275309,36146,1661321103143275309,,0.392020970583,-0.0311279296875,-0.0509127415717
1661321103157151874,36147,1661321103157151874,,0.515118837357,-0.0640563964844,-0.0206333566457
1661321103157422367,36148,1661321103157422367,,0.571068525314,-0.0740051269531,-0.0209696814418
1661321103158421158,36149,1661321103158421158,,0.626806676388,-0.0302124023438,0.0242467150092
1661321103163323970,36150,1661321103163323970,,0.626825869083,-0.0300598144531,-0.0163186974823
1661321103168262820,36151,1661321103168262820,,0.557778656483,0.0362278260291,0.0195805449039
1661321103173350361,36152,1661321103173350361,,0.607670009136,0.0397592224181,-0.0260555427521
1661321103178256386,36153,1661321103178256386,,0.545652389526,-0.0552978515625,-0.00581322982907
1661321103183199915,36154,1661321103183199915,,0.533511817455,0.004960663151,-0.0304455459118
1661321103188171381,36155,1661321103188171381,,0.621333420277,-0.0887756347656,0.00407974561676
1661321103195180866,36156,1661321103195180866,,0.562711596489,0.0144377229735,-0.00603926181793
1661321103198249175,36157,1661321103198249175,,0.563307523727,-0.108673095703,-0.0104278326035
1661321103204124099,36158,1661321103204124099,,0.474702090025,-0.064453125,-0.0306340456009
1661321103208327457,36159,1661321103208327457,,0.424786180258,0.00480845337734,-0.00608939537778
1661321103213249964,36160,1661321103213249964,,0.674731791019,-0.08203125,-0.0256650708616
1661321103218209138,36161,1661321103218209138,,0.461806237698,-0.0225524902344,-0.0154426442459
1661321103223180953,36162,1661321103223180953,,0.597178936005,0.0685390084982,-0.0655698627234
1661321103228277783,36163,1661321103228277783,,0.498933434486,-0.0368957519531,-0.020704690367
1661321103235520885,36164,1661321103235520885,,0.606626093388,-0.124816894531,-0.000848550465889
1661321103238493162,36165,1661321103238493162,,0.518007874489,-0.00360107421875,-0.0058914385736
1661321103243286395,36166,1661321103243286395,,0.677549421787,-0.108337402344,-0.00576853938401
1661321103248236070,36167,1661321103248236070,,0.484195202589,0.0639365166426,-0.0114697553217
1661321103253173104,36168,1661321103253173104,,0.473735153675,-0.0250549316406,0.00918537285179
1661321103258321616,36169,1661321103258321616,,0.500508844852,-0.0816650390625,-0.0258309412748
1661321103263249990,36170,1661321103263249990,,0.513000190258,-0.0101013183594,-0.0205875188112
1661321103268185278,36171,1661321103268185278,,0.634781718254,-0.0395812988281,-0.0210922956467
1661321103275504367,36172,1661321103275504367,,0.529196619987,-0.134246826172,-0.000506781158037
1661321103278337662,36173,1661321103278337662,,0.597975671291,0.00508136861026,-0.0109300296754
1661321103283369540,36174,1661321103283369540,,0.587880909443,-0.0225830078125,0.00915471930057
1661321103288170454,36175,1661321103288170454,,0.610552668571,-0.0674133300781,0.00858262181282
1661321103293286909,36176,1661321103293286909,,0.51704454422,-0.00595092773438,-0.0259830616415
1661321103298228902,36177,1661321103298228902,,0.56124073267,0.00245886808261,-0.035760588944
1661321103303181930,36178,1661321103303181930,,0.558798313141,0.0534425973892,-0.00142465950921
1661321103308303274,36179,1661321103308303274,,0.619749605656,-0.00665283203125,0.0195470284671
1661321103316887944,36180,1661321103316887944,,0.494605123997,-0.131195068359,-0.020584654063
1661321103318317163,36181,1661321103318317163,,0.538435399532,-0.129913330078,0.0192038249224
1661321103323261042,36182,1661321103323261042,,0.600606381893,0.0150068774819,-0.0112339835614
1661321103328404106,36183,1661321103328404106,,0.596308469772,-0.0240478515625,-0.000694997783285
1661321103333209630,36184,1661321103333209630,,0.650974392891,0.0877799466252,0.00357181881554
1661321103338178093,36185,1661321103338178093,,0.53919416666,-0.0628967285156,-0.0352861769497
1661321103343306700,36186,1661321103343306700,,0.522209763527,-0.021728515625,-0.000774638960138
1661321103348245201,36187,1661321103348245201,,0.574802815914,-0.114959716797,0.0190073028207
1661321103356440999,36188,1661321103356440999,,0.536176562309,-0.0591430664062,-0.00604613730684
1661321103358373489,36189,1661321103358373489,,0.667236566544,-0.05029296875,0.00354517623782
1661321103363327145,36190,1661321103363327145,,0.527737081051,-0.0701599121094,-0.0103593636304
1661321103368225558,36191,1661321103368225558,,0.51639509201,0.0540745966136,-0.0107847843319
1661321103373152535,36192,1661321103373152535,,0.556066393852,0.00407627830282,0.0041940510273
1661321103378302443,36193,1661321103378302443,,0.679088830948,-0.0162963867188,-0.0356726385653
1661321103383207700,36194,1661321103383207700,,0.579424619675,-0.134063720703,-0.0205958262086
1661321103388167293,36195,1661321103388167293,,0.645986199379,-0.0633544921875,-0.00564850447699
1661321103399463107,36196,1661321103399463107,,0.530405938625,-0.0935974121094,-0.0155096808448
1661321103399843250,36197,1661321103399843250,,0.538154542446,-0.0797424316406,-0.000766331038903
1661321103403218228,36198,1661321103403218228,,0.474197566509,0.00234958506189,0.0093025425449
1661321103408239281,36199,1661321103408239281,,0.546344101429,0.0710631012917,-0.0309423021972
1661321103413344980,36200,1661321103413344980,,0.619782745838,0.058471404016,-0.0165086332709
1661321103418231520,36201,1661321103418231520,,0.554030835629,-0.0570373535156,0.00434617092833
1661321103424708959,36202,1661321103424708959,,0.437604755163,-0.054931640625,-0.0303352475166
1661321103428294507,36203,1661321103428294507,,0.5506336689,-0.048095703125,-0.0455965511501
1661321103433275401,36204,1661321103433275401,,0.474596381187,-0.104370117188,-0.00585648790002
1661321103441275297,36205,1661321103441275297,,0.59717553854,0.0687807649374,-0.0216265786439
1661321103443317227,36206,1661321103443317227,,0.570987284184,0.0306400824338,-0.0199847687036
1661321103450159304,36207,1661321103450159304,,0.562502801418,0.00224030204117,-0.0112760951743
1661321103453185918,36208,1661321103453185918,,0.490450501442,-0.0296936035156,0.00899830274284
1661321103458140552,36209,1661321103458140552,,0.531904459,-0.0078125,0.0040350551717
1661321103463255750,36210,1661321103463255750,,0.535354912281,-0.056396484375,-0.00562071567401
1661321103468543244,36211,1661321103468543244,,0.550783932209,-0.00900268554688,-0.000887511705514
1661321103473193024,36212,1661321103473193024,,0.516241788864,-0.0124206542969,0.0194244142622
1661321103481656801,36213,1661321103481656801,,0.581314861774,-0.0641174316406,-0.0161207411438
1661321103483262227,36214,1661321103483262227,,0.618466675282,-0.0686340332031,0.0136226452887
1661321103488271337,36215,1661321103488271337,,0.584654033184,-0.0265197753906,0.00376862986013
1661321103493314948,36216,1661321103493314948,,0.735121250153,0.0186099689454,0.0341330990195
1661321103498266369,36217,1661321103498266369,,0.563707888126,-0.0521545410156,-0.00650364393368
1661321103503212553,36218,1661321103503212553,,0.573540568352,-0.0533142089844,-0.0460666678846
1661321103508157339,36219,1661321103508157339,,0.545037508011,0.0160919260234,-0.061191033572
1661321103513262550,36220,1661321103513262550,,0.550860881805,-0.170074462891,-0.000195665095816
1661321103527535251,36221,1661321103527535251,,0.454684048891,0.0283733289689,-0.0155543722212
1661321103527855121,36222,1661321103527855121,,0.559693515301,-0.0740051269531,-0.00577426841483
1661321103528409446,36223,1661321103528409446,,0.475627154112,-0.0897216796875,-0.0155446305871
1661321103533347319,36224,1661321103533347319,,0.632692217827,0.0218019634485,-0.0412624143064
1661321103538185179,36225,1661321103538185179,,0.649944007397,-0.0796508789062,-0.00111354351975
1661321103543381811,36226,1661321103543381811,,0.561885774136,0.0199296921492,0.00904155988246
1661321103548277011,36227,1661321103548277011,,0.604905486107,-0.101593017578,0.0141933104023
1661321103554502814,36228,1661321103554502814,,0.628684282303,-0.0673522949219,-0.0161694418639
1661321103558147448,36229,1661321103558147448,,0.58950740099,0.054225910455,-0.0462577454746
1661321103565089886,36230,1661321103565089886,,0.539603531361,-0.0214538574219,0.00418574316427
1661321103568269939,36231,1661321103568269939,,0.583989441395,-0.0770263671875,0.00395971117541
1661321103573251183,36232,1661321103573251183,,0.528101623058,-0.0509338378906,-0.00581036508083
1661321103578306597,36233,1661321103578306597,,0.588599383831,-0.0125427246094,0.0138486754149
1661321103583245028,36234,1661321103583245028,,0.477597475052,0.0077590951696,-0.020792350173
1661321103588192538,36235,1661321103588192538,,0.577558219433,-0.032470703125,-0.00569892441854
1661321103593136906,36236,1661321103593136906,,0.539855122566,-0.0494995117188,-0.020708700642
1661321103598284649,36237,1661321103598284649,,0.548627972603,0.0140745639801,0.0243890937418
1661321103604720812,36238,1661321103604720812,,0.530373752117,-0.0305786132812,-0.0259051397443
1661321103608226742,36239,1661321103608226742,,0.601563930511,-0.0475769042969,0.00934981182218
1661321103613318194,36240,1661321103613318194,,0.602156162262,0.013277888298,-0.0112451566383
1661321103618274504,36241,1661321103618274504,,0.538105666637,-0.0949401855469,0.0188133548945
1661321103623187653,36242,1661321103623187653,,0.600026190281,-0.0567932128906,0.00942372251302
1661321103628288673,36243,1661321103628288673,,0.706495165825,-0.0328674316406,-0.00169939280022
1661321103633244844,36244,1661321103633244844,,0.531332790852,-0.0783081054688,-0.0258618816733
1661321103642304221,36245,1661321103642304221,,0.515974879265,0.0198091063648,0.00437825685367
1661321103643460782,36246,1661321103643460782,,0.550360679626,-0.0389404296875,-0.0362166650593
1661321103648413600,36247,1661321103648413600,,0.55184918642,-0.0544128417969,-0.000117456344014
1661321103653313829,36248,1661321103653313829,,0.554836511612,-0.0261535644531,-0.0309044849128
1661321103658242342,36249,1661321103658242342,,0.61109495163,-0.0697021484375,-0.0609145835042
1661321103663343921,36250,1661321103663343921,,0.531008005142,0.0116386422887,-0.01089794375
1661321103668248340,36251,1661321103668248340,,0.544853150845,-0.0430297851562,0.0345527939498
1661321103673172244,36252,1661321103673172244,,0.568459689617,0.0536780245602,0.00914898980409
1661321103685418031,36253,1661321103685418031,,0.580905675888,-0.0382690429688,0.0344341881573
1661321103686241661,36254,1661321103686241661,,0.644468188286,-0.0619506835938,-0.021324057132
1661321103688286455,36255,1661321103688286455,,0.605150401592,-0.02392578125,-0.0256693679839
1661321103693414853,36256,1661321103693414853,,0.501132011414,-0.0691528320312,-0.00600144639611
1661321103698269405,36257,1661321103698269405,,0.664416670799,0.0427975133061,-0.00149312801659
1661321103703210001,36258,1661321103703210001,,0.614013671875,-0.0784912109375,-0.0161582678556
1661321103708183492,36259,1661321103708183492,,0.592765033245,-0.0748291015625,-0.0357090197504
1661321103713317896,36260,1661321103713317896,,0.548115134239,-0.11474609375,0.00888943951577
1661321103718242848,36261,1661321103718242848,,0.537948489189,-0.0389404296875,0.0242452826351
1661321103723407493,36262,1661321103723407493,,0.613225281239,0.0140587287024,-0.0260111391544
1661321103728141919,36263,1661321103728141919,,0.515841126442,-0.040283203125,-0.0110039403662
1661321103733265917,36264,1661321103733265917,,0.483851730824,-0.0369262695312,0.014424784109
1661321103738192336,36265,1661321103738192336,,0.587964773178,-0.126403808594,-0.0308208316565
1661321103743186569,36266,1661321103743186569,,0.600271105766,-0.0566101074219,0.0294334162027
1661321103748287729,36267,1661321103748287729,,0.540061175823,-0.0582580566406,-0.00574075011536
1661321103753236706,36268,1661321103753236706,,0.452280074358,0.0372740067542,0.00972252059728
1661321103762931843,36269,1661321103762931843,,0.564120352268,-0.0180053710938,0.0143104800954
1661321103763716363,36270,1661321103763716363,,0.523618876934,0.0434083491564,0.00403648754582
1661321103768259007,36271,1661321103768259007,,0.570015072823,0.0236870963126,-0.0165183730423
1661321103773240390,36272,1661321103773240390,,0.535541474819,-0.0490417480469,-0.0459131114185
1661321103778133425,36273,1661321103778133425,,0.559307575226,-0.0834655761719,0.00419118627906
1661321103783302120,36274,1661321103783302120,,0.612323820591,-0.0272216796875,0.0141205461696
1661321103788204513,36275,1661321103788204513,,0.611908376217,-0.0641784667969,-0.00592753477395
1661321103793155236,36276,1661321103793155236,,0.670037984848,0.0313642285764,0.00865366775542
1661321103801945239,36277,1661321103801945239,,0.503833651543,-0.0662536621094,-0.0504552349448
1661321103803254122,36278,1661321103803254122,,0.530739605427,0.0466821342707,-0.0107415253296
1661321103808232991,36279,1661321103808232991,,0.608936488628,-0.0517883300781,-0.000582125096116
1661321103813294551,36280,1661321103813294551,,0.522976636887,0.0278292093426,-0.00543650984764
1661321103818237591,36281,1661321103818237591,,0.515725553036,-0.134948730469,-0.0256315525621
1661321103823187756,36282,1661321103823187756,,0.486565828323,0.0176765304059,-0.021247278899
1661321103828143298,36283,1661321103828143298,,0.601598501205,-0.0873413085938,0.0291248783469
1661321103833253327,36284,1661321103833253327,,0.497360676527,-0.0791015625,0.0244294870645
1661321103845668058,36285,1661321103845668058,,0.603979170322,0.0542149730027,0.0337801575661
1661321103846209044,36286,1661321103846209044,,0.565324068069,-0.0714721679688,-0.00604613730684
1661321103848426274,36287,1661321103848426274,,0.536057949066,-0.00521850585938,0.0148418974131
1661321103853309112,36288,1661321103853309112,,0.412540018559,-0.0774230957031,0.0044157858938
1661321103858203683,36289,1661321103858203683,,0.551667809486,-0.0971069335938,-0.0209711138159
1661321103863349262,36290,1661321103863349262,,0.618119716644,0.00284135877155,-0.0364252179861
1661321103868264156,36291,1661321103868264156,,0.629159450531,-0.115295410156,-0.0113282352686
1661321103873212435,36292,1661321103873212435,,0.556065261364,0.00125675485469,-0.0210329927504
1661321103878160295,36293,1661321103878160295,,0.497876554728,0.00574197340757,-0.0207290388644
1661321103884572852,36294,1661321103884572852,,0.492761343718,0.00232226424851,0.0141297122464
1661321103888257294,36295,1661321103888257294,,0.478100329638,-0.0277709960938,-0.0306569673121
1661321103893200125,36296,1661321103893200125,,0.600573122501,-0.0184631347656,-0.0161004010588
1661321103898322377,36297,1661321103898322377,,0.641229510307,-0.0237426757812,0.0140655403957
1661321103903241602,36298,1661321103903241602,,0.485048890114,-0.0821838378906,-0.0107982493937
1661321103908198541,36299,1661321103908198541,,0.590368270874,-0.00555419921875,-0.0259125884622
1661321103913317719,36300,1661321103913317719,,0.517402231693,0.0427023433149,-0.0212744958699
1661321103918266347,36301,1661321103918266347,,0.477928936481,0.0309214647859,-0.0157712362707
1661321103925193700,36302,1661321103925193700,,0.590368270874,-0.0256652832031,-0.000876911915839
1661321103928171565,36303,1661321103928171565,,0.46494615078,-0.01953125,-0.0313448011875
1661321103933360723,36304,1661321103933360723,,0.527112185955,-0.00836181640625,-0.0213888008147
1661321103938231549,36305,1661321103938231549,,0.657756268978,0.0155181903392,0.0289486907423
1661321103943175986,36306,1661321103943175986,,0.527033090591,0.0110922269523,0.0140182711184
1661321103948295654,36307,1661321103948295654,,0.575754284859,-0.0489807128906,-0.0209255646914
1661321103953260834,36308,1661321103953260834,,0.516077697277,0.0259648784995,-0.015807332471
1661321103961635424,36309,1661321103961635424,,0.513592243195,0.0130046801642,0.00389639963396
1661321103963165911,36310,1661321103963165911,,0.559580504894,-0.038818359375,0.0193734224886
1661321103968271331,36311,1661321103968271331,,0.620844006538,0.0225495416671,0.0191794764251
1661321103973196074,36312,1661321103973196074,,0.535885870457,0.0102708218619,-0.00583614781499
1661321103978159298,36313,1661321103978159298,,0.575919270515,-0.134918212891,0.0194447543472
1661321103983279455,36314,1661321103983279455,,0.584555983543,-0.00714111328125,0.00393937109038
1661321103988227663,36315,1661321103988227663,,0.623439490795,0.0247157085687,-0.00587797351182
1661321103993166444,36316,1661321103993166444,,0.524705410004,0.0058307973668,-0.0106111774221
1661321104000162729,36317,1661321104000162729,,0.529156863689,-0.116546630859,0.00955578964204
1661321104003291589,36318,1661321104003291589,,0.610757768154,-0.0177001953125,0.00413073925301
1661321104008212420,36319,1661321104008212420,,0.65496712923,-0.0586853027344,-0.0162218678743
1661321104013161747,36320,1661321104013161747,,0.502994060516,0.00658430252224,-0.00587654160336
1661321104018253059,36321,1661321104018253059,,0.573945105076,-0.00973510742188,0.0192562509328
1661321104023255324,36322,1661321104023255324,,0.495474785566,-0.0487365722656,0.028989084065
1661321104028167146,36323,1661321104028167146,,0.574279427528,-0.0806274414062,-0.030762962997
1661321104033285836,36324,1661321104033285836,,0.512669086456,-0.00119018554688,0.0141981812194
1661321104039766348,36325,1661321104039766348,,0.540917932987,-0.206451416016,-0.0105985729024
1661321104043248113,36326,1661321104043248113,,0.548326075077,-0.0641784667969,0.0143250916153
1661321104048503551,36327,1661321104048503551,,0.466553539038,0.00437132129446,-0.0111119421199
1661321104053253272,36328,1661321104053253272,,0.551588058472,-0.0537719726562,-0.0256811138242
1661321104058215519,36329,1661321104058215519,,0.551712989807,-0.0925903320312,0.0289930962026
1661321104063152553,36330,1661321104063152553,,0.618039667606,-0.0113220214844,0.0191473904997
1661321104068278088,36331,1661321104068278088,,0.489862143993,-0.05419921875,0.00446821097285
1661321104073221687,36332,1661321104073221687,,0.557016313076,-0.0276184082031,-0.0306191518903
1661321104082858577,36333,1661321104082858577,,0.654321491718,-0.0946655273438,-0.0262503474951
1661321104083698271,36334,1661321104083698271,,0.670282721519,-0.0360107421875,0.0137183284387
1661321104088429065,36335,1661321104088429065,,0.435680270195,-0.0374450683594,-0.0213051475585
1661321104093238850,36336,1661321104093238850,,0.626918554306,0.0565739162266,0.013686241582
1661321104098305439,36337,1661321104098305439,,0.509500801563,0.0325432121754,-0.0107953846455
1661321104103333056,36338,1661321104103333056,,0.54424905777,-0.0225219726562,-0.0607856623828
1661321104108230631,36339,1661321104108230631,,0.483474731445,-0.04931640625,0.00416540307924
1661321104113145595,36340,1661321104113145595,,0.493750423193,-0.0920104980469,-0.0200732890517
1661321104119714316,36341,1661321104119714316,,0.547970890999,-0.111846923828,-0.0105303907767
1661321104123227160,36342,1661321104123227160,,0.564871549606,-0.0906677246094,-0.0360416211188
1661321104128298777,36343,1661321104128298777,,0.568877339363,-0.0440979003906,-0.0109933400527
1661321104133360757,36344,1661321104133360757,,0.524373054504,-0.040771484375,-0.0309958681464
1661321104138237937,36345,1661321104138237937,,0.505081236362,-0.0937805175781,0.0296794995666
1661321104143195225,36346,1661321104143195225,,0.588399112225,-0.0932922363281,-0.0358826294541
1661321104149185736,36347,1661321104149185736,,0.644225358963,-0.0435485839844,-0.00637616077438
1661321104153251299,36348,1661321104153251299,,0.598945736885,-0.00418090820312,-0.0211069080979
1661321104158886949,36349,1661321104158886949,,0.484038978815,-0.0776062011719,0.00494663137943
1661321104163228033,36350,1661321104163228033,,0.577453374863,-0.0248718261719,-0.0111119421199
1661321104168322348,36351,1661321104168322348,,0.585579097271,-0.0610656738281,-0.0306933466345
1661321104173257916,36352,1661321104173257916,,0.541510939598,0.0909284874797,-0.0160737577826
1661321104178179585,36353,1661321104178179585,,0.631387352943,-0.144226074219,-0.026029760018
1661321104183289056,36354,1661321104183289056,,0.555102169514,0.00172120763455,-0.0209201220423
1661321104188253607,36355,1661321104188253607,,0.606853663921,-0.0126953125,-0.0259976740927
1661321104197136637,36356,1661321104197136637,,0.616008281708,-0.0849914550781,-0.020836468786
1661321104198239631,36357,1661321104198239631,,0.629939198494,-0.0411987304688,-0.0158382728696
1661321104203275070,36358,1661321104203275070,,0.479620426893,-0.0372619628906,-0.0358935147524
1661321104208291653,36359,1661321104208291653,,0.565884292126,-0.114776611328,-0.0306598320603
1661321104213235741,36360,1661321104213235741,,0.636806488037,0.0700539946556,-0.00132897566073
1661321104218307219,36361,1661321104218307219,,0.59308475256,-0.0542907714844,-0.0408206619322
1661321104223244462,36362,1661321104223244462,,0.485795080662,0.06364813447,-0.000652312475722
1661321104228203846,36363,1661321104228203846,,0.664155364037,-0.0126953125,-0.0311130397022
1661321104236254305,36364,1661321104236254305,,0.589163780212,-0.0511169433594,0.0041361823678
1661321104238271512,36365,1661321104238271512,,0.630899190903,-0.038818359375,-0.00629795202985
1661321104243241442,36366,1661321104243241442,,0.527605652809,-0.0289916992188,-0.000374714378268
1661321104248212279,36367,1661321104248212279,,0.588274300098,-0.0641479492188,0.0143210794777
1661321104253320492,36368,1661321104253320492,,0.535927653313,0.0063657364808,-0.00591435702518
1661321104258206613,36369,1661321104258206613,,0.643635869026,-0.0853881835938,0.0544292740524
1661321104263142530,36370,1661321104263142530,,0.621426165104,-0.0377197265625,0.0043286960572
1661321104268267016,36371,1661321104268267016,,0.515819489956,0.0233335513622,0.00902408547699
1661321104279164180,36372,1661321104279164180,,0.611973524094,-0.0198059082031,-0.0113015929237
1661321104279459397,36373,1661321104279459397,,0.547081589699,-0.0322875976562,-0.0259168855846
1661321104283375780,36374,1661321104283375780,,0.537004172802,-0.0531311035156,-0.00610543834046
1661321104288350807,36375,1661321104288350807,,0.560316503048,0.0343440957367,-0.0109919086099
1661321104293207804,36376,1661321104293207804,,0.517545342445,-0.0326232910156,-0.0308062210679
1661321104298150984,36377,1661321104298150984,,0.570815682411,-0.140777587891,0.0196387022734
1661321104303252074,36378,1661321104303252074,,0.553884029388,-0.0842895507812,0.0195633564144
1661321104308210480,36379,1661321104308210480,,0.664012670517,-0.00787353515625,-0.041156988591
1661321104317944378,36380,1661321104317944378,,0.608838677406,-0.0944519042969,-0.0353174060583
1661321104318317467,36381,1661321104318317467,,0.5319699049,-0.00421142578125,-0.0453988835216
1661321104323326786,36382,1661321104323326786,,0.560967922211,-0.082275390625,0.033955194056
1661321104328182736,36383,1661321104328182736,,0.509810686111,-0.0959167480469,-0.0051400042139
1661321104333326498,36384,1661321104333326498,,0.578545033932,-0.0773620605469,-0.0110297231004
1661321104338272402,36385,1661321104338272402,,0.564682364464,-0.0513610839844,-0.0157975926995
1661321104343217608,36386,1661321104343217608,,0.536821901798,-0.0465698242188,0.0191794764251
1661321104348154502,36387,1661321104348154502,,0.554152369499,-0.0650634765625,0.0045169130899
1661321104361464241,36388,1661321104361464241,,0.63888078928,-0.0226135253906,0.0141744017601
1661321104361772448,36389,1661321104361772448,,0.55468660593,-0.016845703125,0.0040135695599
1661321104363194822,36390,1661321104363194822,,0.63981294632,-0.010986328125,-0.026269827038
1661321104368355626,36391,1661321104368355626,,0.653159201145,-0.0630798339844,0.00436908937991
1661321104373238813,36392,1661321104373238813,,0.538862764835,0.0268794093281,-0.00574963120744
1661321104378167676,36393,1661321104378167676,,0.525615751743,-0.0774536132812,-0.0307337399572
1661321104383147243,36394,1661321104383147243,,0.522191047668,-0.0943298339844,-0.0306876208633
1661321104388297640,36395,1661321104388297640,,0.483803600073,-0.0694274902344,0.00443899072707
1661321104393362483,36396,1661321104393362483,,0.474982470274,0.0106176622212,-0.0208055283874
1661321104400250515,36397,1661321104400250515,,0.61806923151,-0.0447082519531,-0.0112571883947
1661321104403300107,36398,1661321104403300107,,0.513078927994,-0.0299987792969,-0.00599113292992
1661321104408621194,36399,1661321104408621194,,0.572018802166,-0.0519714355469,0.0193694103509
1661321104413173966,36400,1661321104413173966,,0.487111747265,-0.0177917480469,-0.0256948638707
1661321104418322547,36401,1661321104418322547,,0.611000537872,-0.0361938476562,0.0041697002016
1661321104425531148,36402,1661321104425531148,,0.561079382896,-0.0798950195312,0.0142580550164
1661321104428189073,36403,1661321104428189073,,0.557485580444,-0.0184936523438,0.0140265794471
1661321104433271096,36404,1661321104433271096,,0.597725689411,0.0154635487124,-0.00614296691492
1661321104438707840,36405,1661321104438707840,,0.46648901701,-0.0574035644531,-0.0352366156876
1661321104443286173,36406,1661321104443286173,,0.552824735641,-0.0191955566406,0.033644080162
1661321104448284877,36407,1661321104448284877,,0.58750385046,0.0894384235144,-0.0207665693015
1661321104453287631,36408,1661321104453287631,,0.598697721958,0.0175228342414,-0.0505506359041
1661321104458211116,36409,1661321104458211116,,0.575164437294,0.0140397939831,-0.0109486496076
1661321104463276797,36410,1661321104463276797,,0.506262600422,-0.0188293457031,-0.0210275501013
1661321104468114029,36411,1661321104468114029,,0.428963392973,-0.176605224609,-0.0354305617511
1661321104476430721,36412,1661321104476430721,,0.64837884903,0.0531427934766,0.0140558006242
1661321104478198248,36413,1661321104478198248,,0.558288872242,0.0963296741247,-0.0213412456214
1661321104483235014,36414,1661321104483235014,,0.583150804043,0.0322375409305,0.00428686989471
1661321104488279324,36415,1661321104488279324,,0.564151644707,-0.0709533691406,0.00425048731267
1661321104493190098,36416,1661321104493190098,,0.493000984192,-0.0292358398438,-0.0102957645431
1661321104498180421,36417,1661321104498180421,,0.525165319443,0.0144745381549,0.00413761474192
1661321104503564016,36418,1661321104503564016,,0.559920966625,-0.06787109375,-0.0109529476613
1661321104508229650,36419,1661321104508229650,,0.526750147343,-0.0337219238281,0.0343791879714
1661321104519791417,36420,1661321104519791417,,0.599935054779,0.074916549027,0.00936041213572
1661321104520199566,36421,1661321104520199566,,0.61633348465,-0.0509948730469,-0.0414165444672
1661321104523302166,36422,1661321104523302166,,0.581868171692,-0.0614318847656,-0.00540929473937
1661321104528310717,36423,1661321104528310717,,0.542034029961,-0.0847473144531,0.0143348313868
1661321104533150184,36424,1661321104533150184,,0.523065984249,0.00297796260566,0.0241387132555
1661321104538354847,36425,1661321104538354847,,0.601755976677,-0.0749816894531,0.00391301512718
1661321104543529689,36426,1661321104543529689,,0.577231884003,0.0270998068154,-0.000755731307436
1661321104548159704,36427,1661321104548159704,,0.438666909933,-0.0374145507812,0.0439137779176
1661321104553317854,36428,1661321104553317854,,0.490700960159,-0.0557250976562,0.0144101753831
1661321104558229885,36429,1661321104558229885,,0.600843012333,-0.0174255371094,0.00920829176903
1661321104563239484,36430,1661321104563239484,,0.707603633404,0.00500730331987,0.00887081958354
1661321104568158639,36431,1661321104568158639,,0.560759902,-0.0378112792969,-0.00586823374033
1661321104573256027,36432,1661321104573256027,,0.523744702339,-0.0431213378906,-0.000864593312144
1661321104578230845,36433,1661321104578230845,,0.626064360142,-0.000762939453125,-0.000789249315858
1661321104583162502,36434,1661321104583162502,,0.479018449783,-0.0252380371094,-0.040778838098
1661321104588282588,36435,1661321104588282588,,0.506912410259,-0.0545349121094,0.0193665456027
1661321104597119174,36436,1661321104597119174,,0.563632011414,-0.0827941894531,-0.0107604339719
1661321104598289843,36437,1661321104598289843,,0.537111878395,-0.0374450683594,0.0392281264067
1661321104603378920,36438,1661321104603378920,,0.499305933714,-0.0816040039062,-0.00518183037639
1661321104608243041,36439,1661321104608243041,,0.517891466618,-0.00863647460938,-0.0158772338182
1661321104613191599,36440,1661321104613191599,,0.58238452673,-0.0593566894531,-0.0363026075065
1661321104618137992,36441,1661321104618137992,,0.516989350319,-0.0277709960938,-0.00560324080288
1661321104623263177,36442,1661321104623263177,,0.573135614395,0.0480358153582,0.0191350728273
1661321104628199931,36443,1661321104628199931,,0.578515529633,0.043900705874,0.00419634301215
1661321104636222455,36444,1661321104636222455,,0.48587089777,-0.083740234375,-0.0153819117695
1661321104638423692,36445,1661321104638423692,,0.433444738388,-0.110626220703,-0.0354331433773
1661321104643284181,36446,1661321104643284181,,0.612158358097,0.0738086625934,0.0284548010677
1661321104648154867,36447,1661321104648154867,,0.625357270241,0.0591020062566,-0.0161519665271
1661321104653285359,36448,1661321104653285359,,0.421108514071,0.0565529614687,-0.0207233093679
1661321104658244184,36449,1661321104658244184,,0.570540845394,-0.0577392578125,-0.0458065457642
1661321104663196862,36450,1661321104663196862,,0.655047237873,0.0104365292937,0.0187944471836
1661321104668157712,36451,1661321104668157712,,0.567569732666,0.00702143460512,0.00404823338613
1661321104675389989,36452,1661321104675389989,,0.658320486546,-0.0180053710938,-0.00620885705575
1661321104678268820,36453,1661321104678268820,,0.475945413113,-0.0321655273438,-0.0153847765177
1661321104683182947,36454,1661321104683182947,,0.544457614422,0.0157640762627,-0.0159594528377
1661321104688294024,36455,1661321104688294024,,0.624812066555,-0.0584411621094,-0.0156789906323
1661321104693219045,36456,1661321104693219045,,0.626519680023,-0.0175476074219,-0.0212240759283
1661321104698176194,36457,1661321104698176194,,0.485052973032,-0.0479736328125,0.00434960890561
1661321104703289226,36458,1661321104703289226,,0.613577485085,-0.0505065917969,-0.011293284595
1661321104708248191,36459,1661321104708248191,,0.599470257759,-0.0599670410156,0.00943861994892
1661321104718998829,36460,1661321104718998829,,0.639124929905,-0.0701293945312,-0.000906419241801
1661321104719620271,36461,1661321104719620271,,0.549516499043,0.00196709460579,-0.0260019693524
1661321104723322313,36462,1661321104723322313,,0.480465978384,-0.0212097167969,-0.0107993949205
1661321104728335055,36463,1661321104728335055,,0.515691637993,-0.144927978516,-0.0205711890012
1661321104733163766,36464,1661321104733163766,,0.477544993162,-0.0356140136719,-0.015575857833
1661321104738387915,36465,1661321104738387915,,0.428020268679,-0.016845703125,-0.0157655067742
1661321104743207967,36466,1661321104743207967,,0.504501879215,0.0727366656065,-0.00118258479051
1661321104748178594,36467,1661321104748178594,,0.448042601347,-0.0333862304688,0.00432726368308
1661321104758735145,36468,1661321104758735145,,0.585090100765,-0.0258483886719,-0.0112586198375
1661321104759495989,36469,1661321104759495989,,0.528029441833,-0.0925598144531,-0.0154208717868
1661321104763259282,36470,1661321104763259282,,0.443308442831,-0.0192565917969,0.0188253894448
1661321104768220830,36471,1661321104768220830,,0.625550270081,0.0420151650906,-0.0210329927504
1661321104773312771,36472,1661321104773312771,,0.544121563435,-0.190490722656,-0.0107423858717
1661321104778217818,36473,1661321104778217818,,0.549643874168,0.0240326337516,-0.0408527478576
1661321104783155341,36474,1661321104783155341,,0.503960490227,-0.0823364257812,-0.0258429739624
1661321104788296101,36475,1661321104788296101,,0.534801900387,-0.108276367188,-0.0305747445673
1661321104795827714,36476,1661321104795827714,,0.632766067982,-0.034423828125,0.0290979463607
1661321104798292390,36477,1661321104798292390,,0.60582357645,0.034770347178,-0.00102903216612
1661321104803174460,36478,1661321104803174460,,0.583899438381,-0.005859375,-0.000335753255058
1661321104808271150,36479,1661321104808271150,,0.583983123302,-0.017822265625,0.0140222813934
1661321104813195264,36480,1661321104813195264,,0.589946389198,-0.125885009766,0.00906447786838
1661321104818159885,36481,1661321104818159885,,0.650072574615,0.0287630334496,-0.0361155346036
1661321104823274035,36482,1661321104823274035,,0.597814261913,-0.0899658203125,0.00937158428133
1661321104828213374,36483,1661321104828213374,,0.4181612432,0.0150445960462,-0.0110239945352
1661321104833993594,36484,1661321104833993594,,0.552035212517,-0.0699462890625,-0.0254619568586
1661321104838308139,36485,1661321104838308139,,0.561954677105,0.0513357035816,0.00396458152682
1661321104843306912,36486,1661321104843306912,,0.558496534824,-0.103546142578,0.00955979991704
1661321104848280892,36487,1661321104848280892,,0.576512694359,-0.0827941894531,0.0143640516326
1661321104853151089,36488,1661321104853151089,,0.548571586609,-0.052001953125,0.0191473904997
1661321104858249316,36489,1661321104858249316,,0.621710598469,0.0662167072296,0.00905760284513
1661321104863196896,36490,1661321104863196896,,0.466788798571,-0.124694824219,0.0291452184319
1661321104871959590,36491,1661321104871959590,,0.487802088261,-0.141082763672,0.0145230470225
1661321104873359476,36492,1661321104873359476,,0.560219705105,-0.0925598144531,-0.0355852618814
1661321104878318440,36493,1661321104878318440,,0.642610609531,0.00614717043936,-0.0212982725352
1661321104883241786,36494,1661321104883241786,,0.659360051155,-0.0897216796875,-0.0409197881818
1661321104888304044,36495,1661321104888304044,,0.566766381264,-0.111297607422,-0.00568259553984
1661321104893231929,36496,1661321104893231929,,0.544613420963,0.00874185655266,0.0293351523578
1661321104898196411,36497,1661321104898196411,,0.556321084499,-0.0223693847656,0.0240662340075
1661321104903151045,36498,1661321104903151045,,0.556587338448,-0.164642333984,0.0147144151852
1661321104909784578,36499,1661321104909784578,,0.50092959404,0.0150812417269,0.019102986902
1661321104913307200,36500,1661321104913307200,,0.664660036564,-0.0711975097656,-0.00611231382936
1661321104918260647,36501,1661321104918260647,,0.393824100494,-0.0510864257812,0.00466760061681
1661321104923280582,36502,1661321104923280582,,0.576389610767,-0.00531005859375,-0.0505102388561
1661321104928212797,36503,1661321104928212797,,0.392631500959,-0.0401306152344,-0.000416540307924
1661321104933176091,36504,1661321104933176091,,0.6123483181,-0.0390319824219,-0.0161479543895
1661321104938215023,36505,1661321104938215023,,0.634671509266,-0.02197265625,-0.00102502142545
1661321104943283428,36506,1661321104943283428,,0.590857446194,-0.0452880859375,-0.0213747639209
1661321104949285881,36507,1661321104949285881,,0.643954217434,-0.0770874023438,-0.0156778432429
1661321104953193324,36508,1661321104953193324,,0.632403671741,-0.0365295410156,0.00932288262993
1661321104958269272,36509,1661321104958269272,,0.640595316887,0.00721267983317,-0.0468456037343
1661321104963221601,36510,1661321104963221601,,0.566330969334,-0.00692749023438,0.0237565487623
1661321104968191041,36511,1661321104968191041,,0.484398245811,-0.101593017578,-0.0457755997777
1661321104973278024,36512,1661321104973278024,,0.545256972313,-0.0402526855469,0.00386975705624
1661321104978253191,36513,1661321104978253191,,0.516320049763,-0.069091796875,-0.0257298145443
1661321104983214460,36514,1661321104983214460,,0.624335408211,-0.0686645507812,0.00409149192274
1661321104989051041,36515,1661321104989051041,,0.520697772503,-0.0258483886719,-0.026186177507
1661321104993333180,36516,1661321104993333180,,0.600851237774,-0.0310363769531,-0.0258080232888
1661321104998318404,36517,1661321104998318404,,0.496310412884,-0.05810546875,0.00382506614551
1661321105003158779,36518,1661321105003158779,,0.61683267355,-0.0475463867188,-0.0057900249958
1661321105008307780,36519,1661321105008307780,,0.618217051029,-0.00973510742188,-0.0259907953441
1661321105013205843,36520,1661321105013205843,,0.546060144901,0.00229494366795,0.00435104127973
1661321105018193651,36521,1661321105018193651,,0.605318367481,-0.102935791016,-0.0156065104529
1661321105028077498,36522,1661321105028077498,,0.524277448654,-0.0443115234375,0.00382506614551
1661321105028469723,36523,1661321105028469723,,0.577614843845,-0.115020751953,-0.00106398272328
1661321105034885004,36524,1661321105034885004,,0.622198522091,-0.0256042480469,-0.0208112597466
1661321105038205088,36525,1661321105038205088,,0.537862181664,0.0595668405294,-0.00622260803357
1661321105043231239,36526,1661321105043231239,,0.439759165049,0.0197759773582,0.00409435620531
1661321105048192787,36527,1661321105048192787,,0.541057169437,0.0213101897389,-0.0210762508214
1661321105053155034,36528,1661321105053155034,,0.706053972244,-0.00900268554688,-0.0160279218107
1661321105058262200,36529,1661321105058262200,,0.631657540798,-0.0727844238281,-0.031266592443
1661321105065879787,36530,1661321105065879787,,0.60811406374,-0.0576171875,-0.0361267067492
1661321105068174611,36531,1661321105068174611,,0.511311531067,-0.0945434570312,-0.0153750348836
1661321105073134064,36532,1661321105073134064,,0.491655856371,-0.0750732421875,0.0243409648538
1661321105078266862,36533,1661321105078266862,,0.631576240063,0.0153048429638,0.0189479999244
1661321105088767191,36534,1661321105088767191,,0.419479101896,-0.0231018066406,0.00447938451543
1661321105089162210,36535,1661321105089162210,,0.431953638792,-0.0620422363281,0.0197948310524
1661321105093352368,36536,1661321105093352368,,0.510914742947,-0.0683288574219,-0.0352672711015
1661321105098231994,36537,1661321105098231994,,0.610627174377,0.0494194813073,-0.0362006165087
1661321105103234329,36538,1661321105103234329,,0.546745419502,-0.18017578125,-0.035229742527
1661321105108295121,36539,1661321105108295121,,0.628194510937,0.000764981203247,-0.0258469861001
1661321105113215742,36540,1661321105113215742,,0.558969736099,-0.0750732421875,0.00421009398997
