%time,field.header.seq,field.header.stamp,field.header.frame_id,field.vector.x,field.vector.y,field.vector.z
1661321099693399629,35456,1661321099693399629,imu,-0.535669,-0.021619,-0.858811
1661321099698381361,35457,1661321099698381361,imu,-0.535403,-0.021086,-0.858409
1661321099703275094,35458,1661321099703275094,imu,-0.535434,-0.02034,-0.857953
1661321099708392806,35459,1661321099708392806,imu,-0.535301,-0.019827,-0.857666
1661321099713363015,35460,1661321099713363015,imu,-0.534978,-0.019512,-0.857952
1661321099718275605,35461,1661321099718275605,imu,-0.534703,-0.019242,-0.858482
1661321099727803403,35462,1661321099727803403,imu,-0.533984,-0.019204,-0.85902
1661321099728360242,35463,1661321099728360242,imu,-0.533918,-0.019358,-0.859993
1661321099733375708,35464,1661321099733375708,imu,-0.534108,-0.019859,-0.861031
1661321099738304221,35465,1661321099738304221,imu,-0.533599,-0.020607,-0.862037
1661321099743367876,35466,1661321099743367876,imu,-0.533974,-0.021463,-0.863015
1661321099748299603,35467,1661321099748299603,imu,-0.533983,-0.021516,-0.863904
1661321099754244577,35468,1661321099754244577,imu,-0.533986,-0.021314,-0.864624
1661321099758410780,35469,1661321099758410780,imu,-0.534408,-0.021057,-0.865566
1661321099775111980,35470,1661321099775111980,imu,-0.535003,-0.021756,-0.866488
1661321099775578655,35471,1661321099775578655,imu,-0.535301,-0.022472,-0.867331
1661321099775977584,35472,1661321099775977584,imu,-0.534982,-0.022427,-0.868042
1661321099778532355,35473,1661321099778532355,imu,-0.534635,-0.022413,-0.868409
1661321099783416170,35474,1661321099783416170,imu,-0.534381,-0.022389,-0.868567
1661321099788248164,35475,1661321099788248164,imu,-0.534158,-0.022147,-0.869067
1661321099793381450,35476,1661321099793381450,imu,-0.534707,-0.021856,-0.869508
1661321099798342370,35477,1661321099798342370,imu,-0.535594,-0.021578,-0.870115
1661321099803266973,35478,1661321099803266973,imu,-0.535908,-0.021182,-0.870221
1661321099813816889,35479,1661321099813816889,imu,-0.536307,-0.020774,-0.86947
1661321099814074531,35480,1661321099814074531,imu,-0.536671,-0.021105,-0.869417
1661321099818356181,35481,1661321099818356181,imu,-0.536455,-0.021722,-0.869038
1661321099823269748,35482,1661321099823269748,imu,-0.536401,-0.022555,-0.868326
1661321099828380057,35483,1661321099828380057,imu,-0.536704,-0.023045,-0.868052
1661321099833306755,35484,1661321099833306755,imu,-0.536742,-0.022667,-0.867822
1661321099838264462,35485,1661321099838264462,imu,-0.537179,-0.022546,-0.867361
1661321099843389856,35486,1661321099843389856,imu,-0.537455,-0.022463,-0.8668
1661321099851892674,35487,1661321099851892674,imu,-0.537545,-0.023145,-0.866134
1661321099853457593,35488,1661321099853457593,imu,-0.537882,-0.023387,-0.865754
1661321099858301459,35489,1661321099858301459,imu,-0.538142,-0.023311,-0.86543
1661321099863407368,35490,1661321099863407368,imu,-0.538114,-0.02298,-0.864963
1661321099868301520,35491,1661321099868301520,imu,-0.538,-0.022915,-0.864567
1661321099873219907,35492,1661321099873219907,imu,-0.537989,-0.023153,-0.864491
1661321099878589045,35493,1661321099878589045,imu,-0.537764,-0.023626,-0.864761
1661321099883334926,35494,1661321099883334926,imu,-0.537907,-0.023622,-0.864756
1661321099891526603,35495,1661321099891526603,imu,-0.538182,-0.02389,-0.865142
1661321099893552819,35496,1661321099893552819,imu,-0.538764,-0.023495,-0.865428
1661321099900698633,35497,1661321099900698633,imu,-0.538865,-0.023361,-0.865686
1661321099903410754,35498,1661321099903410754,imu,-0.538764,-0.022947,-0.865579
1661321099908239326,35499,1661321099908239326,imu,-0.539087,-0.022877,-0.866267
1661321099913357038,35500,1661321099913357038,imu,-0.539184,-0.022655,-0.866624
1661321099918279406,35501,1661321099918279406,imu,-0.539057,-0.022584,-0.866644
1661321099923246960,35502,1661321099923246960,imu,-0.539261,-0.022501,-0.8667
1661321099933899821,35503,1661321099933899821,imu,-0.53948,-0.023193,-0.866506
1661321099934695865,35504,1661321099934695865,imu,-0.539367,-0.022968,-0.866894
1661321099938326670,35505,1661321099938326670,imu,-0.539466,-0.022552,-0.867199
1661321099943369722,35506,1661321099943369722,imu,-0.539484,-0.022619,-0.867235
1661321099948305988,35507,1661321099948305988,imu,-0.539619,-0.022965,-0.867421
1661321099953283390,35508,1661321099953283390,imu,-0.539491,-0.022445,-0.867396
1661321099958240189,35509,1661321099958240189,imu,-0.539499,-0.022301,-0.867083
1661321099963359228,35510,1661321099963359228,imu,-0.53971,-0.022342,-0.866877
1661321099971568296,35511,1661321099971568296,imu,-0.539839,-0.022134,-0.866654
1661321099973369625,35512,1661321099973369625,imu,-0.53972,-0.02215,-0.866365
1661321099978425598,35513,1661321099978425598,imu,-0.539948,-0.022548,-0.866281
1661321099983317306,35514,1661321099983317306,imu,-0.540649,-0.022187,-0.866067
1661321099988280181,35515,1661321099988280181,imu,-0.540733,-0.021612,-0.865787
1661321099993220358,35516,1661321099993220358,imu,-0.540506,-0.021637,-0.865268
1661321099998324870,35517,1661321099998324870,imu,-0.540019,-0.021113,-0.865289
1661321100003295497,35518,1661321100003295497,imu,-0.540148,-0.021339,-0.865135
1661321100016602792,35519,1661321100016602792,imu,-0.540338,-0.021758,-0.865213
1661321100016964287,35520,1661321100016964287,imu,-0.540387,-0.021857,-0.865363
1661321100018419277,35521,1661321100018419277,imu,-0.541091,-0.021724,-0.865548
1661321100023315663,35522,1661321100023315663,imu,-0.540777,-0.020682,-0.865909
1661321100028453769,35523,1661321100028453769,imu,-0.540201,-0.020082,-0.866192
1661321100033328086,35524,1661321100033328086,imu,-0.54063,-0.020143,-0.866445
1661321100038427849,35525,1661321100038427849,imu,-0.541532,-0.019908,-0.866307
1661321100043255862,35526,1661321100043255862,imu,-0.542447,-0.019822,-0.866614
1661321100048356812,35527,1661321100048356812,imu,-0.542042,-0.019927,-0.866526
1661321100056326955,35528,1661321100056326955,imu,-0.541561,-0.019935,-0.866392
1661321100058294994,35529,1661321100058294994,imu,-0.541756,-0.019661,-0.866501
1661321100063363469,35530,1661321100063363469,imu,-0.541365,-0.019261,-0.866761
1661321100068331931,35531,1661321100068331931,imu,-0.541356,-0.020124,-0.866517
1661321100073328330,35532,1661321100073328330,imu,-0.541797,-0.020352,-0.866533
1661321100078372080,35533,1661321100078372080,imu,-0.54188,-0.019759,-0.866383
1661321100083765174,35534,1661321100083765174,imu,-0.542162,-0.019194,-0.866404
1661321100088278206,35535,1661321100088278206,imu,-0.542288,-0.018832,-0.866429
1661321100098778884,35536,1661321100098778884,imu,-0.542743,-0.018155,-0.866351
1661321100099300524,35537,1661321100099300524,imu,-0.543932,-0.017468,-0.86652
1661321100103384036,35538,1661321100103384036,imu,-0.544353,-0.016787,-0.866235
1661321100108268480,35539,1661321100108268480,imu,-0.544735,-0.015694,-0.86629
1661321100113386960,35540,1661321100113386960,imu,-0.544773,-0.015135,-0.866431
1661321100118306953,35541,1661321100118306953,imu,-0.544954,-0.015139,-0.866426
1661321100123276324,35542,1661321100123276324,imu,-0.545137,-0.015098,-0.866914
1661321100128396759,35543,1661321100128396759,imu,-0.545798,-0.014758,-0.867304
1661321100140780970,35544,1661321100140780970,imu,-0.54572,-0.014706,-0.867585
1661321100141229137,35545,1661321100141229137,imu,-0.544812,-0.014574,-0.867817
1661321100143316394,35546,1661321100143316394,imu,-0.544326,-0.014178,-0.868036
1661321100148400513,35547,1661321100148400513,imu,-0.543993,-0.013933,-0.8683
1661321100153295433,35548,1661321100153295433,imu,-0.543568,-0.014013,-0.869052
1661321100158385558,35549,1661321100158385558,imu,-0.543941,-0.014406,-0.86966
1661321100163337678,35550,1661321100163337678,imu,-0.544246,-0.014865,-0.869481
1661321100168315150,35551,1661321100168315150,imu,-0.544507,-0.015218,-0.869673
1661321100173254209,35552,1661321100173254209,imu,-0.544267,-0.014994,-0.869979
1661321100182523877,35553,1661321100182523877,imu,-0.544096,-0.015112,-0.870322
1661321100183417348,35554,1661321100183417348,imu,-0.543935,-0.015121,-0.870424
1661321100188293341,35555,1661321100188293341,imu,-0.544281,-0.015471,-0.870475
1661321100193305175,35556,1661321100193305175,imu,-0.544671,-0.01513,-0.870339
1661321100198369389,35557,1661321100198369389,imu,-0.544375,-0.014979,-0.870705
1661321100203300906,35558,1661321100203300906,imu,-0.544889,-0.01564,-0.870853
1661321100208252257,35559,1661321100208252257,imu,-0.54421,-0.015515,-0.870989
1661321100213375556,35560,1661321100213375556,imu,-0.543523,-0.015904,-0.87069
1661321100223216241,35561,1661321100223216241,imu,-0.544003,-0.015758,-0.870666
1661321100223679284,35562,1661321100223679284,imu,-0.54411,-0.015359,-0.870948
1661321100228287439,35563,1661321100228287439,imu,-0.544466,-0.015433,-0.870807
1661321100233372745,35564,1661321100233372745,imu,-0.544242,-0.015764,-0.87051
1661321100238290154,35565,1661321100238290154,imu,-0.543791,-0.015797,-0.870212
1661321100243243461,35566,1661321100243243461,imu,-0.54379,-0.016005,-0.869888
1661321100248394138,35567,1661321100248394138,imu,-0.543303,-0.015922,-0.869418
1661321100253416936,35568,1661321100253416936,imu,-0.543558,-0.015568,-0.869401
1661321100264180704,35569,1661321100264180704,imu,-0.544207,-0.015417,-0.869092
1661321100264952932,35570,1661321100264952932,imu,-0.544368,-0.01476,-0.869231
1661321100268397891,35571,1661321100268397891,imu,-0.543958,-0.014705,-0.869636
1661321100273336671,35572,1661321100273336671,imu,-0.543629,-0.014941,-0.87021
1661321100278213712,35573,1661321100278213712,imu,-0.543536,-0.014872,-0.870157
1661321100283351119,35574,1661321100283351119,imu,-0.5441,-0.015263,-0.870362
1661321100288280401,35575,1661321100288280401,imu,-0.544175,-0.015685,-0.870726
1661321100293227842,35576,1661321100293227842,imu,-0.544096,-0.015512,-0.871096
1661321100306338046,35577,1661321100306338046,imu,-0.544312,-0.016137,-0.871237
1661321100306566634,35578,1661321100306566634,imu,-0.54378,-0.016005,-0.871429
1661321100308306155,35579,1661321100308306155,imu,-0.543647,-0.015993,-0.872077
1661321100313281671,35580,1661321100313281671,imu,-0.543216,-0.015736,-0.872116
1661321100318324793,35581,1661321100318324793,imu,-0.542483,-0.015938,-0.871979
1661321100323261059,35582,1661321100323261059,imu,-0.542416,-0.015939,-0.87173
1661321100328243001,35583,1661321100328243001,imu,-0.542838,-0.015861,-0.871388
1661321100333349748,35584,1661321100333349748,imu,-0.542641,-0.015905,-0.871429
1661321100338289855,35585,1661321100338289855,imu,-0.542578,-0.015501,-0.871439
1661321100345355911,35586,1661321100345355911,imu,-0.542278,-0.01596,-0.871032
1661321100348409902,35587,1661321100348409902,imu,-0.54255,-0.016588,-0.870751
1661321100353392123,35588,1661321100353392123,imu,-0.542585,-0.016841,-0.870655
1661321100358322173,35589,1661321100358322173,imu,-0.542543,-0.016508,-0.870523
1661321100363232319,35590,1661321100363232319,imu,-0.542945,-0.016056,-0.869873
1661321100369596965,35591,1661321100369596965,imu,-0.543432,-0.016236,-0.869298
1661321100373285808,35592,1661321100373285808,imu,-0.544138,-0.016654,-0.868831
1661321100378224239,35593,1661321100378224239,imu,-0.543723,-0.016215,-0.868134
1661321100387737790,35594,1661321100387737790,imu,-0.543637,-0.015929,-0.867409
1661321100388471116,35595,1661321100388471116,imu,-0.543467,-0.016135,-0.866925
1661321100393353954,35596,1661321100393353954,imu,-0.542951,-0.016445,-0.866484
1661321100398382061,35597,1661321100398382061,imu,-0.54269,-0.016615,-0.866167
1661321100403312320,35598,1661321100403312320,imu,-0.541669,-0.016939,-0.866126
1661321100408287906,35599,1661321100408287906,imu,-0.540884,-0.017098,-0.866259
1661321100413236045,35600,1661321100413236045,imu,-0.540589,-0.017046,-0.866603
1661321100418333294,35601,1661321100418333294,imu,-0.540288,-0.016831,-0.867274
1661321100427917314,35602,1661321100427917314,imu,-0.540458,-0.016183,-0.86787
1661321100428708958,35603,1661321100428708958,imu,-0.540651,-0.016144,-0.868661
1661321100433395753,35604,1661321100433395753,imu,-0.54034,-0.016163,-0.869898
1661321100438369663,35605,1661321100438369663,imu,-0.540782,-0.015769,-0.87086
1661321100443254317,35606,1661321100443254317,imu,-0.540788,-0.014817,-0.871259
1661321100448405273,35607,1661321100448405273,imu,-0.541148,-0.014814,-0.871499
1661321100453412567,35608,1661321100453412567,imu,-0.541144,-0.014391,-0.871789
1661321100458291074,35609,1661321100458291074,imu,-0.540879,-0.014617,-0.871585
1661321100466208208,35610,1661321100466208208,imu,-0.540577,-0.015566,-0.871679
1661321100468400436,35611,1661321100468400436,imu,-0.541128,-0.0162,-0.871751
1661321100473409755,35612,1661321100473409755,imu,-0.541698,-0.015642,-0.871865
1661321100478340993,35613,1661321100478340993,imu,-0.542037,-0.015942,-0.871527
1661321100483343886,35614,1661321100483343886,imu,-0.542119,-0.01613,-0.871611
1661321100488302012,35615,1661321100488302012,imu,-0.541647,-0.016143,-0.871621
1661321100493255040,35616,1661321100493255040,imu,-0.541992,-0.016723,-0.87159
1661321100498374289,35617,1661321100498374289,imu,-0.542333,-0.01706,-0.871866
1661321100507248309,35618,1661321100507248309,imu,-0.542526,-0.016872,-0.871735
1661321100508453479,35619,1661321100508453479,imu,-0.542383,-0.017049,-0.87183
1661321100513223943,35620,1661321100513223943,imu,-0.542253,-0.017329,-0.871972
1661321100518438594,35621,1661321100518438594,imu,-0.541939,-0.016956,-0.871861
1661321100524061044,35622,1661321100524061044,imu,-0.542368,-0.017232,-0.871304
1661321100528254974,35623,1661321100528254974,imu,-0.542557,-0.017045,-0.871128
1661321100533380298,35624,1661321100533380298,imu,-0.542586,-0.017214,-0.87088
1661321100538446887,35625,1661321100538446887,imu,-0.54254,-0.017319,-0.870256
1661321100548356434,35626,1661321100548356434,imu,-0.542443,-0.016941,-0.869751
1661321100548690482,35627,1661321100548690482,imu,-0.542551,-0.016838,-0.869526
1661321100553368757,35628,1661321100553368757,imu,-0.543037,-0.017335,-0.869144
1661321100558322972,35629,1661321100558322972,imu,-0.543169,-0.017746,-0.868472
1661321100564343374,35630,1661321100564343374,imu,-0.54332,-0.017944,-0.86796
1661321100568328201,35631,1661321100568328201,imu,-0.54294,-0.018482,-0.866861
1661321100576597751,35632,1661321100576597751,imu,-0.543021,-0.018836,-0.866043
1661321100578312338,35633,1661321100578312338,imu,-0.542606,-0.019462,-0.86542
1661321100589458135,35634,1661321100589458135,imu,-0.542131,-0.019592,-0.864868
1661321100589760475,35635,1661321100589760475,imu,-0.541849,-0.020813,-0.863539
1661321100593386740,35636,1661321100593386740,imu,-0.541642,-0.021338,-0.862562
1661321100598291508,35637,1661321100598291508,imu,-0.541721,-0.022373,-0.861864
1661321100603336655,35638,1661321100603336655,imu,-0.541294,-0.023137,-0.861145
1661321100608274667,35639,1661321100608274667,imu,-0.541357,-0.022747,-0.860913
1661321100613290761,35640,1661321100613290761,imu,-0.541296,-0.022607,-0.860128
1661321100618467558,35641,1661321100618467558,imu,-0.541006,-0.022811,-0.860031
1661321100623301228,35642,1661321100623301228,imu,-0.541124,-0.021877,-0.860733
1661321100628271227,35643,1661321100628271227,imu,-0.540848,-0.021813,-0.860856
1661321100635498545,35644,1661321100635498545,imu,-0.540871,-0.022093,-0.861463
1661321100638385268,35645,1661321100638385268,imu,-0.541018,-0.02198,-0.861983
1661321100643246106,35646,1661321100643246106,imu,-0.540686,-0.021672,-0.862572
1661321100648216035,35647,1661321100648216035,imu,-0.54041,-0.021224,-0.863335
1661321100653362102,35648,1661321100653362102,imu,-0.539801,-0.021984,-0.863823
1661321100658284749,35649,1661321100658284749,imu,-0.53945,-0.022812,-0.864505
1661321100667865697,35650,1661321100667865697,imu,-0.539745,-0.023355,-0.865587
1661321100668503621,35651,1661321100668503621,imu,-0.540062,-0.023623,-0.866389
1661321100673360548,35652,1661321100673360548,imu,-0.540605,-0.0242,-0.867013
1661321100678426997,35653,1661321100678426997,imu,-0.540849,-0.024677,-0.867786
1661321100683419275,35654,1661321100683419275,imu,-0.540823,-0.024411,-0.868087
1661321100688324182,35655,1661321100688324182,imu,-0.540976,-0.024277,-0.868141
1661321100693288105,35656,1661321100693288105,imu,-0.54137,-0.023538,-0.868263
1661321100698211171,35657,1661321100698211171,imu,-0.541394,-0.023279,-0.86806
1661321100706144858,35658,1661321100706144858,imu,-0.541764,-0.023465,-0.867837
1661321100708352660,35659,1661321100708352660,imu,-0.542081,-0.02389,-0.867433
1661321100713325801,35660,1661321100713325801,imu,-0.541584,-0.024581,-0.867002
1661321100718394765,35661,1661321100718394765,imu,-0.541437,-0.024793,-0.866174
1661321100723282212,35662,1661321100723282212,imu,-0.541489,-0.024857,-0.865491
1661321100731694516,35663,1661321100731694516,imu,-0.542096,-0.024665,-0.864948
1661321100733305111,35664,1661321100733305111,imu,-0.542146,-0.024872,-0.863832
1661321100738319389,35665,1661321100738319389,imu,-0.541718,-0.025184,-0.862873
1661321100746489136,35666,1661321100746489136,imu,-0.541156,-0.025353,-0.862251
1661321100748244930,35667,1661321100748244930,imu,-0.541551,-0.024988,-0.861506
1661321100753448615,35668,1661321100753448615,imu,-0.540969,-0.024655,-0.861287
1661321100758359389,35669,1661321100758359389,imu,-0.539941,-0.0242,-0.861021
1661321100763273376,35670,1661321100763273376,imu,-0.539513,-0.024359,-0.861015
1661321100768477411,35671,1661321100768477411,imu,-0.539434,-0.024375,-0.860839
1661321100773320160,35672,1661321100773320160,imu,-0.539367,-0.024137,-0.860853
1661321100778237919,35673,1661321100778237919,imu,-0.5392,-0.024465,-0.861535
1661321100789908218,35674,1661321100789908218,imu,-0.539423,-0.024467,-0.862223
1661321100790330964,35675,1661321100790330964,imu,-0.539429,-0.024563,-0.862933
1661321100793322447,35676,1661321100793322447,imu,-0.539162,-0.024549,-0.863758
1661321100798476686,35677,1661321100798476686,imu,-0.538868,-0.024266,-0.864617
1661321100803361270,35678,1661321100803361270,imu,-0.539047,-0.024296,-0.865362
1661321100808314297,35679,1661321100808314297,imu,-0.539779,-0.024075,-0.865707
1661321100813275566,35680,1661321100813275566,imu,-0.540181,-0.024174,-0.866488
1661321100818352771,35681,1661321100818352771,imu,-0.540084,-0.024036,-0.866837
1661321100828066974,35682,1661321100828066974,imu,-0.540286,-0.024276,-0.867109
1661321100828517376,35683,1661321100828517376,imu,-0.540026,-0.024352,-0.867321
1661321100833292659,35684,1661321100833292659,imu,-0.539987,-0.02427,-0.867711
1661321100838443336,35685,1661321100838443336,imu,-0.539994,-0.024162,-0.867773
1661321100843256333,35686,1661321100843256333,imu,-0.540331,-0.023728,-0.868067
1661321100848220955,35687,1661321100848220955,imu,-0.540313,-0.023984,-0.868072
1661321100853395726,35688,1661321100853395726,imu,-0.540003,-0.024162,-0.868479
1661321100858299516,35689,1661321100858299516,imu,-0.53969,-0.023761,-0.868609
1661321100866907793,35690,1661321100866907793,imu,-0.540301,-0.023001,-0.86851
1661321100868600101,35691,1661321100868600101,imu,-0.540869,-0.02285,-0.868501
1661321100873827114,35692,1661321100873827114,imu,-0.541153,-0.022849,-0.868641
1661321100878257524,35693,1661321100878257524,imu,-0.541525,-0.023212,-0.868607
1661321100883224799,35694,1661321100883224799,imu,-0.541143,-0.023089,-0.868689
1661321100888697721,35695,1661321100888697721,imu,-0.540484,-0.023367,-0.86848
1661321100893297145,35696,1661321100893297145,imu,-0.539584,-0.023467,-0.868246
1661321100898220910,35697,1661321100898220910,imu,-0.538447,-0.023483,-0.868059
1661321100906579087,35698,1661321100906579087,imu,-0.53819,-0.022969,-0.868105
1661321100908331389,35699,1661321100908331389,imu,-0.537818,-0.022944,-0.867854
1661321100914373162,35700,1661321100914373162,imu,-0.53784,-0.022596,-0.867844
1661321100918229273,35701,1661321100918229273,imu,-0.53766,-0.022574,-0.867436
1661321100923307036,35702,1661321100923307036,imu,-0.537444,-0.022598,-0.867544
1661321100928289676,35703,1661321100928289676,imu,-0.536872,-0.022444,-0.867849
1661321100933259186,35704,1661321100933259186,imu,-0.536304,-0.022468,-0.867909
1661321100938320816,35705,1661321100938320816,imu,-0.535477,-0.022491,-0.867812
1661321100946188223,35706,1661321100946188223,imu,-0.535378,-0.022348,-0.867588
1661321100948439955,35707,1661321100948439955,imu,-0.535359,-0.021976,-0.867802
1661321100953432513,35708,1661321100953432513,imu,-0.535636,-0.021053,-0.868013
1661321100958367871,35709,1661321100958367871,imu,-0.535996,-0.021369,-0.867892
1661321100963292892,35710,1661321100963292892,imu,-0.53645,-0.021281,-0.868004
1661321100968279583,35711,1661321100968279583,imu,-0.536998,-0.021105,-0.868281
1661321100973392476,35712,1661321100973392476,imu,-0.537446,-0.020673,-0.868462
1661321100978272381,35713,1661321100978272381,imu,-0.537926,-0.021122,-0.868565
1661321100987671812,35714,1661321100987671812,imu,-0.538487,-0.021227,-0.868906
1661321100988484547,35715,1661321100988484547,imu,-0.538371,-0.021302,-0.869066
1661321100993371366,35716,1661321100993371366,imu,-0.53778,-0.021064,-0.868824
1661321100998240725,35717,1661321100998240725,imu,-0.538181,-0.020534,-0.868936
1661321101003338323,35718,1661321101003338323,imu,-0.53847,-0.020468,-0.869245
1661321101008296519,35719,1661321101008296519,imu,-0.539024,-0.020632,-0.869173
1661321101013366110,35720,1661321101013366110,imu,-0.539367,-0.020628,-0.869185
1661321101018202085,35721,1661321101018202085,imu,-0.539269,-0.020803,-0.869503
1661321101027226472,35722,1661321101027226472,imu,-0.539823,-0.020428,-0.869331
1661321101028343923,35723,1661321101028343923,imu,-0.539799,-0.020191,-0.869477
1661321101033289896,35724,1661321101033289896,imu,-0.539448,-0.020169,-0.869399
1661321101038362701,35725,1661321101038362701,imu,-0.539356,-0.020474,-0.869389
1661321101043285907,35726,1661321101043285907,imu,-0.539657,-0.020314,-0.869215
1661321101048263378,35727,1661321101048263378,imu,-0.539323,-0.020556,-0.869466
1661321101053182743,35728,1661321101053182743,imu,-0.539585,-0.020608,-0.869125
1661321101058335864,35729,1661321101058335864,imu,-0.539604,-0.020751,-0.868966
1661321101067459076,35730,1661321101067459076,imu,-0.539411,-0.020588,-0.868549
1661321101068299049,35731,1661321101068299049,imu,-0.539689,-0.020832,-0.868088
1661321101073352647,35732,1661321101073352647,imu,-0.539829,-0.021031,-0.867792
1661321101078303580,35733,1661321101078303580,imu,-0.539351,-0.021257,-0.867627
1661321101083211281,35734,1661321101083211281,imu,-0.539466,-0.021433,-0.867483
1661321101088887159,35735,1661321101088887159,imu,-0.539962,-0.021219,-0.867041
1661321101093298014,35736,1661321101093298014,imu,-0.539887,-0.020956,-0.866952
1661321101098240706,35737,1661321101098240706,imu,-0.539642,-0.021757,-0.866982
1661321101106976302,35738,1661321101106976302,imu,-0.539329,-0.022601,-0.867253
1661321101108497221,35739,1661321101108497221,imu,-0.538864,-0.023156,-0.867348
1661321101113308892,35740,1661321101113308892,imu,-0.538616,-0.023117,-0.86739
1661321101118222110,35741,1661321101118222110,imu,-0.538899,-0.022789,-0.867276
1661321101123307416,35742,1661321101123307416,imu,-0.539106,-0.02272,-0.867256
1661321101128314640,35743,1661321101128314640,imu,-0.539019,-0.02272,-0.866993
1661321101133395127,35744,1661321101133395127,imu,-0.539409,-0.022848,-0.867009
1661321101138351228,35745,1661321101138351228,imu,-0.539562,-0.022773,-0.866866
1661321101146275555,35746,1661321101146275555,imu,-0.539802,-0.022316,-0.867444
1661321101148285918,35747,1661321101148285918,imu,-0.540181,-0.022161,-0.867333
1661321101153212266,35748,1661321101153212266,imu,-0.539751,-0.022335,-0.867255
1661321101158323972,35749,1661321101158323972,imu,-0.538974,-0.021901,-0.867226
1661321101163261006,35750,1661321101163261006,imu,-0.538763,-0.021876,-0.867286
1661321101168206631,35751,1661321101168206631,imu,-0.538683,-0.022097,-0.867752
1661321101173353257,35752,1661321101173353257,imu,-0.537982,-0.022267,-0.867789
1661321101178330868,35753,1661321101178330868,imu,-0.538098,-0.022333,-0.867728
1661321101185925688,35754,1661321101185925688,imu,-0.538517,-0.021893,-0.867903
1661321101188455595,35755,1661321101188455595,imu,-0.538105,-0.021808,-0.867788
1661321101193346185,35756,1661321101193346185,imu,-0.537954,-0.021732,-0.86756
1661321101198303124,35757,1661321101198303124,imu,-0.537372,-0.021753,-0.867811
1661321101203261739,35758,1661321101203261739,imu,-0.537219,-0.021676,-0.867901
1661321101208622845,35759,1661321101208622845,imu,-0.536779,-0.021851,-0.867804
1661321101213271647,35760,1661321101213271647,imu,-0.536419,-0.022022,-0.868054
1661321101218217481,35761,1661321101218217481,imu,-0.537351,-0.02248,-0.867962
1661321101223850268,35762,1661321101223850268,imu,-0.538214,-0.022714,-0.868304
1661321101228298907,35763,1661321101228298907,imu,-0.538969,-0.023149,-0.868691
1661321101233299286,35764,1661321101233299286,imu,-0.538194,-0.02303,-0.868637
1661321101238452198,35765,1661321101238452198,imu,-0.538078,-0.02278,-0.86835
1661321101243323163,35766,1661321101243323163,imu,-0.538578,-0.022897,-0.868449
1661321101248310971,35767,1661321101248310971,imu,-0.538836,-0.023368,-0.868331
1661321101253210291,35768,1661321101253210291,imu,-0.538716,-0.023901,-0.868492
1661321101263113902,35769,1661321101263113902,imu,-0.5387,-0.023675,-0.868615
1661321101263504800,35770,1661321101263504800,imu,-0.538514,-0.023212,-0.868505
1661321101268278547,35771,1661321101268278547,imu,-0.538875,-0.023513,-0.868805
1661321101273400869,35772,1661321101273400869,imu,-0.539017,-0.023447,-0.868977
1661321101278281541,35773,1661321101278281541,imu,-0.540082,-0.023277,-0.868831
1661321101283241414,35774,1661321101283241414,imu,-0.540346,-0.023429,-0.868779
1661321101288216441,35775,1661321101288216441,imu,-0.53926,-0.023279,-0.868758
1661321101293295531,35776,1661321101293295531,imu,-0.539183,-0.023507,-0.869014
1661321101302209570,35777,1661321101302209570,imu,-0.539164,-0.023347,-0.869264
1661321101303359985,35778,1661321101303359985,imu,-0.539558,-0.02342,-0.869151
1661321101308398568,35779,1661321101308398568,imu,-0.540481,-0.023626,-0.869628
1661321101313283012,35780,1661321101313283012,imu,-0.540722,-0.023422,-0.86952
1661321101318220256,35781,1661321101318220256,imu,-0.540629,-0.023139,-0.869094
1661321101323337060,35782,1661321101323337060,imu,-0.540736,-0.023424,-0.869041
1661321101328288202,35783,1661321101328288202,imu,-0.540728,-0.022432,-0.868552
1661321101333232499,35784,1661321101333232499,imu,-0.540779,-0.02238,-0.868261
1661321101341238610,35785,1661321101341238610,imu,-0.540431,-0.022348,-0.868018
1661321101343359530,35786,1661321101343359530,imu,-0.540304,-0.022233,-0.867815
1661321101348310463,35787,1661321101348310463,imu,-0.539868,-0.022105,-0.867959
1661321101353244354,35788,1661321101353244354,imu,-0.539475,-0.021876,-0.86782
1661321101358333920,35789,1661321101358333920,imu,-0.538815,-0.021517,-0.867968
1661321101365646304,35790,1661321101365646304,imu,-0.538541,-0.021459,-0.868224
1661321101368236554,35791,1661321101368236554,imu,-0.539244,-0.021115,-0.869003
1661321101373351193,35792,1661321101373351193,imu,-0.539422,-0.020602,-0.868943
1661321101383500084,35793,1661321101383500084,imu,-0.539328,-0.020577,-0.868814
1661321101383949718,35794,1661321101383949718,imu,-0.539192,-0.020433,-0.868611
1661321101388274180,35795,1661321101388274180,imu,-0.53918,-0.019649,-0.868504
1661321101393525008,35796,1661321101393525008,imu,-0.539103,-0.019267,-0.868418
1661321101398262997,35797,1661321101398262997,imu,-0.539027,-0.019617,-0.868385
1661321101403276925,35798,1661321101403276925,imu,-0.539422,-0.019898,-0.868424
1661321101408333247,35799,1661321101408333247,imu,-0.539805,-0.01972,-0.868488
1661321101413276916,35800,1661321101413276916,imu,-0.540199,-0.019865,-0.868645
1661321101422164556,35801,1661321101422164556,imu,-0.540683,-0.019818,-0.868429
1661321101423390818,35802,1661321101423390818,imu,-0.541129,-0.019398,-0.868428
1661321101428410264,35803,1661321101428410264,imu,-0.54104,-0.019235,-0.868551
1661321101433273965,35804,1661321101433273965,imu,-0.540638,-0.019481,-0.868126
1661321101438231882,35805,1661321101438231882,imu,-0.540533,-0.019382,-0.868471
1661321101443324800,35806,1661321101443324800,imu,-0.539993,-0.019544,-0.868736
1661321101448280133,35807,1661321101448280133,imu,-0.539707,-0.019057,-0.868951
1661321101453281071,35808,1661321101453281071,imu,-0.539056,-0.019199,-0.868899
1661321101466762338,35809,1661321101466762338,imu,-0.539033,-0.020488,-0.869641
1661321101467175236,35810,1661321101467175236,imu,-0.539565,-0.020075,-0.86977
1661321101468275366,35811,1661321101468275366,imu,-0.539067,-0.019405,-0.869164
1661321101473301936,35812,1661321101473301936,imu,-0.538904,-0.018959,-0.869446
1661321101478549970,35813,1661321101478549970,imu,-0.539227,-0.019881,-0.870494
1661321101483249896,35814,1661321101483249896,imu,-0.539197,-0.020704,-0.870304
1661321101488225133,35815,1661321101488225133,imu,-0.538705,-0.021496,-0.870139
1661321101493439713,35816,1661321101493439713,imu,-0.539306,-0.021283,-0.871099
1661321101498296920,35817,1661321101498296920,imu,-0.541034,-0.020326,-0.872566
1661321101506244993,35818,1661321101506244993,imu,-0.540009,-0.019798,-0.872475
1661321101508207794,35819,1661321101508207794,imu,-0.538534,-0.020928,-0.872874
1661321101513396674,35820,1661321101513396674,imu,-0.539387,-0.022198,-0.873856
1661321101518242007,35821,1661321101518242007,imu,-0.541276,-0.022597,-0.874027
1661321101523184978,35822,1661321101523184978,imu,-0.540995,-0.022596,-0.873352
1661321101528317845,35823,1661321101528317845,imu,-0.540394,-0.022065,-0.873264
1661321101533271990,35824,1661321101533271990,imu,-0.54088,-0.021001,-0.873791
1661321101538208955,35825,1661321101538208955,imu,-0.540992,-0.020447,-0.873408
1661321101545464628,35826,1661321101545464628,imu,-0.540193,-0.021598,-0.872796
1661321101548322577,35827,1661321101548322577,imu,-0.539606,-0.022879,-0.873199
1661321101553643106,35828,1661321101553643106,imu,-0.540411,-0.02318,-0.873913
1661321101558331856,35829,1661321101558331856,imu,-0.540928,-0.022984,-0.874416
1661321101563435181,35830,1661321101563435181,imu,-0.540617,-0.023009,-0.874544
1661321101568242661,35831,1661321101568242661,imu,-0.540509,-0.023601,-0.874797
1661321101573217968,35832,1661321101573217968,imu,-0.540921,-0.024154,-0.875143
1661321101578311166,35833,1661321101578311166,imu,-0.541531,-0.024687,-0.875312
1661321101589153435,35834,1661321101589153435,imu,-0.542435,-0.025213,-0.875468
1661321101589944869,35835,1661321101589944869,imu,-0.542924,-0.024495,-0.875971
1661321101593463929,35836,1661321101593463929,imu,-0.542604,-0.024037,-0.876144
1661321101598439655,35837,1661321101598439655,imu,-0.542267,-0.024386,-0.875763
1661321101603236519,35838,1661321101603236519,imu,-0.542546,-0.025598,-0.875896
1661321101608190524,35839,1661321101608190524,imu,-0.543377,-0.025761,-0.875845
1661321101614637164,35840,1661321101614637164,imu,-0.543921,-0.025816,-0.875399
1661321101618261683,35841,1661321101618261683,imu,-0.543537,-0.026286,-0.875077
1661321101623288742,35842,1661321101623288742,imu,-0.543166,-0.026528,-0.875527
1661321101628335007,35843,1661321101628335007,imu,-0.543099,-0.026717,-0.875501
1661321101633356408,35844,1661321101633356408,imu,-0.54282,-0.026638,-0.875516
1661321101638205234,35845,1661321101638205234,imu,-0.54332,-0.026929,-0.87566
1661321101643347879,35846,1661321101643347879,imu,-0.543445,-0.026837,-0.875753
1661321101648294132,35847,1661321101648294132,imu,-0.543489,-0.026922,-0.876004
1661321101654469161,35848,1661321101654469161,imu,-0.543667,-0.026133,-0.876534
1661321101658186150,35849,1661321101658186150,imu,-0.543466,-0.025739,-0.876616
1661321101667890435,35850,1661321101667890435,imu,-0.542779,-0.025724,-0.876296
1661321101668358438,35851,1661321101668358438,imu,-0.542447,-0.026204,-0.876004
1661321101673300011,35852,1661321101673300011,imu,-0.541777,-0.026676,-0.876052
1661321101678354238,35853,1661321101678354238,imu,-0.541388,-0.026982,-0.876231
1661321101683277025,35854,1661321101683277025,imu,-0.541587,-0.026522,-0.876479
1661321101688254986,35855,1661321101688254986,imu,-0.542489,-0.027192,-0.876689
1661321101694291591,35856,1661321101694291591,imu,-0.542679,-0.027705,-0.876962
1661321101698314272,35857,1661321101698314272,imu,-0.542541,-0.028076,-0.87701
1661321101709669730,35858,1661321101709669730,imu,-0.542169,-0.028379,-0.877047
1661321101710142900,35859,1661321101710142900,imu,-0.541593,-0.028425,-0.87769
1661321101713358083,35860,1661321101713358083,imu,-0.54127,-0.028196,-0.878335
1661321101718341841,35861,1661321101718341841,imu,-0.540796,-0.027937,-0.878575
1661321101724564012,35862,1661321101724564012,imu,-0.540436,-0.028592,-0.878644
1661321101728348746,35863,1661321101728348746,imu,-0.541413,-0.028369,-0.878991
1661321101733289063,35864,1661321101733289063,imu,-0.541326,-0.028822,-0.879089
1661321101738229030,35865,1661321101738229030,imu,-0.541027,-0.029258,-0.879216
1661321101746794914,35866,1661321101746794914,imu,-0.540202,-0.028663,-0.879396
1661321101748342931,35867,1661321101748342931,imu,-0.539206,-0.028183,-0.879773
1661321101755055314,35868,1661321101755055314,imu,-0.538929,-0.028104,-0.879765
1661321101758224263,35869,1661321101758224263,imu,-0.538971,-0.028642,-0.879883
1661321101763336737,35870,1661321101763336737,imu,-0.538398,-0.028901,-0.879924
1661321101768263016,35871,1661321101768263016,imu,-0.538205,-0.029079,-0.879896
1661321101773220932,35872,1661321101773220932,imu,-0.538367,-0.029317,-0.880566
1661321101778348562,35873,1661321101778348562,imu,-0.538161,-0.02864,-0.880473
1661321101785444859,35874,1661321101785444859,imu,-0.53778,-0.028455,-0.880769
1661321101788356375,35875,1661321101788356375,imu,-0.537987,-0.029072,-0.881057
1661321101793244102,35876,1661321101793244102,imu,-0.537499,-0.029277,-0.881195
1661321101798295046,35877,1661321101798295046,imu,-0.537384,-0.029364,-0.881222
1661321101803238506,35878,1661321101803238506,imu,-0.537501,-0.029498,-0.880774
1661321101808208644,35879,1661321101808208644,imu,-0.536653,-0.029656,-0.880359
1661321101813373289,35880,1661321101813373289,imu,-0.536841,-0.029298,-0.880114
1661321101818262413,35881,1661321101818262413,imu,-0.537479,-0.028764,-0.880025
1661321101823886050,35882,1661321101823886050,imu,-0.53761,-0.029587,-0.879813
1661321101828395729,35883,1661321101828395729,imu,-0.537277,-0.02969,-0.879493
1661321101833293443,35884,1661321101833293443,imu,-0.537013,-0.029327,-0.879288
1661321101838229919,35885,1661321101838229919,imu,-0.537074,-0.028898,-0.879308
1661321101843170096,35886,1661321101843170096,imu,-0.536664,-0.028794,-0.879078
1661321101848308201,35887,1661321101848308201,imu,-0.536621,-0.028608,-0.878464
1661321101853251521,35888,1661321101853251521,imu,-0.536689,-0.028682,-0.878149
1661321101864596783,35889,1661321101864596783,imu,-0.536227,-0.028693,-0.877392
1661321101865121146,35890,1661321101865121146,imu,-0.536678,-0.028534,-0.876403
1661321101868324456,35891,1661321101868324456,imu,-0.537191,-0.028075,-0.875375
1661321101873215326,35892,1661321101873215326,imu,-0.537693,-0.027884,-0.87457
1661321101878353781,35893,1661321101878353781,imu,-0.536999,-0.028787,-0.873885
1661321101883296262,35894,1661321101883296262,imu,-0.536567,-0.029735,-0.872916
1661321101888252992,35895,1661321101888252992,imu,-0.537115,-0.029095,-0.871802
1661321101893248832,35896,1661321101893248832,imu,-0.537469,-0.028475,-0.871119
1661321101898305084,35897,1661321101898305084,imu,-0.536119,-0.028291,-0.870402
1661321101905359267,35898,1661321101905359267,imu,-0.535758,-0.029503,-0.870037
1661321101908283564,35899,1661321101908283564,imu,-0.535734,-0.029587,-0.869771
1661321101913366495,35900,1661321101913366495,imu,-0.536304,-0.028954,-0.870338
1661321101918303250,35901,1661321101918303250,imu,-0.53748,-0.028467,-0.871015
1661321101923233580,35902,1661321101923233580,imu,-0.538192,-0.02833,-0.871745
1661321101928345914,35903,1661321101928345914,imu,-0.538112,-0.028945,-0.872402
1661321101933308230,35904,1661321101933308230,imu,-0.538596,-0.028978,-0.872605
1661321101938231506,35905,1661321101938231506,imu,-0.539271,-0.02902,-0.873303
1661321101943812890,35906,1661321101943812890,imu,-0.53982,-0.028575,-0.873596
1661321101948342474,35907,1661321101948342474,imu,-0.539379,-0.027658,-0.873846
1661321101953279508,35908,1661321101953279508,imu,-0.539034,-0.027685,-0.87447
1661321101958252091,35909,1661321101958252091,imu,-0.538534,-0.028068,-0.874696
1661321101963330203,35910,1661321101963330203,imu,-0.539405,-0.027731,-0.874691
1661321101968277085,35911,1661321101968277085,imu,-0.540364,-0.027449,-0.874863
1661321101973220964,35912,1661321101973220964,imu,-0.541091,-0.027122,-0.874853
1661321101983184987,35913,1661321101983184987,imu,-0.540772,-0.027385,-0.874971
1661321101983420629,35914,1661321101983420629,imu,-0.540374,-0.027549,-0.875152
1661321101988319251,35915,1661321101988319251,imu,-0.539935,-0.027058,-0.875519
1661321101993230305,35916,1661321101993230305,imu,-0.54048,-0.026271,-0.875539
1661321101998311350,35917,1661321101998311350,imu,-0.540238,-0.026611,-0.875266
1661321102003249711,35918,1661321102003249711,imu,-0.540271,-0.026732,-0.875468
1661321102008278726,35919,1661321102008278726,imu,-0.540619,-0.027108,-0.875669
1661321102013529554,35920,1661321102013529554,imu,-0.541053,-0.027253,-0.875284
1661321102018345065,35921,1661321102018345065,imu,-0.541971,-0.026747,-0.874859
1661321102023327915,35922,1661321102023327915,imu,-0.542701,-0.026357,-0.874813
1661321102028182328,35923,1661321102028182328,imu,-0.543085,-0.026645,-0.874545
1661321102033329303,35924,1661321102033329303,imu,-0.543388,-0.026105,-0.874393
1661321102038242033,35925,1661321102038242033,imu,-0.543469,-0.025731,-0.87395
1661321102043258126,35926,1661321102043258126,imu,-0.543125,-0.02554,-0.873783
1661321102048332956,35927,1661321102048332956,imu,-0.543606,-0.02505,-0.873565
1661321102053272435,35928,1661321102053272435,imu,-0.543185,-0.025143,-0.873113
1661321102064945179,35929,1661321102064945179,imu,-0.543345,-0.025741,-0.872482
1661321102065261697,35930,1661321102065261697,imu,-0.543306,-0.025888,-0.872386
1661321102068348583,35931,1661321102068348583,imu,-0.543595,-0.025504,-0.87232
1661321102073285757,35932,1661321102073285757,imu,-0.544042,-0.025342,-0.872462
1661321102078247515,35933,1661321102078247515,imu,-0.544354,-0.025154,-0.87281
1661321102083334706,35934,1661321102083334706,imu,-0.545048,-0.025229,-0.873021
1661321102088779202,35935,1661321102088779202,imu,-0.545308,-0.025315,-0.873028
1661321102093204933,35936,1661321102093204933,imu,-0.544946,-0.025752,-0.873009
1661321102102445128,35937,1661321102102445128,imu,-0.544949,-0.025546,-0.873039
1661321102103537785,35938,1661321102103537785,imu,-0.545244,-0.025416,-0.873359
1661321102110511442,35939,1661321102110511442,imu,-0.545179,-0.02564,-0.873128
1661321102113390831,35940,1661321102113390831,imu,-0.545017,-0.025535,-0.873394
1661321102118291129,35941,1661321102118291129,imu,-0.545264,-0.025127,-0.873299
1661321102123239618,35942,1661321102123239618,imu,-0.54543,-0.024889,-0.873378
1661321102128206124,35943,1661321102128206124,imu,-0.545252,-0.025185,-0.87351
1661321102133291710,35944,1661321102133291710,imu,-0.54516,-0.025498,-0.873448
1661321102144124900,35945,1661321102144124900,imu,-0.54479,-0.025301,-0.873355
1661321102144544991,35946,1661321102144544991,imu,-0.545433,-0.025327,-0.873109
1661321102148335940,35947,1661321102148335940,imu,-0.545383,-0.025447,-0.872987
1661321102153322143,35948,1661321102153322143,imu,-0.545033,-0.02544,-0.872845
1661321102158241856,35949,1661321102158241856,imu,-0.54479,-0.025532,-0.872309
1661321102163174211,35950,1661321102163174211,imu,-0.54499,-0.025582,-0.872252
1661321102168288710,35951,1661321102168288710,imu,-0.54476,-0.02617,-0.872315
1661321102173235522,35952,1661321102173235522,imu,-0.545089,-0.0263,-0.872239
1661321102181612487,35953,1661321102181612487,imu,-0.544881,-0.026279,-0.872349
1661321102183437213,35954,1661321102183437213,imu,-0.545016,-0.025932,-0.872376
1661321102188380603,35955,1661321102188380603,imu,-0.545203,-0.025483,-0.872478
1661321102193199257,35956,1661321102193199257,imu,-0.54512,-0.025238,-0.872519
1661321102198384645,35957,1661321102198384645,imu,-0.544994,-0.0251,-0.872442
1661321102203268041,35958,1661321102203268041,imu,-0.544726,-0.025078,-0.872599
1661321102208226168,35959,1661321102208226168,imu,-0.545199,-0.025216,-0.87279
1661321102213187716,35960,1661321102213187716,imu,-0.545355,-0.025173,-0.873041
1661321102222271607,35961,1661321102222271607,imu,-0.545796,-0.02521,-0.872919
1661321102223288347,35962,1661321102223288347,imu,-0.545769,-0.024853,-0.872481
1661321102228315965,35963,1661321102228315965,imu,-0.545571,-0.025346,-0.872238
1661321102233326402,35964,1661321102233326402,imu,-0.545386,-0.025413,-0.872204
1661321102238368825,35965,1661321102238368825,imu,-0.545396,-0.024649,-0.871768
1661321102243230152,35966,1661321102243230152,imu,-0.545444,-0.024347,-0.871778
1661321102248159434,35967,1661321102248159434,imu,-0.545613,-0.024563,-0.871808
1661321102253294187,35968,1661321102253294187,imu,-0.545936,-0.024327,-0.871823
1661321102258444026,35969,1661321102258444026,imu,-0.545676,-0.023527,-0.871845
1661321102263182224,35970,1661321102263182224,imu,-0.545232,-0.022652,-0.871878
1661321102268410424,35971,1661321102268410424,imu,-0.54519,-0.022784,-0.87219
1661321102273240741,35972,1661321102273240741,imu,-0.54516,-0.0227,-0.871936
1661321102278207528,35973,1661321102278207528,imu,-0.544865,-0.022803,-0.872099
1661321102283359182,35974,1661321102283359182,imu,-0.544524,-0.022748,-0.872366
1661321102288257036,35975,1661321102288257036,imu,-0.545029,-0.022828,-0.87205
1661321102298628440,35976,1661321102298628440,imu,-0.545769,-0.022554,-0.872083
1661321102299258123,35977,1661321102299258123,imu,-0.546629,-0.022403,-0.872029
1661321102303353298,35978,1661321102303353298,imu,-0.547362,-0.021903,-0.871694
1661321102308276154,35979,1661321102308276154,imu,-0.547002,-0.021355,-0.871493
1661321102313240287,35980,1661321102313240287,imu,-0.546516,-0.021287,-0.871577
1661321102318385167,35981,1661321102318385167,imu,-0.546318,-0.020346,-0.871597
1661321102323485838,35982,1661321102323485838,imu,-0.546161,-0.020323,-0.871765
1661321102328193376,35983,1661321102328193376,imu,-0.546195,-0.020094,-0.87191
1661321102341005709,35984,1661321102341005709,imu,-0.546659,-0.019747,-0.871728
1661321102341623170,35985,1661321102341623170,imu,-0.546767,-0.018857,-0.871412
1661321102343314361,35986,1661321102343314361,imu,-0.546787,-0.018792,-0.87095
1661321102348353014,35987,1661321102348353014,imu,-0.546528,-0.018755,-0.871058
1661321102353287254,35988,1661321102353287254,imu,-0.546417,-0.019132,-0.871233
1661321102358238606,35989,1661321102358238606,imu,-0.547153,-0.018924,-0.870839
1661321102365507898,35990,1661321102365507898,imu,-0.547488,-0.019238,-0.870764
1661321102368441135,35991,1661321102368441135,imu,-0.548151,-0.01948,-0.870797
1661321102373283465,35992,1661321102373283465,imu,-0.54829,-0.019803,-0.870608
1661321102378898372,35993,1661321102378898372,imu,-0.548695,-0.020258,-0.870474
1661321102383341843,35994,1661321102383341843,imu,-0.548405,-0.020661,-0.8702
1661321102388275036,35995,1661321102388275036,imu,-0.548691,-0.020786,-0.870004
1661321102393238819,35996,1661321102393238819,imu,-0.548965,-0.021144,-0.869751
1661321102398171593,35997,1661321102398171593,imu,-0.548758,-0.020877,-0.869392
1661321102403265978,35998,1661321102403265978,imu,-0.548888,-0.020308,-0.868947
1661321102408231158,35999,1661321102408231158,imu,-0.548499,-0.020253,-0.868276
1661321102422821844,36000,1661321102422821844,imu,-0.548431,-0.02027,-0.868017
1661321102423574935,36001,1661321102423574935,imu,-0.548714,-0.02023,-0.867923
1661321102423831600,36002,1661321102423831600,imu,-0.548884,-0.020167,-0.867913
1661321102428245877,36003,1661321102428245877,imu,-0.548555,-0.019992,-0.867293
1661321102433367919,36004,1661321102433367919,imu,-0.547987,-0.01972,-0.867791
1661321102438280090,36005,1661321102438280090,imu,-0.547574,-0.019824,-0.868145
1661321102443222222,36006,1661321102443222222,imu,-0.547518,-0.020185,-0.868607
1661321102448158069,36007,1661321102448158069,imu,-0.547381,-0.019969,-0.868705
1661321102453301972,36008,1661321102453301972,imu,-0.547127,-0.019499,-0.868722
1661321102465779210,36009,1661321102465779210,imu,-0.547168,-0.019243,-0.868946
1661321102466263485,36010,1661321102466263485,imu,-0.547157,-0.019485,-0.868507
1661321102468396907,36011,1661321102468396907,imu,-0.547397,-0.020072,-0.86777
1661321102473378290,36012,1661321102473378290,imu,-0.547146,-0.019912,-0.867304
1661321102478264131,36013,1661321102478264131,imu,-0.546529,-0.019605,-0.866857
1661321102483315075,36014,1661321102483315075,imu,-0.54686,-0.019343,-0.866353
1661321102490561809,36015,1661321102490561809,imu,-0.547574,-0.018975,-0.866084
1661321102493223016,36016,1661321102493223016,imu,-0.548282,-0.019416,-0.866006
1661321102498198602,36017,1661321102498198602,imu,-0.54795,-0.019758,-0.865884
1661321102507262031,36018,1661321102507262031,imu,-0.548096,-0.019729,-0.865812
1661321102508646132,36019,1661321102508646132,imu,-0.547302,-0.019692,-0.865797
1661321102513237735,36020,1661321102513237735,imu,-0.546747,-0.019066,-0.865457
1661321102518325415,36021,1661321102518325415,imu,-0.546701,-0.019185,-0.865269
1661321102523270760,36022,1661321102523270760,imu,-0.547023,-0.019337,-0.865167
1661321102531944129,36023,1661321102531944129,imu,-0.547078,-0.01909,-0.864941
1661321102533222981,36024,1661321102533222981,imu,-0.546755,-0.019068,-0.864883
1661321102538574309,36025,1661321102538574309,imu,-0.546131,-0.019421,-0.864562
1661321102545141634,36026,1661321102545141634,imu,-0.545876,-0.019766,-0.864523
1661321102548427426,36027,1661321102548427426,imu,-0.546329,-0.019407,-0.864755
1661321102553402174,36028,1661321102553402174,imu,-0.546352,-0.01922,-0.864506
1661321102558277678,36029,1661321102558277678,imu,-0.5459,-0.018794,-0.86426
1661321102563215132,36030,1661321102563215132,imu,-0.545563,-0.017986,-0.864452
1661321102568305536,36031,1661321102568305536,imu,-0.545583,-0.017717,-0.864337
1661321102573271764,36032,1661321102573271764,imu,-0.545901,-0.017401,-0.864348
1661321102578227026,36033,1661321102578227026,imu,-0.546283,-0.017698,-0.864183
1661321102589599735,36034,1661321102589599735,imu,-0.546551,-0.017463,-0.864483
1661321102590091273,36035,1661321102590091273,imu,-0.546065,-0.017531,-0.864513
1661321102593276495,36036,1661321102593276495,imu,-0.545783,-0.017658,-0.864868
1661321102598290354,36037,1661321102598290354,imu,-0.545451,-0.017546,-0.865136
1661321102603328029,36038,1661321102603328029,imu,-0.544918,-0.018199,-0.865576
1661321102608270161,36039,1661321102608270161,imu,-0.545219,-0.018903,-0.865385
1661321102615549580,36040,1661321102615549580,imu,-0.545537,-0.018848,-0.864882
1661321102618317015,36041,1661321102618317015,imu,-0.545511,-0.01941,-0.864737
1661321102623268367,36042,1661321102623268367,imu,-0.545492,-0.019637,-0.864762
1661321102630435063,36043,1661321102630435063,imu,-0.544711,-0.01924,-0.864514
1661321102633198587,36044,1661321102633198587,imu,-0.543818,-0.019279,-0.864532
1661321102638337950,36045,1661321102638337950,imu,-0.543555,-0.019434,-0.864292
1661321102643234756,36046,1661321102643234756,imu,-0.54353,-0.019465,-0.864164
1661321102648205034,36047,1661321102648205034,imu,-0.543802,-0.01953,-0.863941
1661321102653321000,36048,1661321102653321000,imu,-0.544661,-0.019683,-0.863691
1661321102658264879,36049,1661321102658264879,imu,-0.544896,-0.019015,-0.863846
1661321102663230408,36050,1661321102663230408,imu,-0.544873,-0.018319,-0.863664
1661321102669568236,36051,1661321102669568236,imu,-0.545717,-0.01811,-0.863322
1661321102673354785,36052,1661321102673354785,imu,-0.545824,-0.018324,-0.863091
1661321102678229382,36053,1661321102678229382,imu,-0.545617,-0.017931,-0.863344
1661321102683226968,36054,1661321102683226968,imu,-0.545935,-0.017815,-0.863643
1661321102688302147,36055,1661321102688302147,imu,-0.546102,-0.017934,-0.86361
1661321102693228915,36056,1661321102693228915,imu,-0.545968,-0.018362,-0.863171
1661321102698215955,36057,1661321102698215955,imu,-0.545508,-0.018897,-0.862904
1661321102709368596,36058,1661321102709368596,imu,-0.54561,-0.019104,-0.862908
1661321102710035434,36059,1661321102710035434,imu,-0.545895,-0.019062,-0.862481
1661321102713340502,36060,1661321102713340502,imu,-0.54615,-0.018734,-0.862456
1661321102719545214,36061,1661321102719545214,imu,-0.546461,-0.018626,-0.86247
1661321102723278964,36062,1661321102723278964,imu,-0.546221,-0.018536,-0.862179
1661321102728225426,36063,1661321102728225426,imu,-0.546322,-0.017974,-0.861954
1661321102733182435,36064,1661321102733182435,imu,-0.546599,-0.018083,-0.86198
1661321102738327594,36065,1661321102738327594,imu,-0.546919,-0.018362,-0.862035
1661321102743271333,36066,1661321102743271333,imu,-0.547138,-0.018513,-0.861768
1661321102748202361,36067,1661321102748202361,imu,-0.546843,-0.01845,-0.861407
1661321102753366727,36068,1661321102753366727,imu,-0.546305,-0.018673,-0.861059
1661321102758335329,36069,1661321102758335329,imu,-0.546615,-0.01824,-0.861004
1661321102763224592,36070,1661321102763224592,imu,-0.546446,-0.018508,-0.861032
1661321102768184185,36071,1661321102768184185,imu,-0.546489,-0.018595,-0.86099
1661321102773279059,36072,1661321102773279059,imu,-0.545938,-0.018521,-0.860756
1661321102778268963,36073,1661321102778268963,imu,-0.545523,-0.019384,-0.860094
1661321102791791087,36074,1661321102791791087,imu,-0.544888,-0.019327,-0.859975
1661321102791934539,36075,1661321102791934539,imu,-0.544391,-0.019418,-0.859896
1661321102793316127,36076,1661321102793316127,imu,-0.544225,-0.019474,-0.859664
1661321102798241567,36077,1661321102798241567,imu,-0.544363,-0.019319,-0.859226
1661321102803411799,36078,1661321102803411799,imu,-0.543729,-0.019251,-0.859253
1661321102808298479,36079,1661321102808298479,imu,-0.543922,-0.01903,-0.859307
1661321102813230554,36080,1661321102813230554,imu,-0.543843,-0.019357,-0.859342
1661321102818469020,36081,1661321102818469020,imu,-0.544136,-0.019397,-0.859382
1661321102823300246,36082,1661321102823300246,imu,-0.544609,-0.018724,-0.859258
1661321102829183621,36083,1661321102829183621,imu,-0.544584,-0.018277,-0.859115
1661321102833395570,36084,1661321102833395570,imu,-0.544653,-0.019083,-0.858894
1661321102838401886,36085,1661321102838401886,imu,-0.545276,-0.019491,-0.858708
1661321102843253994,36086,1661321102843253994,imu,-0.545386,-0.019225,-0.859025
1661321102848220082,36087,1661321102848220082,imu,-0.545486,-0.01944,-0.858968
1661321102853140703,36088,1661321102853140703,imu,-0.545835,-0.018937,-0.858784
1661321102858442865,36089,1661321102858442865,imu,-0.546315,-0.018852,-0.858768
1661321102867833007,36090,1661321102867833007,imu,-0.546611,-0.018443,-0.859137
1661321102868550480,36091,1661321102868550480,imu,-0.546513,-0.018331,-0.859234
1661321102874297037,36092,1661321102874297037,imu,-0.54694,-0.018738,-0.859342
1661321102878356105,36093,1661321102878356105,imu,-0.54747,-0.018418,-0.859322
1661321102883279450,36094,1661321102883279450,imu,-0.547486,-0.017961,-0.858953
1661321102888311398,36095,1661321102888311398,imu,-0.547334,-0.01809,-0.858908
1661321102893257721,36096,1661321102893257721,imu,-0.547273,-0.01772,-0.858347
1661321102898450442,36097,1661321102898450442,imu,-0.547458,-0.017791,-0.858089
1661321102908194816,36098,1661321102908194816,imu,-0.547912,-0.017618,-0.858213
1661321102908502604,36099,1661321102908502604,imu,-0.547811,-0.017422,-0.858037
1661321102913422248,36100,1661321102913422248,imu,-0.547448,-0.016911,-0.857881
1661321102918223023,36101,1661321102918223023,imu,-0.547488,-0.017158,-0.857998
1661321102923327395,36102,1661321102923327395,imu,-0.547666,-0.017385,-0.858244
1661321102928242430,36103,1661321102928242430,imu,-0.547943,-0.017418,-0.858448
1661321102933202721,36104,1661321102933202721,imu,-0.547777,-0.017387,-0.858536
1661321102938380286,36105,1661321102938380286,imu,-0.54833,-0.017715,-0.858528
1661321102943318298,36106,1661321102943318298,imu,-0.548382,-0.018173,-0.858747
1661321102950395389,36107,1661321102950395389,imu,-0.548327,-0.018125,-0.858792
1661321102953247541,36108,1661321102953247541,imu,-0.5481,-0.017806,-0.858319
1661321102958349678,36109,1661321102958349678,imu,-0.547352,-0.018012,-0.858434
1661321102963280916,36110,1661321102963280916,imu,-0.547465,-0.017457,-0.858484
1661321102968178769,36111,1661321102968178769,imu,-0.54706,-0.016966,-0.858727
1661321102973300322,36112,1661321102973300322,imu,-0.547164,-0.016832,-0.858562
1661321102978263826,36113,1661321102978263826,imu,-0.547181,-0.017318,-0.858221
1661321102983177254,36114,1661321102983177254,imu,-0.54679,-0.017589,-0.858264
1661321102994097326,36115,1661321102994097326,imu,-0.546086,-0.01761,-0.85827
1661321102994506871,36116,1661321102994506871,imu,-0.545863,-0.01785,-0.858532
1661321102998304595,36117,1661321102998304595,imu,-0.54647,-0.017643,-0.858606
1661321103003212925,36118,1661321103003212925,imu,-0.547032,-0.018145,-0.858628
1661321103008331126,36119,1661321103008331126,imu,-0.548181,-0.017761,-0.859192
1661321103013249303,36120,1661321103013249303,imu,-0.548535,-0.017802,-0.859097
1661321103018183404,36121,1661321103018183404,imu,-0.548343,-0.017733,-0.85901
1661321103023296367,36122,1661321103023296367,imu,-0.54809,-0.017023,-0.859037
1661321103028249115,36123,1661321103028249115,imu,-0.547696,-0.016742,-0.859373
1661321103037374842,36124,1661321103037374842,imu,-0.547448,-0.01674,-0.859205
1661321103038392280,36125,1661321103038392280,imu,-0.54752,-0.016956,-0.859387
1661321103043333505,36126,1661321103043333505,imu,-0.547497,-0.017395,-0.859917
1661321103048227098,36127,1661321103048227098,imu,-0.547548,-0.018515,-0.859983
1661321103053174259,36128,1661321103053174259,imu,-0.547719,-0.018645,-0.8598
1661321103058385907,36129,1661321103058385907,imu,-0.548621,-0.018808,-0.860178
1661321103063246954,36130,1661321103063246954,imu,-0.548463,-0.018909,-0.860333
1661321103068187550,36131,1661321103068187550,imu,-0.548414,-0.018794,-0.860258
1661321103077974178,36132,1661321103077974178,imu,-0.548504,-0.019113,-0.860324
1661321103078398251,36133,1661321103078398251,imu,-0.547867,-0.019638,-0.860644
1661321103083420141,36134,1661321103083420141,imu,-0.54784,-0.019893,-0.86043
1661321103088191304,36135,1661321103088191304,imu,-0.548144,-0.020338,-0.860588
1661321103093272280,36136,1661321103093272280,imu,-0.548367,-0.020104,-0.860738
1661321103098217276,36137,1661321103098217276,imu,-0.548866,-0.019891,-0.861047
1661321103103172888,36138,1661321103103172888,imu,-0.549228,-0.01982,-0.861299
1661321103108286060,36139,1661321103108286060,imu,-0.549602,-0.019958,-0.860919
1661321103114261625,36140,1661321103114261625,imu,-0.54965,-0.020378,-0.860718
1661321103118252947,36141,1661321103118252947,imu,-0.549574,-0.020785,-0.860186
1661321103123355503,36142,1661321103123355503,imu,-0.54941,-0.021079,-0.859792
1661321103128246164,36143,1661321103128246164,imu,-0.54962,-0.021284,-0.85964
1661321103133201915,36144,1661321103133201915,imu,-0.549902,-0.021772,-0.859417
1661321103138149286,36145,1661321103138149286,imu,-0.549513,-0.022248,-0.859773
1661321103143275309,36146,1661321103143275309,imu,-0.549892,-0.02201,-0.860051
1661321103157151874,36147,1661321103157151874,imu,-0.549737,-0.021872,-0.860163
1661321103157422367,36148,1661321103157422367,imu,-0.54979,-0.022221,-0.860449
1661321103158421158,36149,1661321103158421158,imu,-0.550264,-0.023063,-0.860531
1661321103163323970,36150,1661321103163323970,imu,-0.551114,-0.022719,-0.860556
1661321103168262820,36151,1661321103168262820,imu,-0.551007,-0.022808,-0.86024
1661321103173350361,36152,1661321103173350361,imu,-0.551068,-0.022466,-0.86002
1661321103178256386,36153,1661321103178256386,imu,-0.550959,-0.022482,-0.860038
1661321103183199915,36154,1661321103183199915,imu,-0.550961,-0.022756,-0.859818
1661321103188171381,36155,1661321103188171381,imu,-0.55076,-0.022871,-0.859822
1661321103195180866,36156,1661321103195180866,imu,-0.551336,-0.022899,-0.859446
1661321103198249175,36157,1661321103198249175,imu,-0.551298,-0.0232,-0.859522
1661321103204124099,36158,1661321103204124099,imu,-0.551275,-0.023519,-0.859535
1661321103208327457,36159,1661321103208327457,imu,-0.551149,-0.023023,-0.859621
1661321103213249964,36160,1661321103213249964,imu,-0.551219,-0.023027,-0.859559
1661321103218209138,36161,1661321103218209138,imu,-0.550943,-0.023223,-0.860018
1661321103223180953,36162,1661321103223180953,imu,-0.550632,-0.02328,-0.860333
1661321103228277783,36163,1661321103228277783,imu,-0.550298,-0.023964,-0.860633
1661321103235520885,36164,1661321103235520885,imu,-0.550306,-0.024124,-0.860602
1661321103238493162,36165,1661321103238493162,imu,-0.550635,-0.024165,-0.860688
1661321103243286395,36166,1661321103243286395,imu,-0.551133,-0.024119,-0.860809
1661321103248236070,36167,1661321103248236070,imu,-0.551673,-0.023999,-0.86073
1661321103253173104,36168,1661321103253173104,imu,-0.551382,-0.023411,-0.860751
1661321103258321616,36169,1661321103258321616,imu,-0.551024,-0.023155,-0.860747
1661321103263249990,36170,1661321103263249990,imu,-0.550817,-0.023263,-0.86096
1661321103268185278,36171,1661321103268185278,imu,-0.551139,-0.023319,-0.860716
1661321103275504367,36172,1661321103275504367,imu,-0.551286,-0.023263,-0.860649
1661321103278337662,36173,1661321103278337662,imu,-0.550932,-0.023396,-0.860585
1661321103283369540,36174,1661321103283369540,imu,-0.55122,-0.023424,-0.860611
1661321103288170454,36175,1661321103288170454,imu,-0.551693,-0.02331,-0.860554
1661321103293286909,36176,1661321103293286909,imu,-0.5519,-0.022868,-0.860293
1661321103298228902,36177,1661321103298228902,imu,-0.551495,-0.022417,-0.860279
1661321103303181930,36178,1661321103303181930,imu,-0.551894,-0.021993,-0.860157
1661321103308303274,36179,1661321103308303274,imu,-0.552041,-0.022212,-0.859999
1661321103316887944,36180,1661321103316887944,imu,-0.551868,-0.023151,-0.860053
1661321103318317163,36181,1661321103318317163,imu,-0.551902,-0.023508,-0.859973
1661321103323261042,36182,1661321103323261042,imu,-0.552298,-0.023606,-0.859819
1661321103328404106,36183,1661321103328404106,imu,-0.552777,-0.023638,-0.859887
1661321103333209630,36184,1661321103333209630,imu,-0.553415,-0.023874,-0.85998
1661321103338178093,36185,1661321103338178093,imu,-0.553236,-0.024025,-0.859993
1661321103343306700,36186,1661321103343306700,imu,-0.553075,-0.024056,-0.860341
1661321103348245201,36187,1661321103348245201,imu,-0.553287,-0.024067,-0.859753
1661321103356440999,36188,1661321103356440999,imu,-0.5534,-0.024397,-0.859485
1661321103358373489,36189,1661321103358373489,imu,-0.553913,-0.023829,-0.85938
1661321103363327145,36190,1661321103363327145,imu,-0.554598,-0.023786,-0.859376
1661321103368225558,36191,1661321103368225558,imu,-0.553918,-0.023691,-0.859963
1661321103373152535,36192,1661321103373152535,imu,-0.553412,-0.023385,-0.859779
1661321103378302443,36193,1661321103378302443,imu,-0.553609,-0.023698,-0.860006
1661321103383207700,36194,1661321103383207700,imu,-0.553215,-0.023656,-0.860174
1661321103388167293,36195,1661321103388167293,imu,-0.553604,-0.024149,-0.860128
1661321103399463107,36196,1661321103399463107,imu,-0.55345,-0.024827,-0.860097
1661321103399843250,36197,1661321103399843250,imu,-0.553654,-0.025129,-0.860083
1661321103403218228,36198,1661321103403218228,imu,-0.553503,-0.025207,-0.859963
1661321103408239281,36199,1661321103408239281,imu,-0.552892,-0.025261,-0.860027
1661321103413344980,36200,1661321103413344980,imu,-0.55351,-0.024697,-0.859867
1661321103418231520,36201,1661321103418231520,imu,-0.554172,-0.024384,-0.859975
1661321103424708959,36202,1661321103424708959,imu,-0.553265,-0.024897,-0.860052
1661321103428294507,36203,1661321103428294507,imu,-0.553064,-0.025012,-0.86053
1661321103433275401,36204,1661321103433275401,imu,-0.552815,-0.02504,-0.860728
1661321103441275297,36205,1661321103441275297,imu,-0.552967,-0.02453,-0.860915
1661321103443317227,36206,1661321103443317227,imu,-0.552783,-0.024491,-0.860672
