%time,field.header.seq,field.header.stamp,field.header.frame_id,field.vector.x,field.vector.y,field.vector.z
1661394742281481923,8801,1661394742281481923,,0.576552510262,-0.628814697266,0.100302435458
1661394742286420407,8802,1661394742286420407,,0.602622628212,-0.58984375,0.100339837372
1661394742291369649,8803,1661394742291369649,,0.402653574944,-0.570465087891,0.100728489459
1661394742296338517,8804,1661394742296338517,,0.476594597101,-0.555480957031,0.100503288209
1661394742310292544,8805,1661394742310292544,,0.400768786669,-0.435211181641,0.100021451712
1661394742310596520,8806,1661394742310596520,,0.447117567062,-0.329925537109,0.0997014939785
1661394742311509215,8807,1661394742311509215,,0.45615670085,-0.349731445312,0.100083380938
1661394742316597173,8808,1661394742316597173,,0.461892068386,-0.423583984375,0.100381195545
1661394742321508626,8809,1661394742321508626,,0.501664161682,-0.321380615234,0.0998019725084
1661394742326478542,8810,1661394742326478542,,0.443508058786,-0.229522705078,0.0989579483867
1661394742331323502,8811,1661394742331323502,,0.392734587193,-0.423248291016,0.0981260314584
1661394742336448968,8812,1661394742336448968,,0.478408753872,-0.358093261719,0.0975454673171
1661394742341416229,8813,1661394742341416229,,0.309876680374,-0.317413330078,0.0963574945927
1661394742346371198,8814,1661394742346371198,,0.368172585964,-0.2978515625,0.095162846148
1661394742353173279,8815,1661394742353173279,,0.44205442071,-0.271331787109,0.094495408237
1661394742356436546,8816,1661394742356436546,,0.442493766546,-0.376068115234,0.0928703844547
1661394742361551465,8817,1661394742361551465,,0.4172976017,-0.325897216797,0.0918457508087
1661394742366566991,8818,1661394742366566991,,0.377461522818,-0.252044677734,0.0907332077622
1661394742371450716,8819,1661394742371450716,,0.461870849133,-0.283599853516,0.0893605872989
1661394742376382984,8820,1661394742376382984,,0.408885478973,-0.304107666016,0.0880760997534
1661394742381507821,8821,1661394742381507821,,0.421602398157,-0.324859619141,0.0873222127557
1661394742386476969,8822,1661394742386476969,,0.468903124332,-0.272552490234,0.0863023325801
1661394742397145588,8823,1661394742397145588,,0.50531065464,-0.224945068359,0.0857989639044
1661394742397386212,8824,1661394742397386212,,0.413784593344,-0.17578125,0.0845969691873
1661394742401560707,8825,1661394742401560707,,0.453887373209,-0.230041503906,0.0833055526018
1661394742406445828,8826,1661394742406445828,,0.599583983421,-0.153106689453,0.0818396136165
1661394742411512622,8827,1661394742411512622,,0.455021083355,-0.077392578125,0.0803756192327
1661394742416587798,8828,1661394742416587798,,0.521988272667,-0.171966552734,0.0780323371291
1661394742421469497,8829,1661394742421469497,,0.44056636095,-0.189117431641,0.0754313692451
1661394742426388564,8830,1661394742426388564,,0.544565498829,-0.0573425292969,0.0728249698877
1661394742437086868,8831,1661394742437086868,,0.418449252844,-0.0815124511719,0.0696981325746
1661394742437280485,8832,1661394742437280485,,0.608632266521,-0.0628356933594,0.0668311491609
1661394742441417542,8833,1661394742441417542,,0.470762461424,-0.0690307617188,0.0641320422292
1661394742446468900,8834,1661394742446468900,,0.52644854784,-0.0215148925781,0.0613524354994
1661394742451597229,8835,1661394742451597229,,0.489022344351,-0.176574707031,0.0580524206161
1661394742456452107,8836,1661394742456452107,,0.468149185181,-0.121948242188,0.0540490709245
1661394742461430475,8837,1661394742461430475,,0.499069064856,-0.079345703125,0.0499524250627
1661394742466519061,8838,1661394742466519061,,0.516648590565,-0.0844116210938,0.0462070032954
1661394742478806182,8839,1661394742478806182,,0.66515982151,-0.017822265625,0.0418384000659
1661394742479290503,8840,1661394742479290503,,0.481850415468,0.113654352725,0.03828330338
1661394742481375516,8841,1661394742481375516,,-0.486419677734,-0.176361083984,0.0369245968759
1661394742486515999,8842,1661394742486515999,,0.166809692979,-0.546081542969,0.0370662473142
1661394742491454973,8843,1661394742491454973,,0.726725935936,-0.533599853516,0.0377332568169
1661394742496375437,8844,1661394742496375437,,0.516560912132,-0.508850097656,0.037370596081
1661394742501485466,8845,1661394742501485466,,0.329609632492,-0.414428710938,0.0366668626666
1661394742506457338,8846,1661394742506457338,,0.170437708497,-0.345520019531,0.0354387685657
1661394742511432702,8847,1661394742511432702,,0.344057649374,-0.418060302734,0.035332672298
1661394742520936128,8848,1661394742520936128,,0.505586445332,-0.525421142578,0.0355780906975
1661394742521660585,8849,1661394742521660585,,0.69345331192,-0.4990234375,0.0352855212986
1661394742526441354,8850,1661394742526441354,,0.399501234293,-0.424407958984,0.0350075401366
1661394742531364053,8851,1661394742531364053,,0.486230134964,-0.435546875,0.0349036343396
1661394742536488681,8852,1661394742536488681,,0.468200355768,-0.418853759766,0.034712202847
1661394742541441974,8853,1661394742541441974,,0.424809038639,-0.423583984375,0.0349599644542
1661394742546383112,8854,1661394742546383112,,0.486763298512,-0.462738037109,0.0349465832114
1661394742551494679,8855,1661394742551494679,,0.429544985294,-0.357727050781,0.0349251441658
1661394742561821116,8856,1661394742561821116,,0.408793002367,-0.393676757812,0.0348162986338
1661394742562146045,8857,1661394742562146045,,0.316327035427,-0.381042480469,0.034718118608
1661394742566589662,8858,1661394742566589662,,0.36639752984,-0.437225341797,0.0342641323805
1661394742571511174,8859,1661394742571511174,,0.440007179976,-0.437652587891,0.0338114611804
1661394742576422767,8860,1661394742576422767,,0.360040575266,-0.467163085938,0.0337984226644
1661394742585425109,8861,1661394742585425109,,0.343602955341,-0.311340332031,0.033527597785
1661394742586504180,8862,1661394742586504180,,0.271863639355,-0.450378417969,0.0334261320531
1661394742591447763,8863,1661394742591447763,,0.395830214024,-0.366821289062,0.0326188988984
1661394742599543068,8864,1661394742599543068,,0.452479869127,-0.443664550781,0.0319890789688
1661394742601508920,8865,1661394742601508920,,0.452686578035,-0.452606201172,0.0314458832145
1661394742606466823,8866,1661394742606466823,,0.487580895424,-0.450988769531,0.030981304124
1661394742611408171,8867,1661394742611408171,,0.525495171547,-0.366485595703,0.0306827239692
1661394742616531332,8868,1661394742616531332,,0.49737650156,-0.418060302734,0.0304800439626
1661394742621481132,8869,1661394742621481132,,0.369046866894,-0.295593261719,0.0301946084946
1661394742626442876,8870,1661394742626442876,,0.331567585468,-0.422790527344,0.0303491428494
1661394742631401058,8871,1661394742631401058,,0.485595136881,-0.510345458984,0.0303259976208
1661394742642257007,8872,1661394742642257007,,0.463008135557,-0.266510009766,0.0302970819175
1661394742642388530,8873,1661394742642388530,,0.549917519093,-0.340881347656,0.0300935022533
1661394742646420396,8874,1661394742646420396,,0.367084056139,-0.411315917969,0.0304198265076
1661394742651564581,8875,1661394742651564581,,0.4662283957,-0.517456054688,0.029868716374
1661394742656509981,8876,1661394742656509981,,0.37757307291,-0.407653808594,0.0293272770941
1661394742661418222,8877,1661394742661418222,,0.400538414717,-0.432525634766,0.0289645176381
1661394742666369279,8878,1661394742666369279,,0.397160500288,-0.42333984375,0.0284192785621
1661394742671495723,8879,1661394742671495723,,0.271474182606,-0.474395751953,0.0283264089376
1661394742681048740,8880,1661394742681048740,,0.498570263386,-0.557464599609,0.0274380985647
1661394742681843882,8881,1661394742681843882,,0.353151708841,-0.538818359375,0.026806158945
1661394742686548448,8882,1661394742686548448,,0.447638660669,-0.422821044922,0.0257356837392
1661394742691522835,8883,1661394742691522835,,0.375839859247,-0.366546630859,0.0249310787767
1661394742696398736,8884,1661394742696398736,,0.40309676528,-0.436584472656,0.0239518582821
1661394742701561850,8885,1661394742701561850,,0.288038939238,-0.415985107422,0.0228012129664
1661394742709009390,8886,1661394742709009390,,0.504361867905,-0.438201904297,0.0212141983211
1661394742711433022,8887,1661394742711433022,,0.75459009409,-0.3681640625,0.0186574440449
1661394742716402449,8888,1661394742716402449,,0.813225626945,-0.380004882812,0.0124365091324
1661394742722460866,8889,1661394742722460866,,0.910159528255,-0.422760009766,0.00203236402012
1661394742726443979,8890,1661394742726443979,,0.882969975471,-0.355743408203,-0.0129211964086
1661394742731454406,8891,1661394742731454406,,0.887518763542,-0.286285400391,-0.0315495766699
1661394742736525391,8892,1661394742736525391,,1.08852052689,-0.274749755859,-0.0535835511982
1661394742742189729,8893,1661394742742189729,,1.01535785198,-0.292510986328,-0.0791132599115
1661394742746401243,8894,1661394742746401243,,0.883006393909,-0.326965332031,-0.10812985152
1661394742751525312,8895,1661394742751525312,,0.79592359066,-0.395080566406,-0.139412239194
1661394742767148690,8896,1661394742767148690,,0.7036241889,-0.445587158203,-0.172873392701
1661394742767492130,8897,1661394742767492130,,0.757166445255,-0.395812988281,-0.207745596766
1661394742767790447,8898,1661394742767790447,,0.785604834557,-0.341766357422,-0.245413899422
1661394742771586789,8899,1661394742771586789,,0.292418837547,-0.565368652344,-0.283487856388
1661394742776505647,8900,1661394742776505647,,0.415759325027,-0.557922363281,-0.320616453886
1661394742781394679,8901,1661394742781394679,,0.590800583363,-0.535186767578,-0.358100265265
1661394742786535582,8902,1661394742786535582,,0.830111563206,-0.568939208984,-0.397242963314
1661394742791457862,8903,1661394742791457862,,0.562645971775,-0.571350097656,-0.436550468206
1661394742796413948,8904,1661394742796413948,,0.479742079973,-0.490142822266,-0.476392477751
1661394742804398614,8905,1661394742804398614,,0.53062081337,-0.617980957031,-0.516231715679
1661394742806492706,8906,1661394742806492706,,0.337960153818,-0.678588867188,-0.555621147156
1661394742811508372,8907,1661394742811508372,,0.584473252296,-0.642272949219,-0.59625005722
1661394742816458591,8908,1661394742816458591,,0.750839948654,-0.59130859375,-0.634712398052
1661394742821499891,8909,1661394742821499891,,0.790978968143,-0.385803222656,-0.674991250038
1661394742826469249,8910,1661394742826469249,,0.728339254856,-0.548828125,-0.717186510563
1661394742831479676,8911,1661394742831479676,,1.12413597107,-0.563201904297,-0.762199759483
1661394742837395604,8912,1661394742837395604,,0.522947490215,-0.727752685547,-0.806665122509
1661394742841508424,8913,1661394742841508424,,0.401296973228,-0.711456298828,-0.847673416138
1661394742852844364,8914,1661394742852844364,,0.217550128698,-0.745758056641,-0.883236467838
1661394742853089738,8915,1661394742853089738,,-0.0914916992188,-0.543182373047,-0.913285076618
1661394742856543967,8916,1661394742856543967,,0.290021896362,-0.495452880859,-0.94002866745
1661394742861971173,8917,1661394742861971173,,-0.143493652344,-0.489990234375,-0.963088691235
1661394742866383568,8918,1661394742866383568,,-0.113128662109,-0.678649902344,-0.981087267399
1661394742871497439,8919,1661394742871497439,,-0.284881591797,-0.756958007812,-0.992878973484
1661394742876450452,8920,1661394742876450452,,-0.305908203125,-0.643402099609,-0.99751251936
1661394742881417994,8921,1661394742881417994,,-0.162353515625,-0.601287841797,-0.996472120285
1661394742891961167,8922,1661394742891961167,,0.464543104172,-0.372924804688,-0.994844853878
1661394742892433335,8923,1661394742892433335,,0.765529811382,-0.348297119141,-0.995907843113
1661394742896484269,8924,1661394742896484269,,0.389975637197,-0.46240234375,-0.997082233429
1661394742901442242,8925,1661394742901442242,,0.558177888393,-0.401672363281,-0.997211635113
1661394742906501772,8926,1661394742906501772,,0.443136006594,-0.461334228516,-0.997324883938
1661394742911464563,8927,1661394742911464563,,0.463052511215,-0.433563232422,-0.998321056366
1661394742916389218,8928,1661394742916389218,,0.565687358379,-0.417541503906,-0.998982071877
1661394742921521739,8929,1661394742921521739,,0.506696999073,-0.329406738281,-0.999810397625
1661394742931099063,8930,1661394742931099063,,0.555823147297,-0.381591796875,-0.999768912792
1661394742931465482,8931,1661394742931465482,,0.63435792923,-0.379760742188,-0.999204993248
1661394742936562800,8932,1661394742936562800,,0.377381205559,-0.561676025391,-0.999567627907
1661394742941580003,8933,1661394742941580003,,0.470795273781,-0.515411376953,-1.00906348228
1661394742946450456,8934,1661394742946450456,,0.79558044672,-0.499114990234,-1.01480436325
1661394742951437694,8935,1661394742951437694,,1.75897109509,-0.569732666016,-1.0139182806
1661394742956573358,8936,1661394742956573358,,1.86699664593,-0.596374511719,-1.00664532185
1661394742961510585,8937,1661394742961510585,,0.95660340786,-0.323822021484,-1.00027632713
1661394742973438132,8938,1661394742973438132,,0.625391662121,0.151438951492,-1.01226198673
1661394742973617570,8939,1661394742973617570,,0.719209313393,0.463747531176,-1.04075169563
1661394742976532019,8940,1661394742976532019,,-0.775939941406,-0.641967773438,-1.06556093693
1661394742981535252,8941,1661394742981535252,,-0.318817138672,-1.40533447266,-1.07485663891
1661394742986578089,8942,1661394742986578089,,1.11021518707,-0.903961181641,-1.0680822134
1661394742991506725,8943,1661394742991506725,,1.92076826096,-0.0888977050781,-1.06258332729
1661394742996436339,8944,1661394742996436339,,-0.102966308594,-0.306121826172,-1.06591999531
1661394743001396197,8945,1661394743001396197,,-1.24285888672,-0.434509277344,-1.07156705856
1661394743006522638,8946,1661394743006522638,,-0.0562438964844,-0.443237304688,-1.07110667229
1661394743020863933,8947,1661394743020863933,,1.37325823307,-0.574554443359,-1.07077610493
1661394743021137315,8948,1661394743021137315,,1.69150900841,-0.661651611328,-1.07220518589
1661394743021637141,8949,1661394743021637141,,1.21316885948,-0.490875244141,-1.07326960564
1661394743026527908,8950,1661394743026527908,,0.915989637375,-0.358367919922,-1.07439053059
1661394743031467358,8951,1661394743031467358,,0.736541926861,-0.386871337891,-1.07633852959
1661394743036398566,8952,1661394743036398566,,0.885656952858,-0.383148193359,-1.07883822918
1661394743041537639,8953,1661394743041537639,,-1.03421020508,-0.527862548828,-1.06241202354
1661394743046504540,8954,1661394743046504540,,-2.30419921875,-0.992095947266,-1.02945077419
1661394743051413397,8955,1661394743051413397,,-2.24890136719,-1.65032958984,-1.00377309322
1661394743063177192,8956,1661394743063177192,,2.15954232216,-1.53137207031,-1.00126838684
1661394743063546754,8957,1661394743063546754,,2.93928313255,-1.94485473633,-1.00748276711
1661394743066426132,8958,1661394743066426132,,1.37475311756,-1.95648193359,-1.00087857246
1661394743071536219,8959,1661394743071536219,,0.767549335957,-0.800933837891,-0.980420172215
1661394743076605236,8960,1661394743076605236,,1.25158393383,1.40245640278,-0.957070767879
1661394743081675859,8961,1661394743081675859,,1.59481465816,3.16297984123,-0.943959772587
1661394743086448863,8962,1661394743086448863,,-4.05410766602,0.785827040672,-0.95205783844
1661394743091566633,8963,1661394743091566633,,-2.28927612305,-1.72711181641,-0.970861434937
1661394743096476608,8964,1661394743096476608,,4.00009536743,-1.3830871582,-0.976249158382
1661394743104782900,8965,1661394743104782900,,4.33550930023,-1.05599975586,-0.979723572731
1661394743106574200,8966,1661394743106574200,,1.41534376144,-0.555419921875,-0.98256611824
1661394743111602706,8967,1661394743111602706,,-1.50311279297,-0.0586547851562,-0.984292507172
1661394743116514706,8968,1661394743116514706,,-1.70962524414,-0.0752258300781,-0.986450493336
1661394743121593571,8969,1661394743121593571,,-0.171966552734,-0.416870117188,-0.986053586006
1661394743126531485,8970,1661394743126531485,,1.70235061646,-0.48486328125,-0.985158264637
1661394743131488955,8971,1661394743131488955,,1.80045342445,-0.343231201172,-0.985539317131
1661394743142557981,8972,1661394743142557981,,0.801619529724,-0.326110839844,-0.986873149872
1661394743142821515,8973,1661394743142821515,,0.120793268085,-0.278717041016,-0.986870825291
1661394743146513285,8974,1661394743146513285,,0.0650505721569,-0.404632568359,-0.987571835518
1661394743151493107,8975,1661394743151493107,,0.255758076906,-0.391662597656,-0.987158894539
1661394743156578887,8976,1661394743156578887,,0.590427100658,-0.539855957031,-0.987548291683
1661394743161510794,8977,1661394743161510794,,0.475858956575,-0.406097412109,-0.98812276125
1661394743166453038,8978,1661394743166453038,,0.602369785309,-0.561096191406,-0.987986207008
1661394743171592112,8979,1661394743171592112,,0.531690597534,-0.555786132812,-0.987484633923
1661394743181169971,8980,1661394743181169971,,0.402465969324,-0.514373779297,-0.988102912903
1661394743181500627,8981,1661394743181500627,,0.27031943202,-0.586029052734,-0.988545000553
1661394743186420870,8982,1661394743186420870,,0.256431788206,-0.616088867188,-0.98883241415
1661394743191651722,8983,1661394743191651722,,0.5882396698,-0.581848144531,-0.989222168922
1661394743196499114,8984,1661394743196499114,,0.749766349792,-0.549163818359,-0.98935008049
1661394743201472300,8985,1661394743201472300,,0.632608532906,-0.601104736328,-0.9891102314
1661394743206549070,8986,1661394743206549070,,0.53518974781,-0.484130859375,-0.989472985268
1661394743211511291,8987,1661394743211511291,,0.560675859451,-0.449554443359,-0.990120232105
1661394743222175692,8988,1661394743222175692,,0.698590397835,-0.437255859375,-0.989897608757
1661394743222336899,8989,1661394743222336899,,0.692481040955,-0.513916015625,-0.990629911423
1661394743226565026,8990,1661394743226565026,,0.685322582722,-0.443145751953,-0.990224659443
1661394743231564475,8991,1661394743231564475,,0.58472776413,-0.458648681641,-0.990517437458
1661394743236460201,8992,1661394743236460201,,0.708884060383,-0.385650634766,-0.990814089775
1661394743241582162,8993,1661394743241582162,,0.520102918148,-0.487091064453,-0.990749001503
1661394743246508202,8994,1661394743246508202,,0.555620610714,-0.357421875,-0.990074038506
1661394743251453030,8995,1661394743251453030,,0.627480149269,-0.515197753906,-0.989309489727
1661394743259922555,8996,1661394743259922555,,0.480324685574,-0.520538330078,-0.988983690739
1661394743261571646,8997,1661394743261571646,,0.272128850222,-0.351928710938,-0.989349126816
1661394743266524297,8998,1661394743266524297,,0.488011747599,-0.508575439453,-0.989191234112
1661394743271484841,8999,1661394743271484841,,0.354105144739,-0.37060546875,-0.989301383495
1661394743276517119,9000,1661394743276517119,,0.417603671551,-0.428405761719,-0.98827701807
1661394743281502319,9001,1661394743281502319,,0.360835134983,-0.364349365234,-0.988113820553
1661394743286441559,9002,1661394743286441559,,0.376027941704,-0.395202636719,-0.988225162029
1661394743291542776,9003,1661394743291542776,,0.486567735672,-0.325347900391,-0.988249242306
1661394743301537972,9004,1661394743301537972,,0.526418983936,-0.400329589844,-0.987666785717
1661394743302149064,9005,1661394743302149064,,0.584158182144,-0.431518554688,-0.988035261631
1661394743306673553,9006,1661394743306673553,,0.487717449665,-0.500549316406,-0.988231122494
1661394743311531212,9007,1661394743311531212,,0.54583978653,-0.394500732422,-0.988430559635
1661394743316462979,9008,1661394743316462979,,0.498107194901,-0.446044921875,-0.988540649414
1661394743321742445,9009,1661394743321742445,,0.551789522171,-0.396484375,-0.988913238049
1661394743326561060,9010,1661394743326561060,,0.611867249012,-0.560211181641,-0.988935887814
1661394743331493176,9011,1661394743331493176,,0.457060903311,-0.4208984375,-0.988612890244
1661394743342015648,9012,1661394743342015648,,0.666589200497,-0.536651611328,-0.988986134529
1661394743342392264,9013,1661394743342392264,,0.580078244209,-0.567108154297,-0.988833010197
1661394743346730191,9014,1661394743346730191,,0.56063914299,-0.558898925781,-0.988763809204
1661394743351473580,9015,1661394743351473580,,0.551502764225,-0.502166748047,-0.988964498043
1661394743356598125,9016,1661394743356598125,,0.556616902351,-0.605621337891,-0.988895952702
1661394743361529683,9017,1661394743361529683,,0.578046858311,-0.479309082031,-0.988657474518
1661394743366484080,9018,1661394743366484080,,0.503703951836,-0.583435058594,-0.989113986492
1661394743371457756,9019,1661394743371457756,,0.39532327652,-0.507141113281,-0.989839076996
1661394743388763014,9020,1661394743388763014,,0.494920432568,-0.538726806641,-0.990477025509
1661394743389126498,9021,1661394743389126498,,0.592787146568,-0.557006835938,-0.990764796734
1661394743389625486,9022,1661394743389625486,,0.537462413311,-0.586639404297,-0.991227328777
1661394743391662718,9023,1661394743391662718,,0.549705982208,-0.573944091797,-0.991953074932
1661394743396563962,9024,1661394743396563962,,0.495644062757,-0.454986572266,-0.992154479027
1661394743401468908,9025,1661394743401468908,,0.437815099955,-0.445556640625,-0.992445766926
1661394743406541626,9026,1661394743406541626,,0.525003135204,-0.424163818359,-0.992209196091
1661394743411554276,9027,1661394743411554276,,0.538473188877,-0.344543457031,-0.991717338562
1661394743416471096,9028,1661394743416471096,,0.583452582359,-0.385803222656,-0.991662740707
1661394743421453712,9029,1661394743421453712,,0.408326685429,-0.434600830078,-0.991773605347
1661394743428915901,9030,1661394743428915901,,0.442380517721,-0.499206542969,-0.991267085075
1661394743431532236,9031,1661394743431532236,,0.471947789192,-0.443634033203,-0.991548359394
1661394743436539158,9032,1661394743436539158,,0.602959632874,-0.413665771484,-0.991494417191
1661394743441641771,9033,1661394743441641771,,0.462700068951,-0.4697265625,-0.992304265499
1661394743446530652,9034,1661394743446530652,,0.410398155451,-0.480285644531,-0.992672860622
1661394743451507750,9035,1661394743451507750,,0.53894162178,-0.479125976562,-0.992962181568
1661394743456438958,9036,1661394743456438958,,0.632996201515,-0.404083251953,-0.99334281683
1661394743461555471,9037,1661394743461555471,,0.555148482323,-0.492401123047,-0.994242012501
1661394743472227346,9038,1661394743472227346,,0.552128612995,-0.533996582031,-0.994365990162
1661394743472478098,9039,1661394743472478098,,0.555659353733,-0.488311767578,-0.995440423489
1661394743476634282,9040,1661394743476634282,,0.571379184723,-0.541320800781,-0.995569825172
1661394743481575339,9041,1661394743481575339,,0.502626776695,-0.536560058594,-0.995857656002
1661394743486459680,9042,1661394743486459680,,0.61593735218,-0.455688476562,-0.996056437492
1661394743491584644,9043,1661394743491584644,,0.600667953491,-0.598175048828,-0.996518194675
1661394743496554059,9044,1661394743496554059,,0.524505853653,-0.521881103516,-0.996885538101
1661394743501504475,9045,1661394743501504475,,0.546221256256,-0.434539794922,-0.997178375721
1661394743506428559,9046,1661394743506428559,,0.516276478767,-0.5517578125,-0.997648358345
1661394743515785282,9047,1661394743515785282,,0.486525148153,-0.510498046875,-0.996977329254
1661394743516568478,9048,1661394743516568478,,0.656062960625,-0.540405273438,-0.997782886028
1661394743521522177,9049,1661394743521522177,,0.589753210545,-0.477233886719,-0.9981533885
1661394743526640366,9050,1661394743526640366,,0.376958668232,-0.376495361328,-0.999045908451
1661394743531658325,9051,1661394743531658325,,0.587216258049,-0.494232177734,-0.998724639416
1661394743536576332,9052,1661394743536576332,,0.566953539848,-0.386688232422,-0.999362468719
1661394743541595897,9053,1661394743541595897,,0.499089300632,-0.386077880859,-1.00034427643
1661394743546557558,9054,1661394743546557558,,0.497260838747,-0.414093017578,-1.00045824051
1661394743553213782,9055,1661394743553213782,,0.570135295391,-0.480346679688,-1.00135529041
1661394743556526632,9056,1661394743556526632,,0.456969439983,-0.385925292969,-1.00155854225
1661394743561616183,9057,1661394743561616183,,0.438757151365,-0.422760009766,-1.0020185709
1661394743566520291,9058,1661394743566520291,,0.488275617361,-0.419036865234,-1.0024818182
1661394743571463024,9059,1661394743571463024,,0.512749373913,-0.487915039062,-1.00215542316
1661394743576677742,9060,1661394743576677742,,0.568102419376,-0.393585205078,-1.00208473206
1661394743581627110,9061,1661394743581627110,,0.519426524639,-0.371307373047,-1.00246727467
1661394743586556642,9062,1661394743586556642,,0.441888391972,-0.500610351562,-1.00327789783
1661394743592214261,9063,1661394743592214261,,0.559765517712,-0.503112792969,-1.00356316566
1661394743596567694,9064,1661394743596567694,,0.584868311882,-0.493408203125,-1.00402772427
1661394743601519507,9065,1661394743601519507,,0.540619969368,-0.504943847656,-1.00483214855
1661394743606473625,9066,1661394743606473625,,0.492283552885,-0.575317382812,-1.00510799885
1661394743611581686,9067,1661394743611581686,,0.606712818146,-0.544403076172,-1.00557780266
1661394743616551869,9068,1661394743616551869,,0.506314337254,-0.562713623047,-1.00612306595
1661394743621575625,9069,1661394743621575625,,0.554145038128,-0.455291748047,-1.00605928898
1661394743626611325,9070,1661394743626611325,,0.65205091238,-0.511840820312,-1.00687777996
1661394743637288299,9071,1661394743637288299,,0.505141854286,-0.440032958984,-1.00646936893
1661394743637771571,9072,1661394743637771571,,0.567818939686,-0.462585449219,-1.00684690475
1661394743641577542,9073,1661394743641577542,,0.461510509253,-0.430877685547,-1.00652313232
1661394743646664579,9074,1661394743646664579,,0.47397980094,-0.448760986328,-1.00724422932
1661394743651632317,9075,1661394743651632317,,0.630780994892,-0.496612548828,-1.00701963902
1661394743656474890,9076,1661394743656474890,,0.519198834896,-0.421295166016,-1.00731039047
1661394743661596920,9077,1661394743661596920,,0.505988240242,-0.481964111328,-1.00734055042
1661394743666547686,9078,1661394743666547686,,0.582301139832,-0.456390380859,-1.00745654106
1661394743672211591,9079,1661394743672211591,,0.579786777496,-0.463195800781,-1.00765109062
1661394743676661203,9080,1661394743676661203,,0.510102689266,-0.466766357422,-1.00758504868
1661394743681650105,9081,1661394743681650105,,0.517882168293,-0.404235839844,-1.00795769691
1661394743686504761,9082,1661394743686504761,,0.503561973572,-0.428039550781,-1.00797975063
1661394743691462721,9083,1661394743691462721,,0.534651756287,-0.498046875,-1.00844430923
1661394743696609617,9084,1661394743696609617,,0.558637142181,-0.523010253906,-1.00908136368
1661394743701545505,9085,1661394743701545505,,0.465086102486,-0.508453369141,-1.00918602943
1661394743712038711,9086,1661394743712038711,,0.516548991203,-0.537628173828,-1.00990831852
1661394743712341568,9087,1661394743712341568,,0.5575953722,-0.484130859375,-1.00976109505
1661394743716553141,9088,1661394743716553141,,0.512447118759,-0.447021484375,-1.00960719585
1661394743721507679,9089,1661394743721507679,,0.523014128208,-0.420379638672,-1.00954949856
1661394743726459352,9090,1661394743726459352,,0.463872045279,-0.517486572266,-1.01000213623
1661394743731547297,9091,1661394743731547297,,0.437851846218,-0.405670166016,-1.00985276699
1661394743736517900,9092,1661394743736517900,,0.4888433218,-0.582397460938,-1.00996017456
1661394743741475370,9093,1661394743741475370,,0.527567028999,-0.482147216797,-1.00971853733
1661394743746596912,9094,1661394743746596912,,0.572458267212,-0.506317138672,-1.01000523567
1661394743754509406,9095,1661394743754509406,,0.50702559948,-0.563232421875,-1.0099350214
1661394743756606636,9096,1661394743756606636,,0.625373959541,-0.414855957031,-1.010227561
1661394743761628017,9097,1661394743761628017,,0.551233410835,-0.365661621094,-1.01034235954
1661394743766592682,9098,1661394743766592682,,0.598159253597,-0.50634765625,-1.00984668732
1661394743771527034,9099,1661394743771527034,,0.496617615223,-0.592376708984,-1.00961530209
1661394743776431072,9100,1661394743776431072,,0.574719011784,-0.432495117188,-1.00946617126
1661394743781579993,9101,1661394743781579993,,0.510240256786,-0.430145263672,-1.00914716721
1661394743786521190,9102,1661394743786521190,,0.428228884935,-0.523101806641,-1.00916314125
1661394743794231546,9103,1661394743794231546,,0.4820561409,-0.4814453125,-1.00892055035
1661394743796617455,9104,1661394743796617455,,0.505023777485,-0.375427246094,-1.0092099905
1661394743801611386,9105,1661394743801611386,,0.543463110924,-0.492980957031,-1.00888884068
1661394743806575003,9106,1661394743806575003,,0.511965930462,-0.423034667969,-1.00873434544
1661394743811431265,9107,1661394743811431265,,0.452559530735,-0.414459228516,-1.00840389729
1661394743816559093,9108,1661394743816559093,,0.617136776447,-0.430786132812,-1.00903701782
1661394743821578728,9109,1661394743821578728,,0.577027201653,-0.452392578125,-1.00950026512
1661394743826548702,9110,1661394743826548702,,0.364114254713,-0.494750976562,-1.00933504105
1661394743838510584,9111,1661394743838510584,,0.467260569334,-0.389038085938,-1.00927388668
1661394743838751626,9112,1661394743838751626,,0.518852472305,-0.508850097656,-1.00913143158
1661394743841537899,9113,1661394743841537899,,0.598443865776,-0.303314208984,-1.00917160511
1661394743846628498,9114,1661394743846628498,,0.434763669968,-0.372589111328,-1.00875508785
1661394743851532117,9115,1661394743851532117,,0.39179417491,-0.473266601562,-1.00904047489
1661394743856500274,9116,1661394743856500274,,0.448761373758,-0.332092285156,-1.00898075104
1661394743861447617,9117,1661394743861447617,,0.528634190559,-0.442199707031,-1.00926804543
1661394743866552954,9118,1661394743866552954,,0.477695047855,-0.584167480469,-1.00980651379
1661394743871506234,9119,1661394743871506234,,0.432446718216,-0.459533691406,-1.00982797146
1661394743880959905,9120,1661394743880959905,,0.538120567799,-0.49609375,-1.01020801067
1661394743881808758,9121,1661394743881808758,,0.499238610268,-0.492919921875,-1.01102507114
1661394743886615848,9122,1661394743886615848,,0.529538452625,-0.484008789062,-1.01095592976
1661394743891545659,9123,1661394743891545659,,0.571315050125,-0.561248779297,-1.01125001907
1661394743896594001,9124,1661394743896594001,,0.566116571426,-0.402893066406,-1.01206791401
1661394743901544697,9125,1661394743901544697,,0.519081413746,-0.569702148438,-1.01286840439
1661394743906515508,9126,1661394743906515508,,0.477640509605,-0.504730224609,-1.01289916039
1661394743911480383,9127,1661394743911480383,,0.597388923168,-0.448760986328,-1.01319849491
1661394743916567769,9128,1661394743916567769,,0.536557555199,-0.416229248047,-1.01295518875
1661394743928319970,9129,1661394743928319970,,0.508500039577,-0.48974609375,-1.0128005743
1661394743928609836,9130,1661394743928609836,,0.526773333549,-0.409210205078,-1.01230609417
1661394743931676545,9131,1661394743931676545,,0.526551246643,-0.427215576172,-1.01216220856
1661394743936673409,9132,1661394743936673409,,0.544093132019,-0.413513183594,-1.0133266449
1661394743941555375,9133,1661394743941555375,,0.599772036076,-0.415954589844,-1.01371073723
1661394743946604835,9134,1661394743946604835,,0.502715587616,-0.398254394531,-1.01374220848
1661394743951562026,9135,1661394743951562026,,0.607182145119,-0.405548095703,-1.01307308674
1661394743956527599,9136,1661394743956527599,,0.555620253086,-0.467315673828,-1.01353156567
1661394743961611424,9137,1661394743961611424,,0.492034077644,-0.290557861328,-1.01347374916
1661394743970804285,9138,1661394743970804285,,0.502528190613,-0.411285400391,-1.01385653019
1661394743971792553,9139,1661394743971792553,,0.545864760876,-0.438995361328,-1.01396977901
1661394743976540412,9140,1661394743976540412,,0.479328900576,-0.478668212891,-1.01364922523
1661394743981680463,9141,1661394743981680463,,0.534649312496,-0.549774169922,-1.01376318932
1661394743986544898,9142,1661394743986544898,,0.507162749767,-0.502777099609,-1.01369595528
1661394743991567466,9143,1661394743991567466,,0.421308487654,-0.451354980469,-1.01354408264
1661394743996678601,9144,1661394743996678601,,0.515016674995,-0.415161132812,-1.01348733902
1661394744001551487,9145,1661394744001551487,,0.368368178606,-0.427978515625,-1.01359343529
1661394744015959110,9146,1661394744015959110,,0.513775229454,-0.410186767578,-1.01388466358
1661394744016217055,9147,1661394744016217055,,0.532889783382,-0.417327880859,-1.01382482052
1661394744016688871,9148,1661394744016688871,,0.52633702755,-0.438171386719,-1.01445603371
1661394744021612803,9149,1661394744021612803,,0.484877645969,-0.398193359375,-1.01483082771
1661394744026480369,9150,1661394744026480369,,0.55781942606,-0.486083984375,-1.01520335674
1661394744031607625,9151,1661394744031607625,,0.548312902451,-0.409362792969,-1.01576113701
1661394744036604757,9152,1661394744036604757,,0.572622716427,-0.516143798828,-1.01552271843
1661394744041589246,9153,1661394744041589246,,0.438652634621,-0.458709716797,-1.01616728306
1661394744046459955,9154,1661394744046459955,,0.528955042362,-0.487152099609,-1.01628339291
1661394744054047013,9155,1661394744054047013,,0.615930497646,-0.472503662109,-1.01647794247
1661394744056588814,9156,1661394744056588814,,0.502697348595,-0.509704589844,-1.01719307899
1661394744061533351,9157,1661394744061533351,,0.602215945721,-0.485412597656,-1.01730239391
1661394744066597885,9158,1661394744066597885,,0.630855977535,-0.449981689453,-1.01821351051
1661394744071548848,9159,1661394744071548848,,0.530586004257,-0.389434814453,-1.01859354973
1661394744078144916,9160,1661394744078144916,,0.507743060589,-0.562652587891,-1.01879155636
1661394744081619943,9161,1661394744081619943,,0.408657670021,-0.456268310547,-1.01898288727
1661394744086658284,9162,1661394744086658284,,0.473181635141,-0.482727050781,-1.0189230442
1661394744092362966,9163,1661394744092362966,,0.540016233921,-0.512908935547,-1.01876783371
1661394744096467593,9164,1661394744096467593,,0.632612109184,-0.558227539062,-1.01862454414
1661394744101574664,9165,1661394744101574664,,0.543606340885,-0.354431152344,-1.01934707165
1661394744106536383,9166,1661394744106536383,,0.504128277302,-0.460815429688,-1.01919388771
1661394744111506204,9167,1661394744111506204,,0.528399288654,-0.395233154297,-1.01974177361
1661394744117982974,9168,1661394744117982974,,0.453152805567,-0.362060546875,-1.0201151371
1661394744121624446,9169,1661394744121624446,,0.459163308144,-0.512390136719,-1.02013850212
1661394744126556620,9170,1661394744126556620,,0.516566574574,-0.413208007812,-1.02060449123
1661394744141581961,9171,1661394744141581961,,0.5090457201,-0.441009521484,-1.02028012276
1661394744141921278,9172,1661394744141921278,,0.443482369184,-0.371673583984,-1.0203088522
1661394744142179432,9173,1661394744142179432,,0.441386759281,-0.406921386719,-1.02086412907
1661394744146541445,9174,1661394744146541445,,0.598453581333,-0.309112548828,-1.02116346359
1661394744151610729,9175,1661394744151610729,,0.501721143723,-0.339385986328,-1.02110219002
1661394744156539690,9176,1661394744156539690,,0.517120063305,-0.361755371094,-1.02165150642
1661394744161494704,9177,1661394744161494704,,0.554923653603,-0.350860595703,-1.02185440063
1661394744166636000,9178,1661394744166636000,,0.512178421021,-0.446044921875,-1.02144062519
1661394744179776450,9179,1661394744179776450,,0.460471361876,-0.447601318359,-1.0212032795
1661394744180117024,9180,1661394744180117024,,0.424936085939,-0.559967041016,-1.02183437347
1661394744181469261,9181,1661394744181469261,,0.558415293694,-0.402648925781,-1.02212190628
1661394744186685852,9182,1661394744186685852,,0.407843798399,-0.525604248047,-1.02241337299
1661394744191543989,9183,1661394744191543989,,0.51074552536,-0.630706787109,-1.02269542217
1661394744196495580,9184,1661394744196495580,,0.574220895767,-0.459930419922,-1.02282094955
1661394744201622208,9185,1661394744201622208,,0.596443116665,-0.459228515625,-1.02293860912
1661394744206577362,9186,1661394744206577362,,0.544455766678,-0.529296875,-1.02348196507
1661394744211573446,9187,1661394744211573446,,0.523341536522,-0.498443603516,-1.02404129505
1661394744221322476,9188,1661394744221322476,,0.655273377895,-0.561859130859,-1.02389276028
1661394744221586358,9189,1661394744221586358,,0.539715886116,-0.518341064453,-1.023827672
1661394744226568543,9190,1661394744226568543,,0.441029459238,-0.479034423828,-1.02446973324
1661394744231483115,9191,1661394744231483115,,0.541502535343,-0.457550048828,-1.02440726757
1661394744236584738,9192,1661394744236584738,,0.562070906162,-0.484680175781,-1.02425694466
1661394744241532069,9193,1661394744241532069,,0.548870027065,-0.531585693359,-1.02523565292
1661394744246515441,9194,1661394744246515441,,0.548996567726,-0.4130859375,-1.02587521076
1661394744251612174,9195,1661394744251612174,,0.473140120506,-0.453125,-1.02642452717
1661394744264939256,9196,1661394744264939256,,0.646559000015,-0.391876220703,-1.02655422688
1661394744265255523,9197,1661394744265255523,,0.393509566784,-0.417877197266,-1.02666318417
1661394744266707013,9198,1661394744266707013,,0.518929362297,-0.488037109375,-1.02676987648
1661394744271666567,9199,1661394744271666567,,0.511576294899,-0.430297851562,-1.02697062492
1661394744276592036,9200,1661394744276592036,,0.509740412235,-0.458343505859,-1.02725672722
1661394744281524210,9201,1661394744281524210,,0.482114672661,-0.432403564453,-1.02789747715
1661394744286599360,9202,1661394744286599360,,0.46750831604,-0.493072509766,-1.02810096741
1661394744291556540,9203,1661394744291556540,,0.475868314505,-0.423309326172,-1.02813446522
1661394744296477189,9204,1661394744296477189,,0.54486811161,-0.436920166016,-1.02859938145
1661394744302935519,9205,1661394744302935519,,0.564215183258,-0.478759765625,-1.0283664465
1661394744306615477,9206,1661394744306615477,,0.43155708909,-0.4140625,-1.02830803394
1661394744311595496,9207,1661394744311595496,,0.545876443386,-0.447540283203,-1.02807831764
1661394744316655490,9208,1661394744316655490,,0.498029053211,-0.31982421875,-1.0290722847
1661394744321689361,9209,1661394744321689361,,0.641978919506,-0.408508300781,-1.02902781963
1661394744326531363,9210,1661394744326531363,,0.508123159409,-0.403656005859,-1.02940475941
1661394744331496016,9211,1661394744331496016,,0.49141472578,-0.376586914062,-1.02969563007
1661394744336602388,9212,1661394744336602388,,0.58522105217,-0.516662597656,-1.02937865257
1661394744343769106,9213,1661394744343769106,,0.517794728279,-0.421447753906,-1.02922487259
1661394744346606570,9214,1661394744346606570,,0.519161164761,-0.40869140625,-1.02934253216
1661394744351703443,9215,1661394744351703443,,0.622341811657,-0.380401611328,-1.02920818329
1661394744356701622,9216,1661394744356701622,,0.598187983036,-0.470062255859,-1.02950108051
1661394744361527210,9217,1661394744361527210,,0.504258334637,-0.432403564453,-1.0293533802
1661394744366556890,9218,1661394744366556890,,0.505717813969,-0.436645507812,-1.02999675274
1661394744371628269,9219,1661394744371628269,,0.576273500919,-0.487823486328,-1.02993714809
1661394744377948163,9220,1661394744377948163,,0.57267999649,-0.480743408203,-1.0302233696
1661394744381572802,9221,1661394744381572802,,0.570177972317,-0.466766357422,-1.03016364574
1661394744386721711,9222,1661394744386721711,,0.321727544069,-0.205505371094,-1.03062725067
1661394744391574679,9223,1661394744391574679,,0.481889486313,-0.436401367188,-1.03057086468
1661394744396515374,9224,1661394744396515374,,0.5817887187,-0.541931152344,-1.03174030781
1661394744401651222,9225,1661394744401651222,,0.540681481361,-0.296478271484,-1.03177762032
1661394744406586329,9226,1661394744406586329,,0.524375319481,-0.55126953125,-1.03250288963
1661394744411537153,9227,1661394744411537153,,0.395692169666,-0.460693359375,-1.03296303749
1661394744420321597,9228,1661394744420321597,,0.60690253973,-0.475006103516,-1.03308713436
1661394744421674043,9229,1661394744421674043,,0.515502989292,-0.516265869141,-1.03311932087
1661394744426649523,9230,1661394744426649523,,0.569142103195,-0.373779296875,-1.03332412243
1661394744431607610,9231,1661394744431607610,,0.497996985912,-0.496246337891,-1.03292381763
1661394744436643367,9232,1661394744436643367,,0.473000437021,-0.442321777344,-1.03303277493
1661394744441626739,9233,1661394744441626739,,0.502868592739,-0.530212402344,-1.03314709663
1661394744446519240,9234,1661394744446519240,,0.522905051708,-0.536224365234,-1.03343594074
1661394744451635530,9235,1661394744451635530,,0.45678576827,-0.600860595703,-1.03416061401
1661394744461200864,9236,1661394744461200864,,0.568218290806,-0.470733642578,-1.03419280052
1661394744461746229,9237,1661394744461746229,,0.467459857464,-0.517852783203,-1.03413105011
1661394744466550583,9238,1661394744466550583,,0.57466095686,-0.577209472656,-1.03468286991
1661394744471690202,9239,1661394744471690202,,0.543198406696,-0.428680419922,-1.03462445736
1661394744476544427,9240,1661394744476544427,,0.549816012383,-0.493621826172,-1.03465139866
1661394744481507613,9241,1661394744481507613,,0.790917694569,-0.370941162109,-1.03661429882
1661394744486635918,9242,1661394744486635918,,1.35487091541,-0.347625732422,-1.03941500187
1661394744491575495,9243,1661394744491575495,,1.98755776882,-0.524841308594,-1.04343044758
1661394744499939391,9244,1661394744499939391,,6.29452037811,0.0434673242271,-1.06360673904
1661394744501735017,9245,1661394744501735017,,7.71730852127,-3.75067138672,-1.13710343838
1661394744506677598,9246,1661394744506677598,,1.52294099331,-4.59338378906,-1.28660392761
1661394744511614941,9247,1661394744511614941,,1.71590745449,-4.59103393555,-1.45724070072
1661394744516504857,9248,1661394744516504857,,-2.96008300781,-2.57788085938,-1.63626170158
1661394744521661170,9249,1661394744521661170,,-1.86962890625,-2.58712768555,-1.81169688702
1661394744526662633,9250,1661394744526662633,,-1.56323242188,-0.744110107422,-1.96488547325
1661394744531532782,9251,1661394744531532782,,4.92861032486,-2.51684570312,-2.04059696198
1661394744536763552,9252,1661394744536763552,,-4.47732543945,-1.60223388672,-1.93971383572
1661394744541595147,9253,1661394744541595147,,-10.7909851074,1.9940199852,-1.79795300961
1661394744546538636,9254,1661394744546538636,,-10.4579467773,-1.09643554688,-1.63870692253
1661394744551513067,9255,1661394744551513067,,-12.2211608887,-1.75500488281,-1.43809938431
1661394744556623351,9256,1661394744556623351,,-7.10052490234,1.34765100479,-1.1853864193
1661394744561585629,9257,1661394744561585629,,-5.01638793945,3.72674250603,-0.896801352501
1661394744566518921,9258,1661394744566518921,,-5.71441650391,4.27741956711,-0.595967650414
1661394744575907821,9259,1661394744575907821,,-6.45867919922,5.03633546829,-0.291772216558
1661394744576651272,9260,1661394744576651272,,-4.0866394043,4.5892791748,0.00555352354422
1661394744581562282,9261,1661394744581562282,,-10.9564208984,-0.748321533203,0.322462320328
1661394744586701133,9262,1661394744586701133,,0.174142509699,-1.21173095703,0.673591375351
1661394744591707205,9263,1661394744591707205,,1.35898911953,1.01854085922,1.02343869209
1661394744596549347,9264,1661394744596549347,,0.660670518875,-0.216430664062,1.38870716095
1661394744601341687,9265,1661394744601341687,,0.632694065571,-1.58654785156,1.76850962639
1661394744606467547,9266,1661394744606467547,,0.561031758785,-3.48138427734,2.17462277412
1661394744615191713,9267,1661394744615191713,,1.06996285915,-3.80905151367,2.60585975647
1661394744616409774,9268,1661394744616409774,,1.29008615017,-4.63565063477,3.06097602844
1661394744621399712,9269,1661394744621399712,,-0.798065185547,-4.23843383789,3.52900457382
1661394744626553371,9270,1661394744626553371,,-3.27700805664,-3.52322387695,4.01684808731
1661394744631387410,9271,1661394744631387410,,-3.48257446289,-2.53845214844,4.52596235275
1661394744636326638,9272,1661394744636326638,,-2.66445922852,-4.08898925781,5.05890512466
1661394744641443837,9273,1661394744641443837,,-2.2248840332,-3.0417175293,5.60528326035
1661394744646416941,9274,1661394744646416941,,-1.34780883789,-4.03497314453,6.16698074341
1661394744653491741,9275,1661394744653491741,,-0.866302490234,-3.84350585938,6.73867988586
1661394744656468689,9276,1661394744656468689,,0.324105978012,-1.49554443359,7.31122732162
1661394744661494318,9277,1661394744661494318,,2.23531150818,-1.13903808594,7.88237380981
1661394744666363071,9278,1661394744666363071,,3.09091687202,-0.0313110351562,8.44195270538
1661394744671307189,9279,1661394744671307189,,3.69014716148,1.20595061779,8.98595142365
1661394744676423829,9280,1661394744676423829,,4.04959440231,1.0229164362,9.51037216187
1661394744681389809,9281,1661394744681389809,,4.39886903763,2.4928188324,10.0053377151
1661394744686343356,9282,1661394744686343356,,4.72750282288,2.34988927841,10.4697055817
1661394744696147426,9283,1661394744696147426,,4.72992801666,1.52930665016,10.9010629654
1661394744696520199,9284,1661394744696520199,,5.82704257965,3.25681447983,11.2965564728
1661394744701392026,9285,1661394744701392026,,7.36302614212,2.31259274483,11.6580724716
1661394744706497210,9286,1661394744706497210,,6.76964664459,2.14732956886,11.9865884781
1661394744711407033,9287,1661394744711407033,,6.25401353836,3.33398032188,12.2817640305
1661394744716466608,9288,1661394744716466608,,6.13710784912,3.88493180275,12.5484514236
1661394744721322160,9289,1661394744721322160,,5.073325634,3.32350850105,12.7855186462
1661394744726480848,9290,1661394744726480848,,5.82376194,4.25367975235,12.9806280136
1661394744731441659,9291,1661394744731441659,,4.33632993698,4.16190433502,13.1199674606
1661394744739216885,9292,1661394744739216885,,4.18391227722,2.69386100769,13.2050495148
1661394744741470357,9293,1661394744741470357,,3.04679512978,1.5557179451,13.2439546585
1661394744746529793,9294,1661394744746529793,,1.22410571575,0.516462922096,13.2482719421
1661394744751408743,9295,1661394744751408743,,1.12319374084,-0.269256591797,13.2262983322
1661394744756480541,9296,1661394744756480541,,0.565993249416,-0.549713134766,13.1798124313
1661394744761433669,9297,1661394744761433669,,-1.50109863281,-0.0050048828125,13.1147851944
1661394744766416483,9298,1661394744766416483,,-4.09710693359,-0.719146728516,13.0427703857
1661394744771314781,9299,1661394744771314781,,-6.67434692383,-1.66708374023,12.9761333466
1661394744778769408,9300,1661394744778769408,,-7.53775024414,-0.994293212891,12.9211130142
1661394744781462777,9301,1661394744781462777,,-7.61108398438,-0.98193359375,12.8830156326
1661394744786433088,9302,1661394744786433088,,-7.38998413086,-0.930725097656,12.866109848
1661394744791470591,9303,1661394744791470591,,-6.43035888672,-0.419311523438,12.8665113449
1661394744796412125,9304,1661394744796412125,,-5.45336914062,0.0673812553287,12.8840017319
1661394744801388582,9305,1661394744801388582,,-4.3232421875,-0.138854980469,12.9136133194
1661394744806307834,9306,1661394744806307834,,-2.88079833984,-0.317657470703,12.9498023987
1661394744811451435,9307,1661394744811451435,,-0.801330566406,-0.450653076172,12.9870977402
1661394744821645111,9308,1661394744821645111,,0.690323412418,-0.2548828125,13.0202693939
1661394744821896910,9309,1661394744821896910,,1.7533249855,-0.509063720703,13.0476303101
1661394744826570440,9310,1661394744826570440,,2.28778553009,-0.765533447266,13.0708112717
1661394744831483616,9311,1661394744831483616,,6.09485292435,-0.5478515625,13.0911026001
1661394744836461819,9312,1661394744836461819,,5.28462028503,0.443006068468,13.1067476273
1661394744841496459,9313,1661394744841496459,,2.61900138855,1.03250598907,13.1181621552
1661394744846434430,9314,1661394744846434430,,2.14789247513,1.67850530148,13.1235456467
1661394744851378129,9315,1661394744851378129,,2.37983751297,2.48103904724,13.1224374771
1661394744856318475,9316,1661394744856318475,,1.42314052582,0.346946299076,13.1177425385
1661394744861836525,9317,1661394744861836525,,0.926938652992,0.378693014383,13.1148576736
1661394744866485610,9318,1661394744866485610,,1.30279028416,1.15318179131,13.115105629
1661394744871421905,9319,1661394744871421905,,0.513362586498,1.25320315361,13.1145153046
1661394744876492306,9320,1661394744876492306,,-0.376342773438,1.41863036156,13.1119794846
1661394744881518424,9321,1661394744881518424,,-0.991088867188,1.91343677044,13.1076745987
1661394744886385361,9322,1661394744886385361,,-2.09732055664,1.48217833042,13.1060276031
1661394744891503677,9323,1661394744891503677,,-2.01156616211,1.5943300724,13.1094770432
1661394744899978699,9324,1661394744899978699,,-2.52154541016,1.522367239,13.1226987839
1661394744901420131,9325,1661394744901420131,,-3.41403198242,3.79469394684,13.1458787918
1661394744906336171,9326,1661394744906336171,,-5.72955322266,3.01555585861,13.1820640564
1661394744911442054,9327,1661394744911442054,,-4.70053100586,3.24895119667,13.2317018509
1661394744916396090,9328,1661394744916396090,,-2.79769897461,2.88826179504,13.2877283096
1661394744921359137,9329,1661394744921359137,,-0.328094482422,3.56174230576,13.3408060074
1661394744926502737,9330,1661394744926502737,,0.826251327991,3.20292663574,13.3839015961
1661394744931457751,9331,1661394744931457751,,1.67231822014,1.84455919266,13.4139003754
1661394744941148809,9332,1661394744941148809,,1.80795061588,2.15506911278,13.428976059
1661394744941627121,9333,1661394744941627121,,2.25750899315,1.47888338566,13.4327602386
1661394744946507539,9334,1661394744946507539,,2.16150164604,0.915258169174,13.4282636642
1661394744951469258,9335,1661394744951469258,,1.82897293568,0.454038262367,13.4181032181
1661394744956361410,9336,1661394744956361410,,1.59265983105,-0.0115966796875,13.4050035477
1661394744961467992,9337,1661394744961467992,,0.595920324326,0.205691516399,13.3918924332
1661394744966436207,9338,1661394744966436207,,0.438716709614,-0.101745605469,13.3803949356
1661394744971362653,9339,1661394744971362653,,-0.172119140625,-0.074462890625,13.3705377579
1661394744979423832,9340,1661394744979423832,,-0.127777099609,-9.1552734375e-05,13.3616342545
1661394744981467834,9341,1661394744981467834,,0.404785901308,0.208377659321,13.3519277573
1661394744986438423,9342,1661394744986438423,,0.286233216524,0.276478379965,13.3391838074
1661394744991351390,9343,1661394744991351390,,0.450363576412,0.268860280514,13.3223266602
1661394744996469706,9344,1661394744996469706,,0.670011162758,0.415689587593,13.3021097183
1661394745001393987,9345,1661394745001393987,,0.647431254387,0.633538901806,13.2769880295
1661394745006355215,9346,1661394745006355215,,0.383402973413,0.37547147274,13.2486391068
1661394745011460737,9347,1661394745011460737,,-0.186981201172,0.0699655339122,13.2179384232
1661394745018828806,9348,1661394745018828806,,-0.364349365234,0.249228090048,13.1898899078
1661394745021399867,9349,1661394745021399867,,-0.847290039062,0.419403702021,13.1674375534
1661394745026501687,9350,1661394745026501687,,-1.53216552734,0.340140610933,13.1528177261
1661394745031463534,9351,1661394745031463534,,-1.84503173828,0.15949857235,13.1451187134
1661394745036392343,9352,1661394745036392343,,-2.17596435547,0.450601249933,13.1440954208
1661394745041344831,9353,1661394745041344831,,-2.8635559082,0.380195647478,13.1518526077
1661394745046462017,9354,1661394745046462017,,-3.12060546875,1.38288724422,13.1690225601
1661394745051417578,9355,1661394745051417578,,-2.73721313477,1.32350838184,13.1911716461
1661394745057556134,9356,1661394745057556134,,-3.01705932617,1.30569338799,13.2158842087
1661394745061601591,9357,1661394745061601591,,-2.38922119141,1.79815363884,13.2418622971
1661394745066452311,9358,1661394745066452311,,-1.8049621582,1.9618717432,13.2669382095
1661394745071489803,9359,1661394745071489803,,-1.33853149414,2.10268878937,13.2882137299
1661394745076326694,9360,1661394745076326694,,-0.263702392578,1.91013157368,13.3047180176
1661394745081468955,9361,1661394745081468955,,0.750722408295,2.38031673431,13.3155822754
1661394745086446517,9362,1661394745086446517,,1.17043602467,2.65854072571,13.3205108643
1661394745091355490,9363,1661394745091355490,,1.50715231895,3.30264139175,13.3200273514
1661394745100416646,9364,1661394745100416646,,2.07918667793,3.36789941788,13.3155164719
1661394745101534055,9365,1661394745101534055,,3.01722979546,3.66152882576,13.30656147
1661394745106454693,9366,1661394745106454693,,3.70067667961,3.47706842422,13.2915821075
1661394745111522567,9367,1661394745111522567,,4.56067800522,3.44447803497,13.2716817856
1661394745116480293,9368,1661394745116480293,,5.72038555145,3.38222670555,13.2489862442
1661394745121427333,9369,1661394745121427333,,7.51079463959,3.47448754311,13.2237958908
1661394745126574344,9370,1661394745126574344,,8.40428352356,4.39605236053,13.1922159195
1661394745131505737,9371,1661394745131505737,,9.2788772583,5.7041759491,13.1523094177
1661394745139985418,9372,1661394745139985418,,9.55052089691,5.29402971268,13.1069612503
1661394745141404217,9373,1661394745141404217,,8.05764389038,5.05116510391,13.0581483841
1661394745146548573,9374,1661394745146548573,,5.99152374268,4.85340452194,13.009771347
1661394745151506439,9375,1661394745151506439,,4.5084438324,3.95681476593,12.9665489197
1661394745156357579,9376,1661394745156357579,,3.59658646584,3.59032392502,12.9322061539
1661394745161510317,9377,1661394745161510317,,2.79491353035,3.61777830124,12.9082813263
1661394745166427672,9378,1661394745166427672,,2.24461865425,3.03582906723,12.8936424255
1661394745171412428,9379,1661394745171412428,,1.87475037575,2.8255507946,12.887594223
1661394745182422939,9380,1661394745182422939,,1.73748445511,2.46702122688,12.8857164383
1661394745182729636,9381,1661394745182729636,,1.28576374054,2.70316958427,12.8830080032
1661394745186484600,9382,1661394745186484600,,1.54358696938,2.88299703598,12.880188942
1661394745191361653,9383,1661394745191361653,,1.08999562263,2.66727113724,12.8757677078
1661394745196486942,9384,1661394745196486942,,0.463104665279,2.69446921349,12.8711938858
1661394745201415821,9385,1661394745201415821,,0.332109451294,2.78128814697,12.8674030304
1661394745206373687,9386,1661394745206373687,,-0.106384277344,3.1585252285,12.8654441833
1661394745211589846,9387,1661394745211589846,,0.106988087296,3.22220635414,12.8679742813
1661394745218527938,9388,1661394745218527938,,0.471621632576,3.17747926712,12.8738059998
1661394745221494681,9389,1661394745221494681,,0.9846367836,3.19116640091,12.882314682
1661394745226433618,9390,1661394745226433618,,2.14409708977,3.00286698341,12.893034935
1661394745231536207,9391,1661394745231536207,,2.93178796768,2.97568249702,12.9044589996
1661394745236409907,9392,1661394745236409907,,3.09684801102,2.82029366493,12.913599968
1661394745241366096,9393,1661394745241366096,,3.56109309196,3.11179447174,12.9179363251
1661394745246552012,9394,1661394745246552012,,4.04530477524,3.22622942924,12.918888092
1661394745251428646,9395,1661394745251428646,,4.29908227921,3.36107945442,12.9169893265
1661394745256872226,9396,1661394745256872226,,4.3130865097,3.59941101074,12.9134025574
1661394745261529471,9397,1661394745261529471,,4.25046014786,3.35729575157,12.9092321396
1661394745266576671,9398,1661394745266576671,,4.0452246666,3.14179968834,12.9053258896
1661394745271399313,9399,1661394745271399313,,3.6281952858,2.95282769203,12.9006309509
1661394745276374780,9400,1661394745276374780,,3.59969377518,2.40197944641,12.8947591782
1661394745281545469,9401,1661394745281545469,,3.82503581047,2.18844342232,12.8891477585
1661394745286415398,9402,1661394745286415398,,3.31220507622,1.7103536129,12.8838472366
1661394745296170901,9403,1661394745296170901,,2.60301208496,1.93306267262,12.8799009323
1661394745296553522,9404,1661394745296553522,,1.34518682957,2.29456210136,12.8791332245
1661394745301540094,9405,1661394745301540094,,-0.388916015625,2.52881789207,12.8841676712
1661394745306409464,9406,1661394745306409464,,-1.486328125,2.22881484032,12.8970222473
1661394745311513659,9407,1661394745311513659,,-1.82830810547,1.96877455711,12.917965889
1661394745316460279,9408,1661394745316460279,,-1.42831420898,2.12837576866,12.9470033646
1661394745321440007,9409,1661394745321440007,,-1.44610595703,1.9950196743,12.9850215912
1661394745326358479,9410,1661394745326358479,,-2.25442504883,1.47816216946,13.0365562439
1661394745335837459,9411,1661394745335837459,,-2.75765991211,1.72702991962,13.1070404053
1661394745336800576,9412,1661394745336800576,,-2.81787109375,1.86887085438,13.1950311661
1661394745341591997,9413,1661394745341591997,,-1.93704223633,2.62823224068,13.2918109894
1661394745346527651,9414,1661394745346527651,,-0.894897460938,2.78002285957,13.3886575699
1661394745351458347,9415,1661394745351458347,,0.0501620881259,2.63991761208,13.4809989929
1661394745356406224,9416,1661394745356406224,,1.31208765507,2.32072854042,13.568652153
1661394745361361087,9417,1661394745361361087,,1.65886807442,2.63974714279,13.6468057632
1661394745366476946,9418,1661394745366476946,,1.76634812355,1.48800718784,13.7181158066
1661394745377708801,9419,1661394745377708801,,1.31611001492,1.10592234135,13.7868127823
1661394745378018851,9420,1661394745378018851,,1.59987676144,0.369265735149,13.8491268158
1661394745381698799,9421,1661394745381698799,,1.36305558681,1.3906788826,13.9010381699
1661394745386747605,9422,1661394745386747605,,1.81054747105,0.311332464218,13.944480896
1661394745391414140,9423,1661394745391414140,,1.53551459312,0.276311397552,13.9804210663
1661394745396576517,9424,1661394745396576517,,0.453034937382,0.890320301056,14.0096702576
1661394745401476899,9425,1661394745401476899,,-0.998199462891,0.559974253178,14.0339632034
1661394745406418630,9426,1661394745406418630,,-2.9905090332,0.792921304703,14.059803009
1661394745416030668,9427,1661394745416030668,,-4.44995117188,1.6210770607,14.0895833969
1661394745416634004,9428,1661394745416634004,,-5.79669189453,1.95037722588,14.1253299713
1661394745421455320,9429,1661394745421455320,,-6.7717590332,2.24245595932,14.1693716049
1661394745426452300,9430,1661394745426452300,,-7.63226318359,2.88074398041,14.2209968567
1661394745431517310,9431,1661394745431517310,,-8.26565551758,2.50735712051,14.2790622711
1661394745436463302,9432,1661394745436463302,,-8.3991394043,3.04756617546,14.340045929
1661394745441420190,9433,1661394745441420190,,-8.70114135742,3.5377395153,14.4028987885
1661394745446520683,9434,1661394745446520683,,-9.92700195312,3.76181435585,14.4702644348
1661394745455069163,9435,1661394745455069163,,-10.6889648438,4.25067138672,14.540886879
1661394745456408615,9436,1661394745456408615,,-10.9809265137,4.51568651199,14.6123170853
1661394745461486268,9437,1661394745461486268,,-10.373626709,5.28767871857,14.6824989319
1661394745466562385,9438,1661394745466562385,,-9.15698242188,4.86159086227,14.7491426468
1661394745471471218,9439,1661394745471471218,,-8.6477355957,4.35515213013,14.8107290268
1661394745476399538,9440,1661394745476399538,,-8.87490844727,3.57780599594,14.8661966324
1661394745481525665,9441,1661394745481525665,,-9.07312011719,2.84808325768,14.9151544571
1661394745486500154,9442,1661394745486500154,,-10.9234008789,2.01365089417,14.9558668137
1661394745493518431,9443,1661394745493518431,,-13.233001709,1.39899778366,14.9907712936
1661394745496553554,9444,1661394745496553554,,-15.9127502441,1.01803326607,15.0243787766
1661394745501583990,9445,1661394745501583990,,-16.6441955566,1.81752312183,15.0592899323
1661394745506448401,9446,1661394745506448401,,-15.8692626953,2.98591947556,15.0961227417
1661394745511354091,9447,1661394745511354091,,-16.9229431152,3.56915163994,15.1251783371
1661394745516510392,9448,1661394745516510392,,-22.039276123,11.3512449265,15.1242074966
1661394745521475312,9449,1661394745521475312,,-20.8044433594,7.77737188339,15.1237068176
1661394745526411805,9450,1661394745526411805,,-24.4251098633,2.16115164757,15.1493864059
1661394745539726980,9451,1661394745539726980,,-26.032409668,1.99746179581,15.2179527283
1661394745540040313,9452,1661394745540040313,,-24.1536865234,2.33331847191,15.3327264786
1661394745541525326,9453,1661394745541525326,,-19.067565918,2.34410786629,15.48595047
1661394745546418304,9454,1661394745546418304,,-14.7496032715,1.75380551815,15.6696176529
1661394745551533325,9455,1661394745551533325,,-12.3414611816,1.08268105984,15.877327919
1661394745556441250,9456,1661394745556441250,,-10.9665222168,1.06328332424,16.1031074524
1661394745561417974,9457,1661394745561417974,,-9.52111816406,1.36377561092,16.336353302
