%time,field.header.seq,field.header.stamp,field.header.frame_id,field.vector.x,field.vector.y,field.vector.z
1661394742911464563,8927,1661394742911464563,imu,-0.508377,-0.474849,0.173762
1661394742916389218,8928,1661394742916389218,imu,-0.510307,-0.475044,0.173159
1661394742921521739,8929,1661394742921521739,imu,-0.512674,-0.474666,0.172813
1661394742931099063,8930,1661394742931099063,imu,-0.51512,-0.47452,0.172777
1661394742931465482,8931,1661394742931465482,imu,-0.518339,-0.473815,0.172437
1661394742936562800,8932,1661394742936562800,imu,-0.509471,-0.475849,0.174242
1661394742941580003,8933,1661394742941580003,imu,-0.511814,-0.476598,0.167601
1661394742946450456,8934,1661394742946450456,imu,-0.522755,-0.477152,0.160305
1661394742951437694,8935,1661394742951437694,imu,-0.551132,-0.475272,0.158573
1661394742956573358,8936,1661394742956573358,imu,-0.574673,-0.476322,0.163264
1661394742961510585,8937,1661394742961510585,imu,-0.569167,-0.476978,0.171063
1661394742973438132,8938,1661394742973438132,imu,-0.540067,-0.471877,0.169077
1661394742973617570,8939,1661394742973617570,imu,-0.52518,-0.463616,0.147848
1661394742976532019,8940,1661394742976532019,imu,-0.525023,-0.465496,0.12019
1661394742981535252,8941,1661394742981535252,imu,-0.539615,-0.474215,0.103409
1661394742986578089,8942,1661394742986578089,imu,-0.559636,-0.479682,0.102637
1661394742991506725,8943,1661394742991506725,imu,-0.566408,-0.478642,0.11023
1661394742996436339,8944,1661394742996436339,imu,-0.554235,-0.475923,0.111488
1661394743001396197,8945,1661394743001396197,imu,-0.534004,-0.475632,0.106741
1661394743006522638,8946,1661394743006522638,imu,-0.529867,-0.474562,0.103957
1661394743020863933,8947,1661394743020863933,imu,-0.539935,-0.476978,0.105111
1661394743021137315,8948,1661394743021137315,imu,-0.55546,-0.479846,0.105114
1661394743021637141,8949,1661394743021637141,imu,-0.566652,-0.479906,0.103918
1661394743026527908,8950,1661394743026527908,imu,-0.572681,-0.477859,0.102716
1661394743031467358,8951,1661394743031467358,imu,-0.578153,-0.476343,0.101482
1661394743036398566,8952,1661394743036398566,imu,-0.593754,-0.474171,0.099194
1661394743041537639,8953,1661394743041537639,imu,-0.606661,-0.472363,0.104595
1661394743046504540,8954,1661394743046504540,imu,-0.574873,-0.480106,0.13069
1661394743051413397,8955,1661394743051413397,imu,-0.516693,-0.501398,0.16098
1661394743063177192,8956,1661394743063177192,imu,-0.508502,-0.525699,0.17472
1661394743063546754,8957,1661394743063546754,imu,-0.545889,-0.546972,0.171899
1661394743066426132,8958,1661394743066426132,imu,-0.58225,-0.560848,0.171952
1661394743071536219,8959,1661394743071536219,imu,-0.602397,-0.558058,0.187385
1661394743076605236,8960,1661394743076605236,imu,-0.603794,-0.529537,0.210378
1661394743081675859,8961,1661394743081675859,imu,-0.573125,-0.482231,0.229141
1661394743086448863,8962,1661394743086448863,imu,-0.507946,-0.44902,0.232523
1661394743091566633,8963,1661394743091566633,imu,-0.4667,-0.460983,0.215645
1661394743096476608,8964,1661394743096476608,imu,-0.518781,-0.474714,0.205747
1661394743104782900,8965,1661394743104782900,imu,-0.570725,-0.484285,0.20234
1661394743106574200,8966,1661394743106574200,imu,-0.578218,-0.485754,0.199223
1661394743111602706,8967,1661394743111602706,imu,-0.549102,-0.480689,0.197037
1661394743116514706,8968,1661394743116514706,imu,-0.518156,-0.475591,0.195359
1661394743121593571,8969,1661394743121593571,imu,-0.509838,-0.475671,0.194637
1661394743126531485,8970,1661394743126531485,imu,-0.522394,-0.479158,0.19606
1661394743131488955,8971,1661394743131488955,imu,-0.540103,-0.480351,0.19685
1661394743142557981,8972,1661394743142557981,imu,-0.547451,-0.479135,0.196203
1661394743142821515,8973,1661394743142821515,imu,-0.543911,-0.477923,0.19561
1661394743146513285,8974,1661394743146513285,imu,-0.539338,-0.476885,0.195435
1661394743151493107,8975,1661394743151493107,imu,-0.537153,-0.476122,0.195883
1661394743156578887,8976,1661394743156578887,imu,-0.539138,-0.477012,0.196094
1661394743161510794,8977,1661394743161510794,imu,-0.541612,-0.477156,0.19589
1661394743166453038,8978,1661394743166453038,imu,-0.543902,-0.476422,0.195366
1661394743171592112,8979,1661394743171592112,imu,-0.544444,-0.476304,0.195805
1661394743181169971,8980,1661394743181169971,imu,-0.542669,-0.475781,0.195906
1661394743181500627,8981,1661394743181500627,imu,-0.540004,-0.475841,0.195433
1661394743186420870,8982,1661394743186420870,imu,-0.538677,-0.476136,0.195275
1661394743191651722,8983,1661394743191651722,imu,-0.539624,-0.476486,0.195176
1661394743196499114,8984,1661394743196499114,imu,-0.541677,-0.476501,0.195295
1661394743201472300,8985,1661394743201472300,imu,-0.542377,-0.476734,0.195611
1661394743206549070,8986,1661394743206549070,imu,-0.541539,-0.476776,0.195378
1661394743211511291,8987,1661394743211511291,imu,-0.541009,-0.476459,0.195271
1661394743222175692,8988,1661394743222175692,imu,-0.542298,-0.47596,0.195453
1661394743222336899,8989,1661394743222336899,imu,-0.544159,-0.475828,0.195522
1661394743226565026,8990,1661394743226565026,imu,-0.545629,-0.476136,0.195556
1661394743231564475,8991,1661394743231564475,imu,-0.54622,-0.47593,0.195776
1661394743236460201,8992,1661394743236460201,imu,-0.547015,-0.475515,0.195695
1661394743241582162,8993,1661394743241582162,imu,-0.546683,-0.475199,0.195781
1661394743246508202,8994,1661394743246508202,imu,-0.546284,-0.47475,0.196107
1661394743251453030,8995,1661394743251453030,imu,-0.546429,-0.475016,0.196485
1661394743259922555,8996,1661394743259922555,imu,-0.546495,-0.475666,0.197004
1661394743261571646,8997,1661394743261571646,imu,-0.545721,-0.475454,0.197096
1661394743266524297,8998,1661394743266524297,imu,-0.544522,-0.475549,0.1971
1661394743271484841,8999,1661394743271484841,imu,-0.54364,-0.475854,0.19752
1661394743276517119,9000,1661394743276517119,imu,-0.543046,-0.475793,0.197672
1661394743281502319,9001,1661394743281502319,imu,-0.542276,-0.47618,0.198253
1661394743286441559,9002,1661394743286441559,imu,-0.54175,-0.476542,0.1982
1661394743291542776,9003,1661394743291542776,imu,-0.541686,-0.476415,0.198349
1661394743301537972,9004,1661394743301537972,imu,-0.54191,-0.476711,0.198773
1661394743302149064,9005,1661394743302149064,imu,-0.542217,-0.476754,0.199064
1661394743306673553,9006,1661394743306673553,imu,-0.542428,-0.477309,0.19886
1661394743311531212,9007,1661394743311531212,imu,-0.542506,-0.477642,0.199172
1661394743316462979,9008,1661394743316462979,imu,-0.542104,-0.477297,0.199458
1661394743321742445,9009,1661394743321742445,imu,-0.541959,-0.477549,0.199968
1661394743326561060,9010,1661394743326561060,imu,-0.542306,-0.477952,0.199709
1661394743331493176,9011,1661394743331493176,imu,-0.541989,-0.477911,0.199975
1661394743342015648,9012,1661394743342015648,imu,-0.541926,-0.478016,0.199941
1661394743342392264,9013,1661394743342392264,imu,-0.541148,-0.478065,0.200166
1661394743346730191,9014,1661394743346730191,imu,-0.540186,-0.478328,0.200413
1661394743351473580,9015,1661394743351473580,imu,-0.539835,-0.478536,0.20053
1661394743356598125,9016,1661394743356598125,imu,-0.539944,-0.478508,0.200598
1661394743361529683,9017,1661394743361529683,imu,-0.539739,-0.478631,0.201084
1661394743366484080,9018,1661394743366484080,imu,-0.539351,-0.478892,0.201273
1661394743371457756,9019,1661394743371457756,imu,-0.539554,-0.479174,0.201042
1661394743388763014,9020,1661394743388763014,imu,-0.539572,-0.479226,0.200774
1661394743389126498,9021,1661394743389126498,imu,-0.540214,-0.479809,0.200446
1661394743389625486,9022,1661394743389625486,imu,-0.540488,-0.480204,0.200242
1661394743391662718,9023,1661394743391662718,imu,-0.541158,-0.480384,0.199577
1661394743396563962,9024,1661394743396563962,imu,-0.541514,-0.480612,0.199677
1661394743401468908,9025,1661394743401468908,imu,-0.541498,-0.480386,0.199838
1661394743406541626,9026,1661394743406541626,imu,-0.541804,-0.480318,0.199709
1661394743411554276,9027,1661394743411554276,imu,-0.542184,-0.480318,0.199873
1661394743416471096,9028,1661394743416471096,imu,-0.542945,-0.480249,0.2003
1661394743421453712,9029,1661394743421453712,imu,-0.542425,-0.479744,0.200601
1661394743428915901,9030,1661394743428915901,imu,-0.541858,-0.479575,0.200792
1661394743431532236,9031,1661394743431532236,imu,-0.541596,-0.480297,0.201173
1661394743436539158,9032,1661394743436539158,imu,-0.542015,-0.480385,0.2014
1661394743441641771,9033,1661394743441641771,imu,-0.542674,-0.480485,0.201316
1661394743446530652,9034,1661394743446530652,imu,-0.54213,-0.480517,0.201262
1661394743451507750,9035,1661394743451507750,imu,-0.542071,-0.480842,0.201426
1661394743456438958,9036,1661394743456438958,imu,-0.542516,-0.48063,0.201501
1661394743461555471,9037,1661394743461555471,imu,-0.542553,-0.480298,0.201416
1661394743472227346,9038,1661394743472227346,imu,-0.543267,-0.479938,0.201308
1661394743472478098,9039,1661394743472478098,imu,-0.543841,-0.479729,0.201205
1661394743476634282,9040,1661394743476634282,imu,-0.54457,-0.479225,0.201007
1661394743481575339,9041,1661394743481575339,imu,-0.545318,-0.479043,0.200972
1661394743486459680,9042,1661394743486459680,imu,-0.545282,-0.479299,0.20096
1661394743491584644,9043,1661394743491584644,imu,-0.545451,-0.479318,0.200684
1661394743496554059,9044,1661394743496554059,imu,-0.54553,-0.479875,0.200493
1661394743501504475,9045,1661394743501504475,imu,-0.545312,-0.479259,0.200556
1661394743506428559,9046,1661394743506428559,imu,-0.545771,-0.479266,0.200127
1661394743515785282,9047,1661394743515785282,imu,-0.545911,-0.478937,0.200458
1661394743516568478,9048,1661394743516568478,imu,-0.546213,-0.479976,0.200981
1661394743521522177,9049,1661394743521522177,imu,-0.546363,-0.480666,0.200716
1661394743526640366,9050,1661394743526640366,imu,-0.546172,-0.481306,0.200337
1661394743531658325,9051,1661394743531658325,imu,-0.546116,-0.481534,0.200312
1661394743536576332,9052,1661394743536576332,imu,-0.54688,-0.481579,0.200084
1661394743541595897,9053,1661394743541595897,imu,-0.546717,-0.481571,0.199751
1661394743546557558,9054,1661394743546557558,imu,-0.546416,-0.481686,0.199804
1661394743553213782,9055,1661394743553213782,imu,-0.546779,-0.481663,0.200008
1661394743556526632,9056,1661394743556526632,imu,-0.547188,-0.481564,0.1997
1661394743561616183,9057,1661394743561616183,imu,-0.547425,-0.48139,0.19959
1661394743566520291,9058,1661394743566520291,imu,-0.547014,-0.481109,0.199587
1661394743571463024,9059,1661394743571463024,imu,-0.547269,-0.48119,0.199495
1661394743576677742,9060,1661394743576677742,imu,-0.54694,-0.48133,0.199915
1661394743581627110,9061,1661394743581627110,imu,-0.546584,-0.48163,0.199906
1661394743586556642,9062,1661394743586556642,imu,-0.546951,-0.481765,0.199909
1661394743592214261,9063,1661394743592214261,imu,-0.546841,-0.481921,0.199659
1661394743596567694,9064,1661394743596567694,imu,-0.547216,-0.481934,0.199793
1661394743601519507,9065,1661394743601519507,imu,-0.547175,-0.48245,0.199545
1661394743606473625,9066,1661394743606473625,imu,-0.5468,-0.483338,0.199349
1661394743611581686,9067,1661394743611581686,imu,-0.546762,-0.483733,0.199322
1661394743616551869,9068,1661394743616551869,imu,-0.547153,-0.483924,0.199057
1661394743621575625,9069,1661394743621575625,imu,-0.546657,-0.483868,0.199037
1661394743626611325,9070,1661394743626611325,imu,-0.54658,-0.483675,0.199085
1661394743637288299,9071,1661394743637288299,imu,-0.547085,-0.483504,0.198946
1661394743637771571,9072,1661394743637771571,imu,-0.546932,-0.48286,0.199057
1661394743641577542,9073,1661394743641577542,imu,-0.546858,-0.482389,0.19928
1661394743646664579,9074,1661394743646664579,imu,-0.546886,-0.482533,0.199169
1661394743651632317,9075,1661394743651632317,imu,-0.547671,-0.482591,0.198898
1661394743656474890,9076,1661394743656474890,imu,-0.547867,-0.482157,0.198809
1661394743661596920,9077,1661394743661596920,imu,-0.548181,-0.481388,0.198701
1661394743666547686,9078,1661394743666547686,imu,-0.548397,-0.481035,0.199203
1661394743672211591,9079,1661394743672211591,imu,-0.548667,-0.481377,0.199583
1661394743676661203,9080,1661394743676661203,imu,-0.548515,-0.482035,0.199785
1661394743681650105,9081,1661394743681650105,imu,-0.548722,-0.482054,0.199684
1661394743686504761,9082,1661394743686504761,imu,-0.548347,-0.481643,0.199592
1661394743691462721,9083,1661394743691462721,imu,-0.548555,-0.481668,0.199485
1661394743696609617,9084,1661394743696609617,imu,-0.548798,-0.482008,0.199283
1661394743701545505,9085,1661394743701545505,imu,-0.548649,-0.482282,0.199294
1661394743712038711,9086,1661394743712038711,imu,-0.548246,-0.483084,0.199033
1661394743712341568,9087,1661394743712341568,imu,-0.548598,-0.48366,0.199048
1661394743716553141,9088,1661394743716553141,imu,-0.548782,-0.48374,0.199225
1661394743721507679,9089,1661394743721507679,imu,-0.547841,-0.483656,0.199298
1661394743726459352,9090,1661394743726459352,imu,-0.547362,-0.483578,0.199737
1661394743731547297,9091,1661394743731547297,imu,-0.54719,-0.483822,0.199989
1661394743736517900,9092,1661394743736517900,imu,-0.546952,-0.484349,0.200017
1661394743741475370,9093,1661394743741475370,imu,-0.546447,-0.484097,0.200236
1661394743746596912,9094,1661394743746596912,imu,-0.545632,-0.48378,0.200232
1661394743754509406,9095,1661394743754509406,imu,-0.545677,-0.484115,0.200459
1661394743756606636,9096,1661394743756606636,imu,-0.546325,-0.485108,0.200509
1661394743761628017,9097,1661394743761628017,imu,-0.546673,-0.484882,0.200872
1661394743766592682,9098,1661394743766592682,imu,-0.546562,-0.484767,0.200781
1661394743771527034,9099,1661394743771527034,imu,-0.547033,-0.48502,0.201373
1661394743776431072,9100,1661394743776431072,imu,-0.547395,-0.484939,0.201489
1661394743781579993,9101,1661394743781579993,imu,-0.547252,-0.48433,0.201928
1661394743786521190,9102,1661394743786521190,imu,-0.546975,-0.484466,0.202073
1661394743794231546,9103,1661394743794231546,imu,-0.546932,-0.484819,0.202368
1661394743796617455,9104,1661394743796617455,imu,-0.546851,-0.485454,0.202469
1661394743801611386,9105,1661394743801611386,imu,-0.54658,-0.485173,0.202792
1661394743806575003,9106,1661394743806575003,imu,-0.546477,-0.485275,0.203065
1661394743811431265,9107,1661394743811431265,imu,-0.54603,-0.485177,0.203504
1661394743816559093,9108,1661394743816559093,imu,-0.546366,-0.48537,0.203393
1661394743821578728,9109,1661394743821578728,imu,-0.54666,-0.485774,0.203275
1661394743826548702,9110,1661394743826548702,imu,-0.545739,-0.486328,0.203347
1661394743838510584,9111,1661394743838510584,imu,-0.544892,-0.486335,0.203368
1661394743838751626,9112,1661394743838751626,imu,-0.544922,-0.4859,0.203433
1661394743841537899,9113,1661394743841537899,imu,-0.54491,-0.485138,0.203427
1661394743846628498,9114,1661394743846628498,imu,-0.545438,-0.48444,0.203664
1661394743851532117,9115,1661394743851532117,imu,-0.544967,-0.48445,0.203761
1661394743856500274,9116,1661394743856500274,imu,-0.544399,-0.484174,0.203847
1661394743861447617,9117,1661394743861447617,imu,-0.544126,-0.483504,0.203672
1661394743866552954,9118,1661394743866552954,imu,-0.543846,-0.484118,0.203493
1661394743871506234,9119,1661394743871506234,imu,-0.543165,-0.484377,0.203595
1661394743880959905,9120,1661394743880959905,imu,-0.543085,-0.48392,0.203816
1661394743881808758,9121,1661394743881808758,imu,-0.543478,-0.48395,0.203459
1661394743886615848,9122,1661394743886615848,imu,-0.543884,-0.483976,0.203124
1661394743891545659,9123,1661394743891545659,imu,-0.543324,-0.483897,0.203131
1661394743896594001,9124,1661394743896594001,imu,-0.543544,-0.483426,0.203009
1661394743901544697,9125,1661394743901544697,imu,-0.543205,-0.483203,0.20262
1661394743906515508,9126,1661394743906515508,imu,-0.54299,-0.483314,0.202665
1661394743911480383,9127,1661394743911480383,imu,-0.543472,-0.482749,0.202733
1661394743916567769,9128,1661394743916567769,imu,-0.543749,-0.482773,0.203
1661394743928319970,9129,1661394743928319970,imu,-0.543633,-0.483166,0.203385
1661394743928609836,9130,1661394743928609836,imu,-0.543578,-0.483239,0.203951
1661394743931676545,9131,1661394743931676545,imu,-0.544157,-0.482986,0.204179
1661394743936673409,9132,1661394743936673409,imu,-0.544682,-0.482626,0.203721
1661394743941555375,9133,1661394743941555375,imu,-0.545183,-0.482205,0.203563
1661394743946604835,9134,1661394743946604835,imu,-0.545513,-0.481185,0.203387
1661394743951562026,9135,1661394743951562026,imu,-0.546294,-0.48082,0.203559
1661394743956527599,9136,1661394743956527599,imu,-0.54644,-0.481219,0.204155
1661394743961611424,9137,1661394743961611424,imu,-0.546326,-0.480894,0.20417
1661394743970804285,9138,1661394743970804285,imu,-0.546558,-0.480159,0.20437
1661394743971792553,9139,1661394743971792553,imu,-0.546295,-0.480027,0.20423
1661394743976540412,9140,1661394743976540412,imu,-0.546905,-0.480282,0.204614
1661394743981680463,9141,1661394743981680463,imu,-0.547331,-0.480411,0.20465
1661394743986544898,9142,1661394743986544898,imu,-0.547425,-0.480734,0.205011
1661394743991567466,9143,1661394743991567466,imu,-0.547084,-0.480648,0.205166
1661394743996678601,9144,1661394743996678601,imu,-0.547578,-0.480993,0.20556
1661394744001551487,9145,1661394744001551487,imu,-0.547386,-0.481168,0.205917
1661394744015959110,9146,1661394744015959110,imu,-0.547679,-0.481298,0.205965
1661394744016217055,9147,1661394744016217055,imu,-0.547969,-0.481239,0.205936
1661394744016688871,9148,1661394744016688871,imu,-0.547356,-0.481893,0.206032
1661394744021612803,9149,1661394744021612803,imu,-0.546847,-0.481725,0.20601
1661394744026480369,9150,1661394744026480369,imu,-0.546754,-0.48166,0.20601
1661394744031607625,9151,1661394744031607625,imu,-0.54733,-0.4822,0.205899
1661394744036604757,9152,1661394744036604757,imu,-0.547924,-0.482087,0.205885
1661394744041589246,9153,1661394744041589246,imu,-0.54806,-0.48185,0.205849
1661394744046459955,9154,1661394744046459955,imu,-0.548374,-0.481576,0.205414
1661394744054047013,9155,1661394744054047013,imu,-0.548388,-0.481902,0.205222
1661394744056588814,9156,1661394744056588814,imu,-0.548612,-0.482316,0.205146
1661394744061533351,9157,1661394744061533351,imu,-0.548027,-0.482965,0.205185
1661394744066597885,9158,1661394744066597885,imu,-0.548414,-0.482986,0.205079
1661394744071548848,9159,1661394744071548848,imu,-0.549275,-0.482573,0.204901
1661394744078144916,9160,1661394744078144916,imu,-0.549224,-0.482325,0.20499
1661394744081619943,9161,1661394744081619943,imu,-0.548486,-0.482393,0.204994
1661394744086658284,9162,1661394744086658284,imu,-0.548313,-0.482408,0.205107
1661394744092362966,9163,1661394744092362966,imu,-0.547983,-0.482583,0.205182
1661394744096467593,9164,1661394744096467593,imu,-0.548355,-0.482811,0.205489
1661394744101574664,9165,1661394744101574664,imu,-0.548494,-0.483037,0.205553
1661394744106536383,9166,1661394744106536383,imu,-0.548329,-0.483194,0.205566
1661394744111506204,9167,1661394744111506204,imu,-0.548159,-0.483336,0.205697
1661394744117982974,9168,1661394744117982974,imu,-0.547842,-0.483193,0.205653
1661394744121624446,9169,1661394744121624446,imu,-0.547528,-0.483483,0.205939
1661394744126556620,9170,1661394744126556620,imu,-0.54753,-0.483754,0.206015
1661394744141581961,9171,1661394744141581961,imu,-0.547451,-0.483447,0.20613
1661394744141921278,9172,1661394744141921278,imu,-0.547711,-0.483357,0.20649
1661394744142179432,9173,1661394744142179432,imu,-0.547912,-0.483344,0.206585
1661394744146541445,9174,1661394744146541445,imu,-0.548543,-0.483053,0.206394
1661394744151610729,9175,1661394744151610729,imu,-0.54891,-0.483019,0.206301
1661394744156539690,9176,1661394744156539690,imu,-0.548786,-0.482483,0.20632
1661394744161494704,9177,1661394744161494704,imu,-0.548456,-0.481851,0.206233
1661394744166636000,9178,1661394744166636000,imu,-0.54811,-0.481233,0.206597
1661394744179776450,9179,1661394744179776450,imu,-0.548038,-0.480966,0.207124
1661394744180117024,9180,1661394744180117024,imu,-0.547931,-0.481784,0.206905
1661394744181469261,9181,1661394744181469261,imu,-0.547406,-0.481419,0.206889
1661394744186685852,9182,1661394744186685852,imu,-0.547103,-0.481185,0.20692
1661394744191543989,9183,1661394744191543989,imu,-0.547161,-0.481824,0.20683
1661394744196495580,9184,1661394744196495580,imu,-0.547252,-0.48209,0.207086
1661394744201622208,9185,1661394744201622208,imu,-0.547748,-0.481869,0.207161
1661394744206577362,9186,1661394744206577362,imu,-0.547132,-0.481688,0.206908
1661394744211573446,9187,1661394744211573446,imu,-0.547056,-0.482454,0.206862
1661394744221322476,9188,1661394744221322476,imu,-0.547741,-0.482577,0.206896
1661394744221586358,9189,1661394744221586358,imu,-0.547469,-0.483,0.20717
1661394744226568543,9190,1661394744226568543,imu,-0.547313,-0.483189,0.206804
1661394744231483115,9191,1661394744231483115,imu,-0.547251,-0.48325,0.206487
1661394744236584738,9192,1661394744236584738,imu,-0.547153,-0.483357,0.206622
1661394744241532069,9193,1661394744241532069,imu,-0.546115,-0.483384,0.206371
1661394744246515441,9194,1661394744246515441,imu,-0.545327,-0.483233,0.205918
1661394744251612174,9195,1661394744251612174,imu,-0.544805,-0.482786,0.205654
1661394744264939256,9196,1661394744264939256,imu,-0.545024,-0.482972,0.205707
1661394744265255523,9197,1661394744265255523,imu,-0.544708,-0.482133,0.205385
1661394744266707013,9198,1661394744266707013,imu,-0.54408,-0.482414,0.205459
1661394744271666567,9199,1661394744271666567,imu,-0.544094,-0.483183,0.205782
1661394744276592036,9200,1661394744276592036,imu,-0.544362,-0.483598,0.205814
1661394744281524210,9201,1661394744281524210,imu,-0.544404,-0.483671,0.205844
1661394744286599360,9202,1661394744286599360,imu,-0.544429,-0.48406,0.205555
1661394744291556540,9203,1661394744291556540,imu,-0.544414,-0.483879,0.205468
1661394744296477189,9204,1661394744296477189,imu,-0.544638,-0.483889,0.205403
1661394744302935519,9205,1661394744302935519,imu,-0.544414,-0.483419,0.205135
1661394744306615477,9206,1661394744306615477,imu,-0.544336,-0.483303,0.205054
1661394744311595496,9207,1661394744311595496,imu,-0.544537,-0.483483,0.205326
1661394744316655490,9208,1661394744316655490,imu,-0.544846,-0.483198,0.205071
1661394744321689361,9209,1661394744321689361,imu,-0.545452,-0.482865,0.204554
1661394744326531363,9210,1661394744326531363,imu,-0.5458,-0.482294,0.204625
1661394744331496016,9211,1661394744331496016,imu,-0.545043,-0.482148,0.204738
1661394744336602388,9212,1661394744336602388,imu,-0.545294,-0.48181,0.204899
1661394744343769106,9213,1661394744343769106,imu,-0.545445,-0.481795,0.205131
1661394744346606570,9214,1661394744346606570,imu,-0.544952,-0.482204,0.204982
1661394744351703443,9215,1661394744351703443,imu,-0.545713,-0.481628,0.204839
1661394744356701622,9216,1661394744356701622,imu,-0.546165,-0.481331,0.205221
1661394744361527210,9217,1661394744361527210,imu,-0.545899,-0.481147,0.205253
1661394744366556890,9218,1661394744366556890,imu,-0.54567,-0.480995,0.205154
1661394744371628269,9219,1661394744371628269,imu,-0.545639,-0.480552,0.205382
1661394744377948163,9220,1661394744377948163,imu,-0.545486,-0.480591,0.205482
1661394744381572802,9221,1661394744381572802,imu,-0.545112,-0.480602,0.20559
1661394744386721711,9222,1661394744386721711,imu,-0.544825,-0.480622,0.205693
1661394744391574679,9223,1661394744391574679,imu,-0.544261,-0.479689,0.205831
1661394744396515374,9224,1661394744396515374,imu,-0.543838,-0.47917,0.205367
1661394744401651222,9225,1661394744401651222,imu,-0.543128,-0.477587,0.205398
1661394744406586329,9226,1661394744406586329,imu,-0.542937,-0.477486,0.205146
1661394744411537153,9227,1661394744411537153,imu,-0.542374,-0.477708,0.205098
1661394744420321597,9228,1661394744420321597,imu,-0.542935,-0.477686,0.204898
1661394744421674043,9229,1661394744421674043,imu,-0.543344,-0.477321,0.204886
1661394744426649523,9230,1661394744426649523,imu,-0.543671,-0.47721,0.204945
1661394744431607610,9231,1661394744431607610,imu,-0.544191,-0.47722,0.20472
1661394744436643367,9232,1661394744436643367,imu,-0.544275,-0.476781,0.204865
1661394744441626739,9233,1661394744441626739,imu,-0.543646,-0.476818,0.205093
1661394744446519240,9234,1661394744446519240,imu,-0.543296,-0.477031,0.205074
1661394744451635530,9235,1661394744451635530,imu,-0.542987,-0.477252,0.205167
1661394744461200864,9236,1661394744461200864,imu,-0.543313,-0.477244,0.204918
1661394744461746229,9237,1661394744461746229,imu,-0.543311,-0.477089,0.204731
1661394744466550583,9238,1661394744466550583,imu,-0.543447,-0.47766,0.204386
1661394744471690202,9239,1661394744471690202,imu,-0.544273,-0.478382,0.204437
1661394744476544427,9240,1661394744476544427,imu,-0.544011,-0.478739,0.204615
1661394744481507613,9241,1661394744481507613,imu,-0.54727,-0.477995,0.204129
1661394744486635918,9242,1661394744486635918,imu,-0.563494,-0.476706,0.201737
1661394744491575495,9243,1661394744491575495,imu,-0.596653,-0.47694,0.199206
1661394744499939391,9244,1661394744499939391,imu,-0.671878,-0.473371,0.190266
1661394744501735017,9245,1661394744501735017,imu,-0.798909,-0.473477,0.149396
1661394744506677598,9246,1661394744506677598,imu,-0.887596,-0.492214,0.038957
1661394744511614941,9247,1661394744511614941,imu,-0.971221,-0.501571,-0.122413
1661394744516504857,9248,1661394744516504857,imu,-1.014688,-0.509163,-0.298802
1661394744521661170,9249,1661394744521661170,imu,-1.026218,-0.519166,-0.479743
1661394744526662633,9250,1661394744526662633,imu,-1.024262,-0.535642,-0.643995
1661394744531532782,9251,1661394744531532782,imu,-1.005201,-0.562145,-0.767621
1661394744536763552,9252,1661394744536763552,imu,-0.867981,-0.609792,-0.752832
1661394744541595147,9253,1661394744541595147,imu,-0.701892,-0.64125,-0.627528
1661394744546538636,9254,1661394744546538636,imu,-0.551318,-0.648206,-0.479458
1661394744551513067,9255,1661394744551513067,imu,-0.393104,-0.63335,-0.301351
1661394744556623351,9256,1661394744556623351,imu,-0.27611,-0.584814,-0.075505
1661394744561585629,9257,1661394744561585629,imu,-0.210789,-0.510073,0.196598
1661394744566518921,9258,1661394744566518921,imu,-0.122129,-0.432329,0.490996
1661394744575907821,9259,1661394744575907821,imu,-0.013302,-0.348188,0.793117
1661394744576651272,9260,1661394744576651272,imu,0.106722,-0.264855,1.095833
1661394744581562282,9261,1661394744581562282,imu,0.269337,-0.238394,1.398935
1661394744586701133,9262,1661394744586701133,imu,0.287674,-0.212318,1.734497
1661394744591707205,9263,1661394744591707205,imu,0.222165,-0.19443,2.083629
1661394744596549347,9264,1661394744596549347,imu,0.139203,-0.188117,2.442513
1661394744601341687,9265,1661394744601341687,imu,0.043756,-0.187296,2.814589
1661394744606467547,9266,1661394744606467547,imu,-0.059453,-0.190099,3.207507
1661394744615191713,9267,1661394744615191713,imu,-0.153546,-0.197361,3.626769
1661394744616409774,9268,1661394744616409774,imu,-0.236768,-0.203449,4.070197
1661394744621399712,9269,1661394744621399712,imu,-0.289534,-0.218174,4.532812
1661394744626553371,9270,1661394744626553371,imu,-0.311226,-0.244978,5.011492
1661394744631387410,9271,1661394744631387410,imu,-0.327005,-0.287131,5.509169
1661394744636326638,9272,1661394744636326638,imu,-0.346575,-0.340094,6.030979
1661394744641443837,9273,1661394744641443837,imu,-0.357149,-0.396106,6.571615
1661394744646416941,9274,1661394744646416941,imu,-0.357325,-0.449654,7.126138
1661394744653491741,9275,1661394744653491741,imu,-0.347776,-0.49653,7.693399
1661394744656468689,9276,1661394744656468689,imu,-0.340081,-0.53231,8.266087
1661394744661494318,9277,1661394744661494318,imu,-0.34393,-0.5526,8.837555
1661394744666363071,9278,1661394744666363071,imu,-0.356414,-0.558072,9.40443
1661394744671307189,9279,1661394744671307189,imu,-0.367119,-0.551797,9.956752
1661394744676423829,9280,1661394744676423829,imu,-0.370514,-0.535691,10.490771
1661394744681389809,9281,1661394744681389809,imu,-0.368908,-0.509897,11.001111
1661394744686343356,9282,1661394744686343356,imu,-0.358721,-0.47724,11.481512
1661394744696147426,9283,1661394744696147426,imu,-0.341761,-0.441271,11.929629
1661394744696520199,9284,1661394744696520199,imu,-0.331709,-0.401625,12.343877
1661394744701392026,9285,1661394744701392026,imu,-0.344727,-0.355333,12.722273
1661394744706497210,9286,1661394744706497210,imu,-0.364694,-0.308186,13.067809
1661394744711407033,9287,1661394744711407033,imu,-0.389619,-0.260366,13.380249
1661394744716466608,9288,1661394744716466608,imu,-0.420665,-0.211403,13.661449
1661394744721322160,9289,1661394744721322160,imu,-0.447094,-0.162243,13.914739
1661394744726480848,9290,1661394744726480848,imu,-0.455696,-0.115443,14.132417
1661394744731441659,9291,1661394744731441659,imu,-0.415558,-0.082336,14.300465
1661394744739216885,9292,1661394744739216885,imu,-0.351313,-0.062567,14.412227
1661394744741470357,9293,1661394744741470357,imu,-0.288864,-0.053044,14.472886
1661394744746529793,9294,1661394744746529793,imu,-0.218238,-0.056388,14.493885
1661394744751408743,9295,1661394744751408743,imu,-0.159038,-0.070222,14.484741
1661394744756480541,9296,1661394744756480541,imu,-0.110992,-0.089424,14.450735
1661394744761433669,9297,1661394744761433669,imu,-0.051867,-0.111181,14.394639
1661394744766416483,9298,1661394744766416483,imu,0.026567,-0.136514,14.32533
1661394744771314781,9299,1661394744771314781,imu,0.117699,-0.162126,14.255066
1661394744778769408,9300,1661394744778769408,imu,0.210292,-0.184154,14.193749
1661394744781462777,9301,1661394744781462777,imu,0.296977,-0.199725,14.146954
1661394744786433088,9302,1661394744786433088,imu,0.374446,-0.210837,14.119508
1661394744791470591,9303,1661394744791470591,imu,0.438533,-0.218147,14.111398
1661394744796412125,9304,1661394744796412125,imu,0.48651,-0.220627,14.120538
1661394744801388582,9305,1661394744801388582,imu,0.525578,-0.223038,14.144667
1661394744806307834,9306,1661394744806307834,imu,0.556358,-0.227822,14.177897
1661394744811451435,9307,1661394744811451435,imu,0.571352,-0.235086,14.214962
1661394744821645111,9308,1661394744821645111,imu,0.571599,-0.243648,14.250494
1661394744821896910,9309,1661394744821896910,imu,0.556967,-0.252307,14.281034
1661394744826570440,9310,1661394744826570440,imu,0.525736,-0.263326,14.306215
1661394744831483616,9311,1661394744831483616,imu,0.465196,-0.272539,14.328408
1661394744836461819,9312,1661394744836461819,imu,0.372615,-0.261288,14.347241
1661394744841496459,9313,1661394744841496459,imu,0.316105,-0.24137,14.360821
1661394744846434430,9314,1661394744846434430,imu,0.276848,-0.212072,14.369666
1661394744851378129,9315,1661394744851378129,imu,0.24351,-0.180428,14.372608
1661394744856318475,9316,1661394744856318475,imu,0.221592,-0.156174,14.369478
1661394744861836525,9317,1661394744861836525,imu,0.198586,-0.138638,14.365993
1661394744866485610,9318,1661394744866485610,imu,0.172693,-0.120617,14.365331
1661394744871421905,9319,1661394744871421905,imu,0.156327,-0.097584,14.365367
1661394744876492306,9320,1661394744876492306,imu,0.159118,-0.070918,14.363835
1661394744881518424,9321,1661394744881518424,imu,0.17418,-0.040804,14.359812
1661394744886385361,9322,1661394744886385361,imu,0.197493,-0.011353,14.356754
1661394744891503677,9323,1661394744891503677,imu,0.216865,0.017701,14.357676
1661394744899978699,9324,1661394744899978699,imu,0.227295,0.054946,14.365486
1661394744901420131,9325,1661394744901420131,imu,0.247391,0.108281,14.383933
1661394744906336171,9326,1661394744906336171,imu,0.298831,0.164847,14.413328
1661394744911442054,9327,1661394744911442054,imu,0.349927,0.222383,14.456654
1661394744916396090,9328,1661394744916396090,imu,0.392455,0.275522,14.510442
1661394744921359137,9329,1661394744921359137,imu,0.425541,0.322044,14.56692
1661394744926502737,9330,1661394744926502737,imu,0.448149,0.365533,14.61527
1661394744931457751,9331,1661394744931457751,imu,0.458772,0.400503,14.652549
1661394744941148809,9332,1661394744941148809,imu,0.459872,0.424903,14.675466
1661394744941627121,9333,1661394744941627121,imu,0.448935,0.439403,14.684924
1661394744946507539,9334,1661394744946507539,imu,0.429773,0.44607,14.68419
1661394744951469258,9335,1661394744951469258,imu,0.406155,0.446625,14.676569
1661394744956361410,9336,1661394744956361410,imu,0.379584,0.443343,14.664412
1661394744961467992,9337,1661394744961467992,imu,0.358181,0.437355,14.651371
1661394744966436207,9338,1661394744966436207,imu,0.342914,0.430367,14.638947
1661394744971362653,9339,1661394744971362653,imu,0.335409,0.422629,14.628174
1661394744979423832,9340,1661394744979423832,imu,0.333018,0.415455,14.618756
1661394744981467834,9341,1661394744981467834,imu,0.330491,0.410423,14.609943
1661394744986438423,9342,1661394744986438423,imu,0.331777,0.407979,14.599233
1661394744991351390,9343,1661394744991351390,imu,0.334463,0.406822,14.585036
1661394744996469706,9344,1661394744996469706,imu,0.334767,0.406144,14.566251
1661394745001393987,9345,1661394745001393987,imu,0.33126,0.405127,14.543513
1661394745006355215,9346,1661394745006355215,imu,0.325442,0.403575,14.516362
1661394745011460737,9347,1661394745011460737,imu,0.320398,0.401679,14.48657
1661394745018828806,9348,1661394745018828806,imu,0.314182,0.401218,14.457045
1661394745021399867,9349,1661394745021399867,imu,0.306992,0.404056,14.431874
1661394745026501687,9350,1661394745026501687,imu,0.307173,0.407923,14.41333
1661394745031463534,9351,1661394745031463534,imu,0.313576,0.413018,14.402197
1661394745036392343,9352,1661394745036392343,imu,0.326694,0.420165,14.397848
1661394745041344831,9353,1661394745041344831,imu,0.349142,0.431647,14.401304
1661394745046462017,9354,1661394745046462017,imu,0.37916,0.447056,14.414157
1661394745051417578,9355,1661394745051417578,imu,0.409312,0.465539,14.43399
1661394745057556134,9356,1661394745057556134,imu,0.443363,0.485618,14.457945
1661394745061601591,9357,1661394745061601591,imu,0.479272,0.507411,14.48406
1661394745066452311,9358,1661394745066452311,imu,0.51199,0.532068,14.510315
1661394745071489803,9359,1661394745071489803,imu,0.541234,0.558126,14.534402
1661394745076326694,9360,1661394745076326694,imu,0.557168,0.586152,14.55374
1661394745081468955,9361,1661394745081468955,imu,0.557463,0.617304,14.567819
1661394745086446517,9362,1661394745086446517,imu,0.549016,0.651667,14.575603
1661394745091355490,9363,1661394745091355490,imu,0.533929,0.689397,14.577945
1661394745100416646,9364,1661394745100416646,imu,0.512057,0.731018,14.575571
1661394745101534055,9365,1661394745101534055,imu,0.481782,0.77627,14.568638
1661394745106454693,9366,1661394745106454693,imu,0.440552,0.821989,14.556134
1661394745111522567,9367,1661394745111522567,imu,0.384788,0.868629,14.538117
1661394745116480293,9368,1661394745116480293,imu,0.308354,0.916879,14.515605
1661394745121427333,9369,1661394745121427333,imu,0.205926,0.967854,14.489792
1661394745126574344,9370,1661394745126574344,imu,0.08205,1.022487,14.459578
1661394745131505737,9371,1661394745131505737,imu,-0.060392,1.084243,14.421383
1661394745139985418,9372,1661394745139985418,imu,-0.214856,1.149277,14.375902
1661394745141404217,9373,1661394745141404217,imu,-0.364025,1.211859,14.325604
1661394745146548573,9374,1661394745146548573,imu,-0.489167,1.267106,14.274113
1661394745151506439,9375,1661394745151506439,imu,-0.589844,1.31451,14.226086
1661394745156357579,9376,1661394745156357579,imu,-0.673664,1.354468,14.185338
1661394745161510317,9377,1661394745161510317,imu,-0.743704,1.390111,14.154494
1661394745166427672,9378,1661394745166427672,imu,-0.802284,1.420813,14.134174
1661394745171412428,9379,1661394745171412428,imu,-0.849968,1.447795,14.123235
1661394745182422939,9380,1661394745182422939,imu,-0.884747,1.471151,14.118515
1661394745182729636,9381,1661394745182729636,imu,-0.903764,1.491583,14.116241
1661394745186484600,9382,1661394745186484600,imu,-0.915214,1.511507,14.113335
1661394745191361653,9383,1661394745191361653,imu,-0.925348,1.532495,14.109554
1661394745196486942,9384,1661394745196486942,imu,-0.927104,1.554366,14.105327
1661394745201415821,9385,1661394745201415821,imu,-0.925837,1.578135,14.101514
1661394745206373687,9386,1661394745206373687,imu,-0.923703,1.6039,14.098643
1661394745211589846,9387,1661394745211589846,imu,-0.924739,1.63096,14.098929
1661394745218527938,9388,1661394745218527938,imu,-0.930877,1.656507,14.102717
1661394745221494681,9389,1661394745221494681,imu,-0.942248,1.679776,14.109937
1661394745226433618,9390,1661394745226433618,imu,-0.960207,1.701759,14.119131
1661394745231536207,9391,1661394745231536207,imu,-0.984694,1.722361,14.129843
1661394745236409907,9392,1661394745236409907,imu,-1.009335,1.742186,14.139959
1661394745241366096,9393,1661394745241366096,imu,-1.038149,1.764364,14.145778
1661394745246552012,9394,1661394745246552012,imu,-1.075355,1.789694,14.147581
1661394745251428646,9395,1661394745251428646,imu,-1.120363,1.816023,14.145516
1661394745256872226,9396,1661394745256872226,imu,-1.169148,1.844021,14.141313
1661394745261529471,9397,1661394745261529471,imu,-1.218982,1.870688,14.135794
1661394745266576671,9398,1661394745266576671,imu,-1.264575,1.894547,14.130466
1661394745271399313,9399,1661394745271399313,imu,-1.303236,1.91261,14.124793
1661394745276374780,9400,1661394745276374780,imu,-1.340158,1.924735,14.118406
1661394745281545469,9401,1661394745281545469,imu,-1.378174,1.932359,14.111234
1661394745286415398,9402,1661394745286415398,imu,-1.415519,1.937765,14.10436
1661394745296170901,9403,1661394745296170901,imu,-1.444253,1.944793,14.098923
1661394745296553522,9404,1661394745296553522,imu,-1.458245,1.953456,14.096251
1661394745301540094,9405,1661394745301540094,imu,-1.453697,1.963587,14.098723
1661394745306409464,9406,1661394745306409464,imu,-1.434029,1.972023,14.10816
1661394745311513659,9407,1661394745311513659,imu,-1.406687,1.976653,14.126193
1661394745316460279,9408,1661394745316460279,imu,-1.379858,1.979066,14.15247
1661394745321440007,9409,1661394745321440007,imu,-1.357531,1.979789,14.187011
1661394745326358479,9410,1661394745326358479,imu,-1.338122,1.980144,14.232139
1661394745335837459,9411,1661394745335837459,imu,-1.319547,1.980491,14.29379
1661394745336800576,9412,1661394745336800576,imu,-1.296371,1.982674,14.374686
1661394745341591997,9413,1661394745341591997,imu,-1.263984,1.986799,14.468929
1661394745346527651,9414,1661394745346527651,imu,-1.222332,1.990758,14.567627
1661394745351458347,9415,1661394745351458347,imu,-1.183142,1.993487,14.664121
1661394745356406224,9416,1661394745356406224,imu,-1.155141,1.993373,14.755573
1661394745361361087,9417,1661394745361361087,imu,-1.135186,1.988288,14.838745
1661394745366476946,9418,1661394745366476946,imu,-1.121935,1.9761,14.913966
1661394745377708801,9419,1661394745377708801,imu,-1.116987,1.958747,14.984129
1661394745378018851,9420,1661394745378018851,imu,-1.110235,1.938702,15.050483
1661394745381698799,9421,1661394745381698799,imu,-1.092249,1.916651,15.108735
1661394745386747605,9422,1661394745386747605,imu,-1.077044,1.895975,15.157001
1661394745391414140,9423,1661394745391414140,imu,-1.062677,1.878216,15.197316
1661394745396576517,9424,1661394745396576517,imu,-1.041092,1.863694,15.230653
1661394745401476899,9425,1661394745401476899,imu,-1.007452,1.85299,15.25875
1661394745406418630,9426,1661394745406418630,imu,-0.955714,1.847588,15.284917
1661394745416030668,9427,1661394745416030668,imu,-0.889069,1.848885,15.314571
1661394745416634004,9428,1661394745416634004,imu,-0.801597,1.855573,15.350685
1661394745421455320,9429,1661394745421455320,imu,-0.694688,1.866452,15.394111
1661394745426452300,9430,1661394745426452300,imu,-0.571282,1.88182,15.445856
1661394745431517310,9431,1661394745431517310,imu,-0.434898,1.900557,15.505446
1661394745436463302,9432,1661394745436463302,imu,-0.290065,1.920993,15.569968
1661394745441420190,9433,1661394745441420190,imu,-0.138805,1.944564,15.637397
1661394745446520683,9434,1661394745446520683,imu,0.022252,1.971793,15.707755
1661394745455069163,9435,1661394745455069163,imu,0.194322,2.00434,15.783532
1661394745456408615,9436,1661394745456408615,imu,0.375046,2.042384,15.861279
1661394745461486268,9437,1661394745461486268,imu,0.55586,2.083999,15.938893
1661394745466562385,9438,1661394745466562385,imu,0.719695,2.127716,16.013409
1661394745471471218,9439,1661394745471471218,imu,0.86661,2.164324,16.084
1661394745476399538,9440,1661394745476399538,imu,1.009709,2.188842,16.148006
1661394745481525665,9441,1661394745481525665,imu,1.153991,2.200873,16.205593
1661394745486500154,9442,1661394745486500154,imu,1.310721,2.201506,16.256454
1661394745493518431,9443,1661394745493518431,imu,1.485097,2.194042,16.301018
1661394745496553554,9444,1661394745496553554,imu,1.678133,2.180004,16.342779
1661394745501583990,9445,1661394745501583990,imu,1.882667,2.165468,16.385031
1661394745506448401,9446,1661394745506448401,imu,2.072859,2.151309,16.428545
1661394745511354091,9447,1661394745511354091,imu,2.255625,2.131514,16.468477
1661394745516510392,9448,1661394745516510392,imu,2.403712,2.105269,16.489946
1661394745521475312,9449,1661394745521475312,imu,2.506762,2.101339,16.492077
1661394745526411805,9450,1661394745526411805,imu,2.649073,2.098672,16.508339
1661394745539726980,9451,1661394745539726980,imu,2.831023,2.093108,16.561277
1661394745540040313,9452,1661394745540040313,imu,3.028244,2.086914,16.66025
1661394745541525326,9453,1661394745541525326,imu,3.206123,2.083196,16.801866
1661394745546418304,9454,1661394745546418304,imu,3.34696,2.08477,16.976502
1661394745551533325,9455,1661394745551533325,imu,3.470193,2.091622,17.177038
1661394745556441250,9456,1661394745556441250,imu,3.596277,2.10783,17.399226
1661394745561417974,9457,1661394745561417974,imu,3.731548,2.138966,17.63562
1661394745566524544,9458,1661394745566524544,imu,3.872594,2.185452,17.872104
1661394745571483108,9459,1661394745571483108,imu,4.007916,2.247226,18.09415
1661394745581082364,9460,1661394745581082364,imu,4.123746,2.322192,18.290176
1661394745581544400,9461,1661394745581544400,imu,4.21191,2.404886,18.454202
1661394745586553813,9462,1661394745586553813,imu,4.267009,2.486086,18.584266
1661394745591489956,9463,1661394745591489956,imu,4.285108,2.558222,18.68315
1661394745596394878,9464,1661394745596394878,imu,4.269698,2.614179,18.757896
1661394745601498793,9465,1661394745601498793,imu,4.231657,2.646838,18.814338
1661394745606462247,9466,1661394745606462247,imu,4.176982,2.659794,18.856044
1661394745611424373,9467,1661394745611424373,imu,4.105114,2.654609,18.884504
1661394745620156970,9468,1661394745620156970,imu,4.01859,2.634727,18.901552
1661394745621509972,9469,1661394745621509972,imu,3.927093,2.601165,18.909256
1661394745626529233,9470,1661394745626529233,imu,3.838617,2.557,18.90791
1661394745631554361,9471,1661394745631554361,imu,3.749721,2.508664,18.899306
1661394745636497420,9472,1661394745636497420,imu,3.652243,2.462704,18.886984
1661394745641448790,9473,1661394745641448790,imu,3.557414,2.419969,18.871494
1661394745646370544,9474,1661394745646370544,imu,3.479384,2.381362,18.854636
1661394745651485915,9475,1661394745651485915,imu,3.41259,2.350371,18.838094
1661394745659912303,9476,1661394745659912303,imu,3.354266,2.330722,18.82619
1661394745661476801,9477,1661394745661476801,imu,3.305352,2.322189,18.823118
1661394745666606001,9478,1661394745666606001,imu,3.269095,2.323724,18.83009
1661394745671486616,9479,1661394745671486616,imu,3.243734,2.335705,18.847004
1661394745676449302,9480,1661394745676449302,imu,3.224021,2.357519,18.873724
1661394745682746550,9481,1661394745682746550,imu,3.200384,2.387606,18.910598
1661394745686533713,9482,1661394745686533713,imu,3.171926,2.422367,18.954778
1661394745691447575,9483,1661394745691447575,imu,3.135006,2.462339,19.003466
1661394745698692365,9484,1661394745698692365,imu,3.085624,2.505157,19.053982
1661394745701568866,9485,1661394745701568866,imu,3.023009,2.547504,19.10643
1661394745706481471,9486,1661394745706481471,imu,2.948298,2.584985,19.16138
1661394745711442200,9487,1661394745711442200,imu,2.861981,2.617473,19.215912
1661394745716565603,9488,1661394745716565603,imu,2.775169,2.640512,19.266542
1661394745721501746,9489,1661394745721501746,imu,2.688451,2.652997,19.313058
1661394745726440404,9490,1661394745726440404,imu,2.587264,2.65283,19.359218
1661394745731423275,9491,1661394745731423275,imu,2.469638,2.638029,19.403992
1661394745741036919,9492,1661394745741036919,imu,2.349321,2.604993,19.444234
1661394745741563983,9493,1661394745741563983,imu,2.226072,2.557218,19.47874
1661394745746429302,9494,1661394745746429302,imu,2.094979,2.501292,19.50779
1661394745751544253,9495,1661394745751544253,imu,1.962924,2.438268,19.53106
1661394745756485705,9496,1661394745756485705,imu,1.835921,2.371223,19.547516
1661394745761457819,9497,1661394745761457819,imu,1.711481,2.304904,19.556992
1661394745766579057,9498,1661394745766579057,imu,1.589711,2.242163,19.558338
1661394745771513873,9499,1661394745771513873,imu,1.471269,2.185967,19.550952
1661394745781147004,9500,1661394745781147004,imu,1.358615,2.137392,19.533538
1661394745781529066,9501,1661394745781529066,imu,1.260052,2.098278,19.505542
1661394745786519969,9502,1661394745786519969,imu,1.18647,2.07081,19.468296
1661394745791454506,9503,1661394745791454506,imu,1.138946,2.05704,19.424832
1661394745796415515,9504,1661394745796415515,imu,1.108187,2.056249,19.378196
1661394745801517056,9505,1661394745801517056,imu,1.092942,2.066521,19.328952
1661394745806551264,9506,1661394745806551264,imu,1.092982,2.086363,19.279806
1661394745811472460,9507,1661394745811472460,imu,1.107271,2.113688,19.235478
1661394745816379827,9508,1661394745816379827,imu,1.132285,2.149302,19.200518
1661394745822882913,9509,1661394745822882913,imu,1.153239,2.193399,19.179736
1661394745826458790,9510,1661394745826458790,imu,1.164812,2.24028,19.172606
1661394745831385504,9511,1661394745831385504,imu,1.164798,2.281576,19.17794
1661394745836523575,9512,1661394745836523575,imu,1.149868,2.314375,19.1951
1661394745841468658,9513,1661394745841468658,imu,1.118316,2.335184,19.223682
1661394745846413393,9514,1661394745846413393,imu,1.078231,2.344508,19.263442
1661394745851567598,9515,1661394745851567598,imu,1.033704,2.34345,19.311692
1661394745856489143,9516,1661394745856489143,imu,0.988898,2.336949,19.361474
1661394745865431420,9517,1661394745865431420,imu,0.937227,2.330989,19.407742
1661394745866498889,9518,1661394745866498889,imu,0.87528,2.326006,19.445444
1661394745871559569,9519,1661394745871559569,imu,0.802558,2.320869,19.468852
1661394745876471336,9520,1661394745876471336,imu,0.723998,2.315815,19.472928
1661394745881428014,9521,1661394745881428014,imu,0.643336,2.316302,19.456972
1661394745886557354,9522,1661394745886557354,imu,0.562187,2.323904,19.422878
1661394745891494056,9523,1661394745891494056,imu,0.484644,2.338964,19.37409
1661394745896463656,9524,1661394745896463656,imu,0.416871,2.363825,19.313408
1661394745905988664,9525,1661394745905988664,imu,0.361629,2.396044,19.244754
1661394745907212590,9526,1661394745907212590,imu,0.31808,2.435263,19.170584
1661394745911459764,9527,1661394745911459764,imu,0.274356,2.483277,19.094074
1661394745916435022,9528,1661394745916435022,imu,0.23363,2.538419,19.021998
1661394745921592859,9529,1661394745921592859,imu,0.206996,2.591444,18.95836
1661394745926594658,9530,1661394745926594658,imu,0.180169,2.64629,18.907104
1661394745931481699,9531,1661394745931481699,imu,0.149961,2.701516,18.867276
1661394745936593857,9532,1661394745936593857,imu,0.10844,2.75579,18.838242
1661394745941487044,9533,1661394745941487044,imu,0.060436,2.804591,18.8214
1661394745946464327,9534,1661394745946464327,imu,0.015071,2.843623,18.817408
1661394745951578720,9535,1661394745951578720,imu,-0.03466,2.875866,18.823526
1661394745956505154,9536,1661394745956505154,imu,-0.085355,2.906422,18.837492
1661394745961476920,9537,1661394745961476920,imu,-0.130129,2.937475,18.855124
1661394745966449244,9538,1661394745966449244,imu,-0.168424,2.969781,18.871
1661394745971526966,9539,1661394745971526966,imu,-0.206325,3.004738,18.88206
1661394745976472190,9540,1661394745976472190,imu,-0.243112,3.041332,18.885826
1661394745986759925,9541,1661394745986759925,imu,-0.27651,3.078484,18.881046
1661394745986954449,9542,1661394745986954449,imu,-0.309928,3.115488,18.866916
1661394745991498821,9543,1661394745991498821,imu,-0.347117,3.154255,18.844224
1661394745996434825,9544,1661394745996434825,imu,-0.386553,3.195367,18.815462
1661394746001560323,9545,1661394746001560323,imu,-0.427463,3.235301,18.784732
1661394746006536416,9546,1661394746006536416,imu,-0.465635,3.272995,18.75422
1661394746011494339,9547,1661394746011494339,imu,-0.504383,3.30716,18.725662
1661394746016453241,9548,1661394746016453241,imu,-0.548135,3.341278,18.699216
1661394746021543943,9549,1661394746021543943,imu,-0.590896,3.371558,18.67387
1661394746030607941,9550,1661394746030607941,imu,-0.634592,3.399006,18.651956
1661394746031453644,9551,1661394746031453644,imu,-0.675847,3.422038,18.632084
1661394746036565021,9552,1661394746036565021,imu,-0.71189,3.438491,18.61268
1661394746041611860,9553,1661394746041611860,imu,-0.750535,3.449523,18.591808
1661394746046505944,9554,1661394746046505944,imu,-0.796931,3.457887,18.570822
1661394746051403520,9555,1661394746051403520,imu,-0.840408,3.460175,18.550804
1661394746056513779,9556,1661394746056513779,imu,-0.883717,3.458023,18.533008
1661394746061467303,9557,1661394746061467303,imu,-0.930243,3.448842,18.52056
1661394746076290435,9558,1661394746076290435,imu,-0.978003,3.430451,18.514008
1661394746076661740,9559,1661394746076661740,imu,-1.034054,3.403783,18.515838
1661394746076917029,9560,1661394746076917029,imu,-1.096523,3.371247,18.529588
1661394746081594100,9561,1661394746081594100,imu,-1.170878,3.332802,18.555258
1661394746086648831,9562,1661394746086648831,imu,-1.249115,3.287354,18.59325
1661394746091495209,9563,1661394746091495209,imu,-1.32732,3.236419,18.642534
1661394746096475624,9564,1661394746096475624,imu,-1.404762,3.185378,18.7005
1661394746101432081,9565,1661394746101432081,imu,-1.483283,3.137305,18.765522
1661394746106541642,9566,1661394746106541642,imu,-1.553855,3.092744,18.832588
1661394746118020308,9567,1661394746118020308,imu,-1.619387,3.054372,18.896476
1661394746118278391,9568,1661394746118278391,imu,-1.684525,3.022106,18.952106
1661394746121645558,9569,1661394746121645558,imu,-1.749631,2.99586,18.999628
1661394746126583854,9570,1661394746126583854,imu,-1.811746,2.973219,19.038128
1661394746131475494,9571,1661394746131475494,imu,-1.87036,2.951966,19.067362
1661394746136564310,9572,1661394746136564310,imu,-1.928898,2.932938,19.087344
1661394746141563653,9573,1661394746141563653,imu,-1.992477,2.918425,19.098736
1661394746146487003,9574,1661394746146487003,imu,-2.060082,2.902334,19.1042
1661394746151427185,9575,1661394746151427185,imu,-2.126415,2.879351,19.105502
1661394746156901625,9576,1661394746156901625,imu,-2.194893,2.847182,19.105324
1661394746161544121,9577,1661394746161544121,imu,-2.27011,2.807225,19.10396
1661394746166444491,9578,1661394746166444491,imu,-2.34545,2.758453,19.10267
1661394746171575565,9579,1661394746171575565,imu,-2.412247,2.70091,19.101878
1661394746176538797,9580,1661394746176538797,imu,-2.468034,2.634593,19.10126
1661394746181496302,9581,1661394746181496302,imu,-2.513433,2.560104,19.100686
1661394746186585747,9582,1661394746186585747,imu,-2.551201,2.481248,19.098722
1661394746191524393,9583,1661394746191524393,imu,-2.581771,2.399075,19.093978
1661394746196520034,9584,1661394746196520034,imu,-2.606088,2.314502,19.088218
1661394746201464547,9585,1661394746201464547,imu,-2.622624,2.229832,19.081626
1661394746206554970,9586,1661394746206554970,imu,-2.634756,2.148501,19.075934
1661394746211512265,9587,1661394746211512265,imu,-2.645033,2.074357,19.070356
1661394746216454054,9588,1661394746216454054,imu,-2.648344,2.006977,19.066172
1661394746221595395,9589,1661394746221595395,imu,-2.627555,1.938772,19.065336
1661394746226535648,9590,1661394746226535648,imu,-2.567109,1.870703,19.071624
1661394746231465144,9591,1661394746231465144,imu,-2.469441,1.812567,19.084524
1661394746237518752,9592,1661394746237518752,imu,-2.354656,1.774273,19.09989
1661394746241699073,9593,1661394746241699073,imu,-2.232792,1.754214,19.11515
1661394746246491600,9594,1661394746246491600,imu,-2.105175,1.746939,19.12973
1661394746251452876,9595,1661394746251452876,imu,-1.976115,1.749804,19.148444
1661394746256577594,9596,1661394746256577594,imu,-1.85474,1.765927,19.17134
1661394746261546134,9597,1661394746261546134,imu,-1.745016,1.792714,19.196524
1661394746266491835,9598,1661394746266491835,imu,-1.647683,1.824547,19.22437
1661394746271582747,9599,1661394746271582747,imu,-1.561835,1.855683,19.255334
1661394746278738325,9600,1661394746278738325,imu,-1.488981,1.884193,19.289056
1661394746281553564,9601,1661394746281553564,imu,-1.431366,1.90945,19.324934
1661394746287088700,9602,1661394746287088700,imu,-1.386289,1.932731,19.357722
1661394746291605053,9603,1661394746291605053,imu,-1.352595,1.954094,19.385402
1661394746296539020,9604,1661394746296539020,imu,-1.330723,1.974545,19.407212
1661394746301439739,9605,1661394746301439739,imu,-1.321338,1.994473,19.424742
1661394746306563339,9606,1661394746306563339,imu,-1.3223,2.012385,19.439238
1661394746311530692,9607,1661394746311530692,imu,-1.338051,2.028658,19.450964
1661394746318010853,9608,1661394746318010853,imu,-1.373169,2.041533,19.458542
1661394746321605790,9609,1661394746321605790,imu,-1.420451,2.048709,19.462554
1661394746326582642,9610,1661394746326582642,imu,-1.461339,2.047195,19.465208
1661394746331526038,9611,1661394746331526038,imu,-1.496269,2.040199,19.4689
1661394746336431996,9612,1661394746336431996,imu,-1.528205,2.031619,19.473596
1661394746341556224,9613,1661394746341556224,imu,-1.544646,2.020564,19.478678
1661394746346512053,9614,1661394746346512053,imu,-1.522337,2.006425,19.486472
1661394746351448184,9615,1661394746351448184,imu,-1.451361,1.997107,19.499124
1661394746358171971,9616,1661394746358171971,imu,-1.347708,2.00514,19.514308
1661394746361636364,9617,1661394746361636364,imu,-1.231644,2.037925,19.528394
1661394746366605742,9618,1661394746366605742,imu,-1.110073,2.090587,19.540714
1661394746371434659,9619,1661394746371434659,imu,-0.979183,2.158333,19.549796
1661394746376561612,9620,1661394746376561612,imu,-0.839076,2.238454,19.55317
1661394746381508430,9621,1661394746381508430,imu,-0.697286,2.330111,19.550108
1661394746386444701,9622,1661394746386444701,imu,-0.562386,2.432923,19.54246
1661394746391576334,9623,1661394746391576334,imu,-0.434837,2.539246,19.53011
1661394746400554071,9624,1661394746400554071,imu,-0.311188,2.641023,19.514842
1661394746401563425,9625,1661394746401563425,imu,-0.194029,2.732321,19.49679
1661394746406607120,9626,1661394746406607120,imu,-0.092463,2.810187,19.474626
1661394746411589071,9627,1661394746411589071,imu,-0.013241,2.874583,19.448798
1661394746416492515,9628,1661394746416492515,imu,0.048749,2.922652,19.42133
1661394746421441917,9629,1661394746421441917,imu,0.097741,2.948366,19.394618
1661394746426564330,9630,1661394746426564330,imu,0.133635,2.95223,19.369702
1661394746431485584,9631,1661394746431485584,imu,0.159685,2.935765,19.345468
1661394746439871231,9632,1661394746439871231,imu,0.185013,2.902041,19.320094
1661394746441668944,9633,1661394746441668944,imu,0.215951,2.853059,19.291198
1661394746446619953,9634,1661394746446619953,imu,0.254898,2.791432,19.258336
1661394746451521580,9635,1661394746451521580,imu,0.304799,2.726562,19.220474
1661394746456597405,9636,1661394746456597405,imu,0.370703,2.663751,19.175622
1661394746461559590,9637,1661394746461559590,imu,0.460877,2.605398,19.124794
1661394746466494394,9638,1661394746466494394,imu,0.578782,2.553946,19.068204
1661394746471441212,9639,1661394746471441212,imu,0.716188,2.512419,19.005604
1661394746478170587,9640,1661394746478170587,imu,0.870525,2.480564,18.938154
1661394746481507859,9641,1661394746481507859,imu,1.048273,2.45564,18.869298
1661394746486507551,9642,1661394746486507551,imu,1.242346,2.440409,18.80034
1661394746491625912,9643,1661394746491625912,imu,1.442139,2.438357,18.731172
1661394746496555688,9644,1661394746496555688,imu,1.646447,2.44911,18.66231
1661394746501487908,9645,1661394746501487908,imu,1.856158,2.468892,18.596308
1661394746506442479,9646,1661394746506442479,imu,2.071896,2.49652,18.535726
1661394746511543170,9647,1661394746511543170,imu,2.302555,2.524973,18.484832
1661394746518057486,9648,1661394746518057486,imu,2.569977,2.550032,18.451362
1661394746521486257,9649,1661394746521486257,imu,2.85961,2.579217,18.43642
1661394746526613419,9650,1661394746526613419,imu,3.148568,2.616223,18.437424
1661394746531501008,9651,1661394746531501008,imu,3.428851,2.663755,18.450926
1661394746536480793,9652,1661394746536480793,imu,3.685785,2.722028,18.474786
1661394746541568422,9653,1661394746541568422,imu,3.918629,2.782694,18.507268
1661394746546544995,9654,1661394746546544995,imu,4.139972,2.837762,18.547726
1661394746551507389,9655,1661394746551507389,imu,4.343671,2.891445,18.593814
1661394746558066477,9656,1661394746558066477,imu,4.517934,2.949083,18.645176
1661394746561717850,9657,1661394746561717850,imu,4.682235,3.004344,18.705616
1661394746566507722,9658,1661394746566507722,imu,4.854774,3.053903,18.777194
1661394746571530953,9659,1661394746571530953,imu,5.037328,3.098252,18.860548
1661394746576616207,9660,1661394746576616207,imu,5.217264,3.144159,18.95145
1661394746581523841,9661,1661394746581523841,imu,5.387201,3.195197,19.04458
1661394746586484908,9662,1661394746586484908,imu,5.5662,3.249566,19.137048
1661394746591605365,9663,1661394746591605365,imu,5.769096,3.306359,19.227002
1661394746596603381,9664,1661394746596603381,imu,5.998245,3.367463,19.31233
1661394746601503541,9665,1661394746601503541,imu,6.245361,3.437164,19.39059
1661394746606436879,9666,1661394746606436879,imu,6.504602,3.517738,19.461074
1661394746611548396,9667,1661394746611548396,imu,6.767234,3.608122,19.524318
1661394746616512955,9668,1661394746616512955,imu,7.055073,3.698249,19.588662
1661394746621457258,9669,1661394746621457258,imu,7.386774,3.785958,19.659872
1661394746626585957,9670,1661394746626585957,imu,7.740621,3.874268,19.737778
1661394746639876026,9671,1661394746639876026,imu,8.125514,3.962381,19.82617
1661394746640133620,9672,1661394746640133620,imu,8.543764,4.050528,19.925768
1661394746641672831,9673,1661394746641672831,imu,8.990491,4.133627,20.037498
1661394746646633828,9674,1661394746646633828,imu,9.491113,4.207419,20.16442
1661394746651588329,9675,1661394746651588329,imu,10.046353,4.278769,20.30405
1661394746656438898,9676,1661394746656438898,imu,10.614988,4.359127,20.444852
1661394746661619703,9677,1661394746661619703,imu,11.159715,4.454666,20.574444
1661394746666521330,9678,1661394746666521330,imu,11.672879,4.557401,20.68924
1661394746671476949,9679,1661394746671476949,imu,12.165783,4.657159,20.79089
1661394746681754811,9680,1661394746681754811,imu,12.623674,4.753155,20.880628
1661394746682008145,9681,1661394746682008145,imu,13.023615,4.840584,20.957672
1661394746686547408,9682,1661394746686547408,imu,13.386367,4.908633,21.024694
1661394746691636504,9683,1661394746691636504,imu,13.725562,4.960345,21.084304
1661394746696556152,9684,1661394746696556152,imu,14.050083,5.002725,21.137822
1661394746701510932,9685,1661394746701510932,imu,14.379786,5.04061,21.185756
1661394746706632367,9686,1661394746706632367,imu,14.730162,5.078058,21.225098
1661394746711644213,9687,1661394746711644213,imu,15.10307,5.120682,21.251414
1661394746716549612,9688,1661394746716549612,imu,15.494378,5.170969,21.257674
1661394746722306092,9689,1661394746722306092,imu,15.926799,5.223258,21.24382
1661394746726630716,9690,1661394746726630716,imu,16.413004,5.278436,21.215416
1661394746731627195,9691,1661394746731627195,imu,16.944646,5.339386,21.1755
1661394746736487055,9692,1661394746736487055,imu,17.502406,5.405765,21.127458
1661394746741622040,9693,1661394746741622040,imu,18.096492,5.468593,21.079992
1661394746746563479,9694,1661394746746563479,imu,18.704268,5.525619,21.04213
1661394746751529575,9695,1661394746751529575,imu,19.295556,5.576457,21.022194
1661394746756454811,9696,1661394746756454811,imu,19.86907,5.618155,21.02522
1661394746764606821,9697,1661394746764606821,imu,20.390336,5.656632,21.046718
1661394746766625249,9698,1661394746766625249,imu,20.829732,5.702031,21.0807
1661394746771560333,9699,1661394746771560333,imu,21.19795,5.744694,21.119572
